header: 
  seq: 449
  stamp: 
    secs: 1724985825
    nsecs: 467396274
  frame_id: "map"
child_frame_id: "base_link"
pose: 
  pose: 
    position: 
      x: 0.190953342361
      y: 0.155218348476
      z: 0.026
    orientation: 
      x: -0.00639027948799
      y: -0.0201163845711
      z: -0.0346949485194
      w: 0.999175084767
  covariance: [0.058564, 0.0, 0.0, 0.0, 0.0, 0.0, 0.0, 0.058564, 0.0, 0.0, 0.0, 0.0, 0.0, 0.0, 0.142129, 0.0, 0.0, 0.0, 0.0, 0.0, 0.0, 99999.0, 0.0, 0.0, 0.0, 0.0, 0.0, 0.0, 99999.0, 0.0, 0.0, 0.0, 0.0, 0.0, 0.0, 99999.0]
twist: 
  twist: 
    linear: 
      x: 0.0
      y: 0.0
      z: 0.01
    angular: 
      x: 0.0
      y: 0.0
      z: 0.0
  covariance: [-1.0, 0.0, 0.0, 0.0, 0.0, 0.0, 0.0, 0.0, 0.0, 0.0, 0.0, 0.0, 0.0, 0.0, 0.0, 0.0, 0.0, 0.0, 0.0, 0.0, 0.0, 0.0, 0.0, 0.0, 0.0, 0.0, 0.0, 0.0, 0.0, 0.0, 0.0, 0.0, 0.0, 0.0, 0.0, 0.0]
---
header: 
  seq: 450
  stamp: 
    secs: 1724985825
    nsecs: 488890993
  frame_id: "map"
child_frame_id: "base_link"
pose: 
  pose: 
    position: 
      x: 0.190953342712
      y: 0.155218348468
      z: 0.026
    orientation: 
      x: -0.00639212999805
      y: -0.0201099742988
      z: -0.0346873199398
      w: 0.999175464088
  covariance: [0.058564, 0.0, 0.0, 0.0, 0.0, 0.0, 0.0, 0.058564, 0.0, 0.0, 0.0, 0.0, 0.0, 0.0, 0.142129, 0.0, 0.0, 0.0, 0.0, 0.0, 0.0, 99999.0, 0.0, 0.0, 0.0, 0.0, 0.0, 0.0, 99999.0, 0.0, 0.0, 0.0, 0.0, 0.0, 0.0, 99999.0]
twist: 
  twist: 
    linear: 
      x: 0.0
      y: 0.0
      z: 0.01
    angular: 
      x: 0.0
      y: 0.0
      z: 0.0
  covariance: [-1.0, 0.0, 0.0, 0.0, 0.0, 0.0, 0.0, 0.0, 0.0, 0.0, 0.0, 0.0, 0.0, 0.0, 0.0, 0.0, 0.0, 0.0, 0.0, 0.0, 0.0, 0.0, 0.0, 0.0, 0.0, 0.0, 0.0, 0.0, 0.0, 0.0, 0.0, 0.0, 0.0, 0.0, 0.0, 0.0]
---
header: 
  seq: 451
  stamp: 
    secs: 1724985825
    nsecs: 507589772
  frame_id: "map"
child_frame_id: "base_link"
pose: 
  pose: 
    position: 
      x: 0.190953342712
      y: 0.155218348468
      z: 0.026
    orientation: 
      x: -0.00640894329789
      y: -0.0201028890185
      z: -0.0346986152952
      w: 0.999175126914
  covariance: [0.058564, 0.0, 0.0, 0.0, 0.0, 0.0, 0.0, 0.058564, 0.0, 0.0, 0.0, 0.0, 0.0, 0.0, 0.142129, 0.0, 0.0, 0.0, 0.0, 0.0, 0.0, 99999.0, 0.0, 0.0, 0.0, 0.0, 0.0, 0.0, 99999.0, 0.0, 0.0, 0.0, 0.0, 0.0, 0.0, 99999.0]
twist: 
  twist: 
    linear: 
      x: 0.0
      y: 0.0
      z: 0.01
    angular: 
      x: 0.0
      y: 0.0
      z: 0.0
  covariance: [-1.0, 0.0, 0.0, 0.0, 0.0, 0.0, 0.0, 0.0, 0.0, 0.0, 0.0, 0.0, 0.0, 0.0, 0.0, 0.0, 0.0, 0.0, 0.0, 0.0, 0.0, 0.0, 0.0, 0.0, 0.0, 0.0, 0.0, 0.0, 0.0, 0.0, 0.0, 0.0, 0.0, 0.0, 0.0, 0.0]
---
header: 
  seq: 452
  stamp: 
    secs: 1724985825
    nsecs: 526300743
  frame_id: "map"
child_frame_id: "base_link"
pose: 
  pose: 
    position: 
      x: 0.190953342712
      y: 0.155218348468
      z: 0.027
    orientation: 
      x: -0.00640538979172
      y: -0.020102201498
      z: -0.0347094048884
      w: 0.999174789739
  covariance: [0.058564, 0.0, 0.0, 0.0, 0.0, 0.0, 0.0, 0.058564, 0.0, 0.0, 0.0, 0.0, 0.0, 0.0, 0.142129, 0.0, 0.0, 0.0, 0.0, 0.0, 0.0, 99999.0, 0.0, 0.0, 0.0, 0.0, 0.0, 0.0, 99999.0, 0.0, 0.0, 0.0, 0.0, 0.0, 0.0, 99999.0]
twist: 
  twist: 
    linear: 
      x: 0.0
      y: 0.0
      z: 0.01
    angular: 
      x: 0.0
      y: 0.0
      z: 0.0
  covariance: [-1.0, 0.0, 0.0, 0.0, 0.0, 0.0, 0.0, 0.0, 0.0, 0.0, 0.0, 0.0, 0.0, 0.0, 0.0, 0.0, 0.0, 0.0, 0.0, 0.0, 0.0, 0.0, 0.0, 0.0, 0.0, 0.0, 0.0, 0.0, 0.0, 0.0, 0.0, 0.0, 0.0, 0.0, 0.0, 0.0]
---
header: 
  seq: 453
  stamp: 
    secs: 1724985825
    nsecs: 546505060
  frame_id: "map"
child_frame_id: "base_link"
pose: 
  pose: 
    position: 
      x: 0.19095334218
      y: 0.155218348175
      z: 0.027
    orientation: 
      x: -0.00639172301755
      y: -0.0201005742345
      z: -0.0347107957344
      w: 0.999174831886
  covariance: [0.058564, 0.0, 0.0, 0.0, 0.0, 0.0, 0.0, 0.058564, 0.0, 0.0, 0.0, 0.0, 0.0, 0.0, 0.142129, 0.0, 0.0, 0.0, 0.0, 0.0, 0.0, 99999.0, 0.0, 0.0, 0.0, 0.0, 0.0, 0.0, 99999.0, 0.0, 0.0, 0.0, 0.0, 0.0, 0.0, 99999.0]
twist: 
  twist: 
    linear: 
      x: 0.0
      y: 0.0
      z: 0.01
    angular: 
      x: 0.0
      y: 0.0
      z: 0.0
  covariance: [-1.0, 0.0, 0.0, 0.0, 0.0, 0.0, 0.0, 0.0, 0.0, 0.0, 0.0, 0.0, 0.0, 0.0, 0.0, 0.0, 0.0, 0.0, 0.0, 0.0, 0.0, 0.0, 0.0, 0.0, 0.0, 0.0, 0.0, 0.0, 0.0, 0.0, 0.0, 0.0, 0.0, 0.0, 0.0, 0.0]
---
header: 
  seq: 454
  stamp: 
    secs: 1724985825
    nsecs: 567592098
  frame_id: "map"
child_frame_id: "base_link"
pose: 
  pose: 
    position: 
      x: 0.19095334218
      y: 0.155218348175
      z: 0.027
    orientation: 
      x: -0.00638303747403
      y: -0.020105619344
      z: -0.0347089834199
      w: 0.999174874032
  covariance: [0.058564, 0.0, 0.0, 0.0, 0.0, 0.0, 0.0, 0.058564, 0.0, 0.0, 0.0, 0.0, 0.0, 0.0, 0.142129, 0.0, 0.0, 0.0, 0.0, 0.0, 0.0, 99999.0, 0.0, 0.0, 0.0, 0.0, 0.0, 0.0, 99999.0, 0.0, 0.0, 0.0, 0.0, 0.0, 0.0, 99999.0]
twist: 
  twist: 
    linear: 
      x: 0.0
      y: 0.0
      z: 0.01
    angular: 
      x: 0.0
      y: 0.0
      z: 0.0
  covariance: [-1.0, 0.0, 0.0, 0.0, 0.0, 0.0, 0.0, 0.0, 0.0, 0.0, 0.0, 0.0, 0.0, 0.0, 0.0, 0.0, 0.0, 0.0, 0.0, 0.0, 0.0, 0.0, 0.0, 0.0, 0.0, 0.0, 0.0, 0.0, 0.0, 0.0, 0.0, 0.0, 0.0, 0.0, 0.0, 0.0]
---
header: 
  seq: 455
  stamp: 
    secs: 1724985825
    nsecs: 588946977
  frame_id: "map"
child_frame_id: "base_link"
pose: 
  pose: 
    position: 
      x: 0.19095334262
      y: 0.155218348702
      z: 0.028
    orientation: 
      x: -0.00638527981808
      y: -0.0201080026166
      z: -0.0347017763088
      w: 0.999175000473
  covariance: [0.058564, 0.0, 0.0, 0.0, 0.0, 0.0, 0.0, 0.058564, 0.0, 0.0, 0.0, 0.0, 0.0, 0.0, 0.142129, 0.0, 0.0, 0.0, 0.0, 0.0, 0.0, 99999.0, 0.0, 0.0, 0.0, 0.0, 0.0, 0.0, 99999.0, 0.0, 0.0, 0.0, 0.0, 0.0, 0.0, 99999.0]
twist: 
  twist: 
    linear: 
      x: 0.0
      y: 0.0
      z: 0.01
    angular: 
      x: 0.0
      y: 0.0
      z: 0.0
  covariance: [-1.0, 0.0, 0.0, 0.0, 0.0, 0.0, 0.0, 0.0, 0.0, 0.0, 0.0, 0.0, 0.0, 0.0, 0.0, 0.0, 0.0, 0.0, 0.0, 0.0, 0.0, 0.0, 0.0, 0.0, 0.0, 0.0, 0.0, 0.0, 0.0, 0.0, 0.0, 0.0, 0.0, 0.0, 0.0, 0.0]
---
header: 
  seq: 456
  stamp: 
    secs: 1724985825
    nsecs: 606433242
  frame_id: "map"
child_frame_id: "base_link"
pose: 
  pose: 
    position: 
      x: 0.19095334262
      y: 0.155218348702
      z: 0.028
    orientation: 
      x: -0.0063822024396
      y: -0.0200907362381
      z: -0.0347027878332
      w: 0.999175337648
  covariance: [0.058564, 0.0, 0.0, 0.0, 0.0, 0.0, 0.0, 0.058564, 0.0, 0.0, 0.0, 0.0, 0.0, 0.0, 0.142129, 0.0, 0.0, 0.0, 0.0, 0.0, 0.0, 99999.0, 0.0, 0.0, 0.0, 0.0, 0.0, 0.0, 99999.0, 0.0, 0.0, 0.0, 0.0, 0.0, 0.0, 99999.0]
twist: 
  twist: 
    linear: 
      x: 0.0
      y: 0.0
      z: 0.01
    angular: 
      x: 0.0
      y: 0.0
      z: 0.0
  covariance: [-1.0, 0.0, 0.0, 0.0, 0.0, 0.0, 0.0, 0.0, 0.0, 0.0, 0.0, 0.0, 0.0, 0.0, 0.0, 0.0, 0.0, 0.0, 0.0, 0.0, 0.0, 0.0, 0.0, 0.0, 0.0, 0.0, 0.0, 0.0, 0.0, 0.0, 0.0, 0.0, 0.0, 0.0, 0.0, 0.0]
---
header: 
  seq: 457
  stamp: 
    secs: 1724985825
    nsecs: 628094617
  frame_id: "map"
child_frame_id: "base_link"
pose: 
  pose: 
    position: 
      x: 0.190953342485
      y: 0.155218348284
      z: 0.029
    orientation: 
      x: -0.00639032097629
      y: -0.0200923852335
      z: -0.0347048108819
      w: 0.999175253354
  covariance: [0.058564, 0.0, 0.0, 0.0, 0.0, 0.0, 0.0, 0.058564, 0.0, 0.0, 0.0, 0.0, 0.0, 0.0, 0.142129, 0.0, 0.0, 0.0, 0.0, 0.0, 0.0, 99999.0, 0.0, 0.0, 0.0, 0.0, 0.0, 0.0, 99999.0, 0.0, 0.0, 0.0, 0.0, 0.0, 0.0, 99999.0]
twist: 
  twist: 
    linear: 
      x: 0.0
      y: 0.0
      z: 0.0
    angular: 
      x: 0.0
      y: 0.0
      z: 0.0
  covariance: [-1.0, 0.0, 0.0, 0.0, 0.0, 0.0, 0.0, 0.0, 0.0, 0.0, 0.0, 0.0, 0.0, 0.0, 0.0, 0.0, 0.0, 0.0, 0.0, 0.0, 0.0, 0.0, 0.0, 0.0, 0.0, 0.0, 0.0, 0.0, 0.0, 0.0, 0.0, 0.0, 0.0, 0.0, 0.0, 0.0]
---
header: 
  seq: 458
  stamp: 
    secs: 1724985825
    nsecs: 646477491
  frame_id: "map"
child_frame_id: "base_link"
pose: 
  pose: 
    position: 
      x: 0.190953342485
      y: 0.155218348284
      z: 0.029
    orientation: 
      x: -0.00640196009192
      y: -0.020098221255
      z: -0.0347029142737
      w: 0.999175126914
  covariance: [0.058564, 0.0, 0.0, 0.0, 0.0, 0.0, 0.0, 0.058564, 0.0, 0.0, 0.0, 0.0, 0.0, 0.0, 0.142129, 0.0, 0.0, 0.0, 0.0, 0.0, 0.0, 99999.0, 0.0, 0.0, 0.0, 0.0, 0.0, 0.0, 99999.0, 0.0, 0.0, 0.0, 0.0, 0.0, 0.0, 99999.0]
twist: 
  twist: 
    linear: 
      x: 0.0
      y: 0.0
      z: 0.0
    angular: 
      x: 0.0
      y: 0.0
      z: 0.0
  covariance: [-1.0, 0.0, 0.0, 0.0, 0.0, 0.0, 0.0, 0.0, 0.0, 0.0, 0.0, 0.0, 0.0, 0.0, 0.0, 0.0, 0.0, 0.0, 0.0, 0.0, 0.0, 0.0, 0.0, 0.0, 0.0, 0.0, 0.0, 0.0, 0.0, 0.0, 0.0, 0.0, 0.0, 0.0, 0.0, 0.0]
---
header: 
  seq: 459
  stamp: 
    secs: 1724985825
    nsecs: 666467088
  frame_id: "map"
child_frame_id: "base_link"
pose: 
  pose: 
    position: 
      x: 0.190953342485
      y: 0.155218348284
      z: 0.029
    orientation: 
      x: -0.00641515798241
      y: -0.0200713256387
      z: -0.0347023242179
      w: 0.999175548382
  covariance: [0.058564, 0.0, 0.0, 0.0, 0.0, 0.0, 0.0, 0.058564, 0.0, 0.0, 0.0, 0.0, 0.0, 0.0, 0.142129, 0.0, 0.0, 0.0, 0.0, 0.0, 0.0, 99999.0, 0.0, 0.0, 0.0, 0.0, 0.0, 0.0, 99999.0, 0.0, 0.0, 0.0, 0.0, 0.0, 0.0, 99999.0]
twist: 
  twist: 
    linear: 
      x: 0.0
      y: 0.0
      z: 0.0
    angular: 
      x: 0.0
      y: 0.0
      z: 0.0
  covariance: [-1.0, 0.0, 0.0, 0.0, 0.0, 0.0, 0.0, 0.0, 0.0, 0.0, 0.0, 0.0, 0.0, 0.0, 0.0, 0.0, 0.0, 0.0, 0.0, 0.0, 0.0, 0.0, 0.0, 0.0, 0.0, 0.0, 0.0, 0.0, 0.0, 0.0, 0.0, 0.0, 0.0, 0.0, 0.0, 0.0]
---
header: 
  seq: 460
  stamp: 
    secs: 1724985825
    nsecs: 688840176
  frame_id: "map"
child_frame_id: "base_link"
pose: 
  pose: 
    position: 
      x: 0.190953342837
      y: 0.155218348675
      z: 0.03
    orientation: 
      x: -0.00641293934596
      y: -0.0200747059477
      z: -0.0346886264921
      w: 0.999176011997
  covariance: [0.058564, 0.0, 0.0, 0.0, 0.0, 0.0, 0.0, 0.058564, 0.0, 0.0, 0.0, 0.0, 0.0, 0.0, 0.141376, 0.0, 0.0, 0.0, 0.0, 0.0, 0.0, 99999.0, 0.0, 0.0, 0.0, 0.0, 0.0, 0.0, 99999.0, 0.0, 0.0, 0.0, 0.0, 0.0, 0.0, 99999.0]
twist: 
  twist: 
    linear: 
      x: 0.0
      y: 0.0
      z: 0.0
    angular: 
      x: 0.0
      y: 0.0
      z: 0.0
  covariance: [-1.0, 0.0, 0.0, 0.0, 0.0, 0.0, 0.0, 0.0, 0.0, 0.0, 0.0, 0.0, 0.0, 0.0, 0.0, 0.0, 0.0, 0.0, 0.0, 0.0, 0.0, 0.0, 0.0, 0.0, 0.0, 0.0, 0.0, 0.0, 0.0, 0.0, 0.0, 0.0, 0.0, 0.0, 0.0, 0.0]
---
header: 
  seq: 461
  stamp: 
    secs: 1724985825
    nsecs: 706005609
  frame_id: "map"
child_frame_id: "base_link"
pose: 
  pose: 
    position: 
      x: 0.190953342837
      y: 0.155218348675
      z: 0.03
    orientation: 
      x: -0.00641802462665
      y: -0.0200794198093
      z: -0.0347065810496
      w: 0.999175253354
  covariance: [0.058564, 0.0, 0.0, 0.0, 0.0, 0.0, 0.0, 0.058564, 0.0, 0.0, 0.0, 0.0, 0.0, 0.0, 0.141376, 0.0, 0.0, 0.0, 0.0, 0.0, 0.0, 99999.0, 0.0, 0.0, 0.0, 0.0, 0.0, 0.0, 99999.0, 0.0, 0.0, 0.0, 0.0, 0.0, 0.0, 99999.0]
twist: 
  twist: 
    linear: 
      x: 0.0
      y: 0.0
      z: 0.0
    angular: 
      x: 0.0
      y: 0.0
      z: 0.0
  covariance: [-1.0, 0.0, 0.0, 0.0, 0.0, 0.0, 0.0, 0.0, 0.0, 0.0, 0.0, 0.0, 0.0, 0.0, 0.0, 0.0, 0.0, 0.0, 0.0, 0.0, 0.0, 0.0, 0.0, 0.0, 0.0, 0.0, 0.0, 0.0, 0.0, 0.0, 0.0, 0.0, 0.0, 0.0, 0.0, 0.0]
---
header: 
  seq: 462
  stamp: 
    secs: 1724985825
    nsecs: 726967239
  frame_id: "map"
child_frame_id: "base_link"
pose: 
  pose: 
    position: 
      x: 0.190953342837
      y: 0.155218348675
      z: 0.03
    orientation: 
      x: -0.00641711254251
      y: -0.0200915403209
      z: -0.0346932204986
      w: 0.999175464088
  covariance: [0.058564, 0.0, 0.0, 0.0, 0.0, 0.0, 0.0, 0.058564, 0.0, 0.0, 0.0, 0.0, 0.0, 0.0, 0.141376, 0.0, 0.0, 0.0, 0.0, 0.0, 0.0, 99999.0, 0.0, 0.0, 0.0, 0.0, 0.0, 0.0, 99999.0, 0.0, 0.0, 0.0, 0.0, 0.0, 0.0, 99999.0]
twist: 
  twist: 
    linear: 
      x: 0.0
      y: 0.0
      z: 0.0
    angular: 
      x: 0.0
      y: 0.0
      z: 0.0
  covariance: [-1.0, 0.0, 0.0, 0.0, 0.0, 0.0, 0.0, 0.0, 0.0, 0.0, 0.0, 0.0, 0.0, 0.0, 0.0, 0.0, 0.0, 0.0, 0.0, 0.0, 0.0, 0.0, 0.0, 0.0, 0.0, 0.0, 0.0, 0.0, 0.0, 0.0, 0.0, 0.0, 0.0, 0.0, 0.0, 0.0]
---
header: 
  seq: 463
  stamp: 
    secs: 1724985825
    nsecs: 747640901
  frame_id: "map"
child_frame_id: "base_link"
pose: 
  pose: 
    position: 
      x: 0.190953342837
      y: 0.155218348675
      z: 0.031
    orientation: 
      x: -0.00641678195317
      y: -0.0201012696575
      z: -0.0347099106506
      w: 0.999174705445
  covariance: [0.058564, 0.0, 0.0, 0.0, 0.0, 0.0, 0.0, 0.058564, 0.0, 0.0, 0.0, 0.0, 0.0, 0.0, 0.141376, 0.0, 0.0, 0.0, 0.0, 0.0, 0.0, 99999.0, 0.0, 0.0, 0.0, 0.0, 0.0, 0.0, 99999.0, 0.0, 0.0, 0.0, 0.0, 0.0, 0.0, 99999.0]
twist: 
  twist: 
    linear: 
      x: 0.0
      y: 0.0
      z: 0.0
    angular: 
      x: 0.0
      y: 0.0
      z: 0.0
  covariance: [-1.0, 0.0, 0.0, 0.0, 0.0, 0.0, 0.0, 0.0, 0.0, 0.0, 0.0, 0.0, 0.0, 0.0, 0.0, 0.0, 0.0, 0.0, 0.0, 0.0, 0.0, 0.0, 0.0, 0.0, 0.0, 0.0, 0.0, 0.0, 0.0, 0.0, 0.0, 0.0, 0.0, 0.0, 0.0, 0.0]
---
header: 
  seq: 464
  stamp: 
    secs: 1724985825
    nsecs: 766476128
  frame_id: "map"
child_frame_id: "base_link"
pose: 
  pose: 
    position: 
      x: 0.19095334279
      y: 0.155218348792
      z: 0.031
    orientation: 
      x: -0.00642500058862
      y: -0.0200880697914
      z: -0.0346977723582
      w: 0.999175295501
  covariance: [0.058564, 0.0, 0.0, 0.0, 0.0, 0.0, 0.0, 0.058564, 0.0, 0.0, 0.0, 0.0, 0.0, 0.0, 0.141376, 0.0, 0.0, 0.0, 0.0, 0.0, 0.0, 99999.0, 0.0, 0.0, 0.0, 0.0, 0.0, 0.0, 99999.0, 0.0, 0.0, 0.0, 0.0, 0.0, 0.0, 99999.0]
twist: 
  twist: 
    linear: 
      x: 0.0
      y: 0.0
      z: 0.0
    angular: 
      x: 0.0
      y: 0.0
      z: 0.0
  covariance: [-1.0, 0.0, 0.0, 0.0, 0.0, 0.0, 0.0, 0.0, 0.0, 0.0, 0.0, 0.0, 0.0, 0.0, 0.0, 0.0, 0.0, 0.0, 0.0, 0.0, 0.0, 0.0, 0.0, 0.0, 0.0, 0.0, 0.0, 0.0, 0.0, 0.0, 0.0, 0.0, 0.0, 0.0, 0.0, 0.0]
---
header: 
  seq: 465
  stamp: 
    secs: 1724985825
    nsecs: 788924160
  frame_id: "map"
child_frame_id: "base_link"
pose: 
  pose: 
    position: 
      x: 0.19095334279
      y: 0.155218348792
      z: 0.031
    orientation: 
      x: -0.00641725347103
      y: -0.0201041962293
      z: -0.0346836953108
      w: 0.999175548382
  covariance: [0.058564, 0.0, 0.0, 0.0, 0.0, 0.0, 0.0, 0.058564, 0.0, 0.0, 0.0, 0.0, 0.0, 0.0, 0.141376, 0.0, 0.0, 0.0, 0.0, 0.0, 0.0, 99999.0, 0.0, 0.0, 0.0, 0.0, 0.0, 0.0, 99999.0, 0.0, 0.0, 0.0, 0.0, 0.0, 0.0, 99999.0]
twist: 
  twist: 
    linear: 
      x: 0.0
      y: 0.0
      z: 0.0
    angular: 
      x: 0.0
      y: 0.0
      z: 0.0
  covariance: [-1.0, 0.0, 0.0, 0.0, 0.0, 0.0, 0.0, 0.0, 0.0, 0.0, 0.0, 0.0, 0.0, 0.0, 0.0, 0.0, 0.0, 0.0, 0.0, 0.0, 0.0, 0.0, 0.0, 0.0, 0.0, 0.0, 0.0, 0.0, 0.0, 0.0, 0.0, 0.0, 0.0, 0.0, 0.0, 0.0]
---
header: 
  seq: 466
  stamp: 
    secs: 1724985825
    nsecs: 805950040
  frame_id: "map"
child_frame_id: "base_link"
pose: 
  pose: 
    position: 
      x: 0.19095334279
      y: 0.155218348792
      z: 0.031
    orientation: 
      x: -0.00642400091806
      y: -0.0201031675828
      z: -0.0346775840178
      w: 0.999175759116
  covariance: [0.058564, 0.0, 0.0, 0.0, 0.0, 0.0, 0.0, 0.058564, 0.0, 0.0, 0.0, 0.0, 0.0, 0.0, 0.141376, 0.0, 0.0, 0.0, 0.0, 0.0, 0.0, 99999.0, 0.0, 0.0, 0.0, 0.0, 0.0, 0.0, 99999.0, 0.0, 0.0, 0.0, 0.0, 0.0, 0.0, 99999.0]
twist: 
  twist: 
    linear: 
      x: 0.0
      y: 0.0
      z: 0.0
    angular: 
      x: 0.0
      y: 0.0
      z: 0.0
  covariance: [-1.0, 0.0, 0.0, 0.0, 0.0, 0.0, 0.0, 0.0, 0.0, 0.0, 0.0, 0.0, 0.0, 0.0, 0.0, 0.0, 0.0, 0.0, 0.0, 0.0, 0.0, 0.0, 0.0, 0.0, 0.0, 0.0, 0.0, 0.0, 0.0, 0.0, 0.0, 0.0, 0.0, 0.0, 0.0, 0.0]
---
header: 
  seq: 467
  stamp: 
    secs: 1724985825
    nsecs: 827011798
  frame_id: "map"
child_frame_id: "base_link"
pose: 
  pose: 
    position: 
      x: 0.190953342656
      y: 0.155218348374
      z: 0.032
    orientation: 
      x: -0.00640784484565
      y: -0.0200959242517
      z: -0.0346702504662
      w: 0.999176264878
  covariance: [0.058564, 0.0, 0.0, 0.0, 0.0, 0.0, 0.0, 0.058564, 0.0, 0.0, 0.0, 0.0, 0.0, 0.0, 0.141376, 0.0, 0.0, 0.0, 0.0, 0.0, 0.0, 99999.0, 0.0, 0.0, 0.0, 0.0, 0.0, 0.0, 99999.0, 0.0, 0.0, 0.0, 0.0, 0.0, 0.0, 99999.0]
twist: 
  twist: 
    linear: 
      x: 0.0
      y: 0.0
      z: 0.0
    angular: 
      x: 0.0
      y: 0.0
      z: 0.0
  covariance: [-1.0, 0.0, 0.0, 0.0, 0.0, 0.0, 0.0, 0.0, 0.0, 0.0, 0.0, 0.0, 0.0, 0.0, 0.0, 0.0, 0.0, 0.0, 0.0, 0.0, 0.0, 0.0, 0.0, 0.0, 0.0, 0.0, 0.0, 0.0, 0.0, 0.0, 0.0, 0.0, 0.0, 0.0, 0.0, 0.0]
---
header: 
  seq: 468
  stamp: 
    secs: 1724985825
    nsecs: 847451892
  frame_id: "map"
child_frame_id: "base_link"
pose: 
  pose: 
    position: 
      x: 0.190953342656
      y: 0.155218348374
      z: 0.032
    orientation: 
      x: -0.0064057105029
      y: -0.020100640089
      z: -0.0346739593888
      w: 0.999176011997
  covariance: [0.058564, 0.0, 0.0, 0.0, 0.0, 0.0, 0.0, 0.058564, 0.0, 0.0, 0.0, 0.0, 0.0, 0.0, 0.141376, 0.0, 0.0, 0.0, 0.0, 0.0, 0.0, 99999.0, 0.0, 0.0, 0.0, 0.0, 0.0, 0.0, 99999.0, 0.0, 0.0, 0.0, 0.0, 0.0, 0.0, 99999.0]
twist: 
  twist: 
    linear: 
      x: 0.0
      y: 0.0
      z: 0.0
    angular: 
      x: 0.0
      y: 0.0
      z: 0.0
  covariance: [-1.0, 0.0, 0.0, 0.0, 0.0, 0.0, 0.0, 0.0, 0.0, 0.0, 0.0, 0.0, 0.0, 0.0, 0.0, 0.0, 0.0, 0.0, 0.0, 0.0, 0.0, 0.0, 0.0, 0.0, 0.0, 0.0, 0.0, 0.0, 0.0, 0.0, 0.0, 0.0, 0.0, 0.0, 0.0, 0.0]
---
header: 
  seq: 469
  stamp: 
    secs: 1724985825
    nsecs: 866111919
  frame_id: "map"
child_frame_id: "base_link"
pose: 
  pose: 
    position: 
      x: 0.190953342656
      y: 0.155218348374
      z: 0.032
    orientation: 
      x: -0.0063918909464
      y: -0.0200863318924
      z: -0.0346685645922
      w: 0.999176602053
  covariance: [0.058564, 0.0, 0.0, 0.0, 0.0, 0.0, 0.0, 0.058564, 0.0, 0.0, 0.0, 0.0, 0.0, 0.0, 0.141376, 0.0, 0.0, 0.0, 0.0, 0.0, 0.0, 99999.0, 0.0, 0.0, 0.0, 0.0, 0.0, 0.0, 99999.0, 0.0, 0.0, 0.0, 0.0, 0.0, 0.0, 99999.0]
twist: 
  twist: 
    linear: 
      x: 0.0
      y: 0.0
      z: 0.0
    angular: 
      x: 0.0
      y: 0.0
      z: 0.0
  covariance: [-1.0, 0.0, 0.0, 0.0, 0.0, 0.0, 0.0, 0.0, 0.0, 0.0, 0.0, 0.0, 0.0, 0.0, 0.0, 0.0, 0.0, 0.0, 0.0, 0.0, 0.0, 0.0, 0.0, 0.0, 0.0, 0.0, 0.0, 0.0, 0.0, 0.0, 0.0, 0.0, 0.0, 0.0, 0.0, 0.0]
---
header: 
  seq: 470
  stamp: 
    secs: 1724985825
    nsecs: 889344656
  frame_id: "map"
child_frame_id: "base_link"
pose: 
  pose: 
    position: 
      x: 0.190953342228
      y: 0.166305373488
      z: 0.033
    orientation: 
      x: -0.00639204504581
      y: -0.0200929054837
      z: -0.034670840522
      w: 0.999176349172
  covariance: [0.058564, 0.0, 0.0, 0.0, 0.0, 0.0, 0.0, 0.058564, 0.0, 0.0, 0.0, 0.0, 0.0, 0.0, 0.141376, 0.0, 0.0, 0.0, 0.0, 0.0, 0.0, 99999.0, 0.0, 0.0, 0.0, 0.0, 0.0, 0.0, 99999.0, 0.0, 0.0, 0.0, 0.0, 0.0, 0.0, 99999.0]
twist: 
  twist: 
    linear: 
      x: 0.0
      y: 0.0
      z: 0.0
    angular: 
      x: 0.0
      y: 0.0
      z: 0.0
  covariance: [-1.0, 0.0, 0.0, 0.0, 0.0, 0.0, 0.0, 0.0, 0.0, 0.0, 0.0, 0.0, 0.0, 0.0, 0.0, 0.0, 0.0, 0.0, 0.0, 0.0, 0.0, 0.0, 0.0, 0.0, 0.0, 0.0, 0.0, 0.0, 0.0, 0.0, 0.0, 0.0, 0.0, 0.0, 0.0, 0.0]
---
header: 
  seq: 471
  stamp: 
    secs: 1724985825
    nsecs: 908278379
  frame_id: "map"
child_frame_id: "base_link"
pose: 
  pose: 
    position: 
      x: 0.190953342228
      y: 0.166305373488
      z: 0.033
    orientation: 
      x: -0.0063931678642
      y: -0.020089588395
      z: -0.0346726528365
      w: 0.999176391319
  covariance: [0.058564, 0.0, 0.0, 0.0, 0.0, 0.0, 0.0, 0.058564, 0.0, 0.0, 0.0, 0.0, 0.0, 0.0, 0.141376, 0.0, 0.0, 0.0, 0.0, 0.0, 0.0, 99999.0, 0.0, 0.0, 0.0, 0.0, 0.0, 0.0, 99999.0, 0.0, 0.0, 0.0, 0.0, 0.0, 0.0, 99999.0]
twist: 
  twist: 
    linear: 
      x: 0.0
      y: 0.0
      z: 0.0
    angular: 
      x: 0.0
      y: 0.0
      z: 0.0
  covariance: [-1.0, 0.0, 0.0, 0.0, 0.0, 0.0, 0.0, 0.0, 0.0, 0.0, 0.0, 0.0, 0.0, 0.0, 0.0, 0.0, 0.0, 0.0, 0.0, 0.0, 0.0, 0.0, 0.0, 0.0, 0.0, 0.0, 0.0, 0.0, 0.0, 0.0, 0.0, 0.0, 0.0, 0.0, 0.0, 0.0]
---
header: 
  seq: 472
  stamp: 
    secs: 1724985825
    nsecs: 926215333
  frame_id: "map"
child_frame_id: "base_link"
pose: 
  pose: 
    position: 
      x: 0.190953342228
      y: 0.166305373488
      z: 0.033
    orientation: 
      x: -0.00639625446231
      y: -0.0200967750912
      z: -0.0346591236981
      w: 0.999176686347
  covariance: [0.058564, 0.0, 0.0, 0.0, 0.0, 0.0, 0.0, 0.058564, 0.0, 0.0, 0.0, 0.0, 0.0, 0.0, 0.141376, 0.0, 0.0, 0.0, 0.0, 0.0, 0.0, 99999.0, 0.0, 0.0, 0.0, 0.0, 0.0, 0.0, 99999.0, 0.0, 0.0, 0.0, 0.0, 0.0, 0.0, 99999.0]
twist: 
  twist: 
    linear: 
      x: 0.0
      y: 0.0
      z: 0.0
    angular: 
      x: 0.0
      y: 0.0
      z: 0.0
  covariance: [-1.0, 0.0, 0.0, 0.0, 0.0, 0.0, 0.0, 0.0, 0.0, 0.0, 0.0, 0.0, 0.0, 0.0, 0.0, 0.0, 0.0, 0.0, 0.0, 0.0, 0.0, 0.0, 0.0, 0.0, 0.0, 0.0, 0.0, 0.0, 0.0, 0.0, 0.0, 0.0, 0.0, 0.0, 0.0, 0.0]
---
header: 
  seq: 473
  stamp: 
    secs: 1724985825
    nsecs: 946576482
  frame_id: "map"
child_frame_id: "base_link"
pose: 
  pose: 
    position: 
      x: 0.190953342228
      y: 0.166305373488
      z: 0.033
    orientation: 
      x: -0.00639030319559
      y: -0.0200991939252
      z: -0.0346691967949
      w: 0.999176307025
  covariance: [0.058564, 0.0, 0.0, 0.0, 0.0, 0.0, 0.0, 0.058564, 0.0, 0.0, 0.0, 0.0, 0.0, 0.0, 0.141376, 0.0, 0.0, 0.0, 0.0, 0.0, 0.0, 99999.0, 0.0, 0.0, 0.0, 0.0, 0.0, 0.0, 99999.0, 0.0, 0.0, 0.0, 0.0, 0.0, 0.0, 99999.0]
twist: 
  twist: 
    linear: 
      x: 0.0
      y: 0.0
      z: 0.0
    angular: 
      x: 0.0
      y: 0.0
      z: 0.0
  covariance: [-1.0, 0.0, 0.0, 0.0, 0.0, 0.0, 0.0, 0.0, 0.0, 0.0, 0.0, 0.0, 0.0, 0.0, 0.0, 0.0, 0.0, 0.0, 0.0, 0.0, 0.0, 0.0, 0.0, 0.0, 0.0, 0.0, 0.0, 0.0, 0.0, 0.0, 0.0, 0.0, 0.0, 0.0, 0.0, 0.0]
---
header: 
  seq: 474
  stamp: 
    secs: 1724985825
    nsecs: 967687648
  frame_id: "map"
child_frame_id: "base_link"
pose: 
  pose: 
    position: 
      x: 0.190953342668
      y: 0.166305374015
      z: 0.034
    orientation: 
      x: -0.00640255805034
      y: -0.0201049199697
      z: -0.0346538131952
      w: 0.999176686347
  covariance: [0.058564, 0.0, 0.0, 0.0, 0.0, 0.0, 0.0, 0.058564, 0.0, 0.0, 0.0, 0.0, 0.0, 0.0, 0.141376, 0.0, 0.0, 0.0, 0.0, 0.0, 0.0, 99999.0, 0.0, 0.0, 0.0, 0.0, 0.0, 0.0, 99999.0, 0.0, 0.0, 0.0, 0.0, 0.0, 0.0, 99999.0]
twist: 
  twist: 
    linear: 
      x: 0.0
      y: 0.0
      z: 0.0
    angular: 
      x: 0.0
      y: 0.0
      z: 0.0
  covariance: [-1.0, 0.0, 0.0, 0.0, 0.0, 0.0, 0.0, 0.0, 0.0, 0.0, 0.0, 0.0, 0.0, 0.0, 0.0, 0.0, 0.0, 0.0, 0.0, 0.0, 0.0, 0.0, 0.0, 0.0, 0.0, 0.0, 0.0, 0.0, 0.0, 0.0, 0.0, 0.0, 0.0, 0.0, 0.0, 0.0]
---
header: 
  seq: 475
  stamp: 
    secs: 1724985825
    nsecs: 989611904
  frame_id: "map"
child_frame_id: "base_link"
pose: 
  pose: 
    position: 
      x: 0.190953342668
      y: 0.166305374015
      z: 0.034
    orientation: 
      x: -0.00638948791749
      y: -0.0200839723275
      z: -0.0346509472095
      w: 0.999177276403
  covariance: [0.058564, 0.0, 0.0, 0.0, 0.0, 0.0, 0.0, 0.058564, 0.0, 0.0, 0.0, 0.0, 0.0, 0.0, 0.141376, 0.0, 0.0, 0.0, 0.0, 0.0, 0.0, 99999.0, 0.0, 0.0, 0.0, 0.0, 0.0, 0.0, 99999.0, 0.0, 0.0, 0.0, 0.0, 0.0, 0.0, 99999.0]
twist: 
  twist: 
    linear: 
      x: 0.0
      y: 0.0
      z: 0.0
    angular: 
      x: 0.0
      y: 0.0
      z: 0.0
  covariance: [-1.0, 0.0, 0.0, 0.0, 0.0, 0.0, 0.0, 0.0, 0.0, 0.0, 0.0, 0.0, 0.0, 0.0, 0.0, 0.0, 0.0, 0.0, 0.0, 0.0, 0.0, 0.0, 0.0, 0.0, 0.0, 0.0, 0.0, 0.0, 0.0, 0.0, 0.0, 0.0, 0.0, 0.0, 0.0, 0.0]
---
header: 
  seq: 476
  stamp: 
    secs: 1724985826
    nsecs:   6554840
  frame_id: "map"
child_frame_id: "base_link"
pose: 
  pose: 
    position: 
      x: 0.190953342668
      y: 0.166305374015
      z: 0.034
    orientation: 
      x: -0.00639499005685
      y: -0.0200956608339
      z: -0.0346361536657
      w: 0.999177487137
  covariance: [0.058564, 0.0, 0.0, 0.0, 0.0, 0.0, 0.0, 0.058564, 0.0, 0.0, 0.0, 0.0, 0.0, 0.0, 0.141376, 0.0, 0.0, 0.0, 0.0, 0.0, 0.0, 99999.0, 0.0, 0.0, 0.0, 0.0, 0.0, 0.0, 99999.0, 0.0, 0.0, 0.0, 0.0, 0.0, 0.0, 99999.0]
twist: 
  twist: 
    linear: 
      x: 0.0
      y: 0.0
      z: 0.0
    angular: 
      x: 0.0
      y: 0.0
      z: 0.0
  covariance: [-1.0, 0.0, 0.0, 0.0, 0.0, 0.0, 0.0, 0.0, 0.0, 0.0, 0.0, 0.0, 0.0, 0.0, 0.0, 0.0, 0.0, 0.0, 0.0, 0.0, 0.0, 0.0, 0.0, 0.0, 0.0, 0.0, 0.0, 0.0, 0.0, 0.0, 0.0, 0.0, 0.0, 0.0, 0.0, 0.0]
---
header: 
  seq: 477
  stamp: 
    secs: 1724985826
    nsecs:  28790424
  frame_id: "map"
child_frame_id: "base_link"
pose: 
  pose: 
    position: 
      x: 0.190953342533
      y: 0.166305373996
      z: 0.035
    orientation: 
      x: -0.00639171972482
      y: -0.0201017181263
      z: -0.0346326133304
      w: 0.999177487137
  covariance: [0.058564, 0.0, 0.0, 0.0, 0.0, 0.0, 0.0, 0.058564, 0.0, 0.0, 0.0, 0.0, 0.0, 0.0, 0.141376, 0.0, 0.0, 0.0, 0.0, 0.0, 0.0, 99999.0, 0.0, 0.0, 0.0, 0.0, 0.0, 0.0, 99999.0, 0.0, 0.0, 0.0, 0.0, 0.0, 0.0, 99999.0]
twist: 
  twist: 
    linear: 
      x: 0.0
      y: 0.0
      z: 0.0
    angular: 
      x: 0.0
      y: 0.0
      z: 0.0
  covariance: [-1.0, 0.0, 0.0, 0.0, 0.0, 0.0, 0.0, 0.0, 0.0, 0.0, 0.0, 0.0, 0.0, 0.0, 0.0, 0.0, 0.0, 0.0, 0.0, 0.0, 0.0, 0.0, 0.0, 0.0, 0.0, 0.0, 0.0, 0.0, 0.0, 0.0, 0.0, 0.0, 0.0, 0.0, 0.0, 0.0]
---
header: 
  seq: 478
  stamp: 
    secs: 1724985826
    nsecs:  46771954
  frame_id: "map"
child_frame_id: "base_link"
pose: 
  pose: 
    position: 
      x: 0.190953342885
      y: 0.166305373988
      z: 0.036
    orientation: 
      x: -0.00638624063452
      y: -0.020091015461
      z: -0.0346335827079
      w: 0.999177782165
  covariance: [0.058564, 0.0, 0.0, 0.0, 0.0, 0.0, 0.0, 0.058564, 0.0, 0.0, 0.0, 0.0, 0.0, 0.0, 0.141376, 0.0, 0.0, 0.0, 0.0, 0.0, 0.0, 99999.0, 0.0, 0.0, 0.0, 0.0, 0.0, 0.0, 99999.0, 0.0, 0.0, 0.0, 0.0, 0.0, 0.0, 99999.0]
twist: 
  twist: 
    linear: 
      x: 0.0
      y: 0.0
      z: 0.0
    angular: 
      x: 0.0
      y: 0.0
      z: 0.0
  covariance: [-1.0, 0.0, 0.0, 0.0, 0.0, 0.0, 0.0, 0.0, 0.0, 0.0, 0.0, 0.0, 0.0, 0.0, 0.0, 0.0, 0.0, 0.0, 0.0, 0.0, 0.0, 0.0, 0.0, 0.0, 0.0, 0.0, 0.0, 0.0, 0.0, 0.0, 0.0, 0.0, 0.0, 0.0, 0.0, 0.0]
---
header: 
  seq: 479
  stamp: 
    secs: 1724985826
    nsecs:  66500142
  frame_id: "map"
child_frame_id: "base_link"
pose: 
  pose: 
    position: 
      x: 0.190953342885
      y: 0.166305373988
      z: 0.036
    orientation: 
      x: -0.00637810234149
      y: -0.0200775060789
      z: -0.0346232145832
      w: 0.999178456515
  covariance: [0.058564, 0.0, 0.0, 0.0, 0.0, 0.0, 0.0, 0.058564, 0.0, 0.0, 0.0, 0.0, 0.0, 0.0, 0.141376, 0.0, 0.0, 0.0, 0.0, 0.0, 0.0, 99999.0, 0.0, 0.0, 0.0, 0.0, 0.0, 0.0, 99999.0, 0.0, 0.0, 0.0, 0.0, 0.0, 0.0, 99999.0]
twist: 
  twist: 
    linear: 
      x: 0.0
      y: 0.0
      z: 0.0
    angular: 
      x: 0.0
      y: 0.0
      z: 0.0
  covariance: [-1.0, 0.0, 0.0, 0.0, 0.0, 0.0, 0.0, 0.0, 0.0, 0.0, 0.0, 0.0, 0.0, 0.0, 0.0, 0.0, 0.0, 0.0, 0.0, 0.0, 0.0, 0.0, 0.0, 0.0, 0.0, 0.0, 0.0, 0.0, 0.0, 0.0, 0.0, 0.0, 0.0, 0.0, 0.0, 0.0]
---
header: 
  seq: 480
  stamp: 
    secs: 1724985826
    nsecs:  87804685
  frame_id: "map"
child_frame_id: "base_link"
pose: 
  pose: 
    position: 
      x: 0.190953342839
      y: 0.166305374105
      z: 0.037
    orientation: 
      x: -0.0063753193324
      y: -0.0200817010075
      z: -0.0346316439529
      w: 0.999178035046
  covariance: [0.058564, 0.0, 0.0, 0.0, 0.0, 0.0, 0.0, 0.058564, 0.0, 0.0, 0.0, 0.0, 0.0, 0.0, 0.141376, 0.0, 0.0, 0.0, 0.0, 0.0, 0.0, 99999.0, 0.0, 0.0, 0.0, 0.0, 0.0, 0.0, 99999.0, 0.0, 0.0, 0.0, 0.0, 0.0, 0.0, 99999.0]
twist: 
  twist: 
    linear: 
      x: 0.0
      y: 0.0
      z: 0.0
    angular: 
      x: 0.0
      y: 0.0
      z: 0.0
  covariance: [-1.0, 0.0, 0.0, 0.0, 0.0, 0.0, 0.0, 0.0, 0.0, 0.0, 0.0, 0.0, 0.0, 0.0, 0.0, 0.0, 0.0, 0.0, 0.0, 0.0, 0.0, 0.0, 0.0, 0.0, 0.0, 0.0, 0.0, 0.0, 0.0, 0.0, 0.0, 0.0, 0.0, 0.0, 0.0, 0.0]
---
header: 
  seq: 481
  stamp: 
    secs: 1724985826
    nsecs: 105930695
  frame_id: "map"
child_frame_id: "base_link"
pose: 
  pose: 
    position: 
      x: 0.190953342839
      y: 0.166305374105
      z: 0.037
    orientation: 
      x: -0.00637630385644
      y: -0.0200833164171
      z: -0.0346369544558
      w: 0.999177866459
  covariance: [0.058564, 0.0, 0.0, 0.0, 0.0, 0.0, 0.0, 0.058564, 0.0, 0.0, 0.0, 0.0, 0.0, 0.0, 0.141376, 0.0, 0.0, 0.0, 0.0, 0.0, 0.0, 99999.0, 0.0, 0.0, 0.0, 0.0, 0.0, 0.0, 99999.0, 0.0, 0.0, 0.0, 0.0, 0.0, 0.0, 99999.0]
twist: 
  twist: 
    linear: 
      x: 0.0
      y: 0.0
      z: 0.0
    angular: 
      x: 0.0
      y: 0.0
      z: 0.0
  covariance: [-1.0, 0.0, 0.0, 0.0, 0.0, 0.0, 0.0, 0.0, 0.0, 0.0, 0.0, 0.0, 0.0, 0.0, 0.0, 0.0, 0.0, 0.0, 0.0, 0.0, 0.0, 0.0, 0.0, 0.0, 0.0, 0.0, 0.0, 0.0, 0.0, 0.0, 0.0, 0.0, 0.0, 0.0, 0.0, 0.0]
---
header: 
  seq: 482
  stamp: 
    secs: 1724985826
    nsecs: 126951653
  frame_id: "map"
child_frame_id: "base_link"
pose: 
  pose: 
    position: 
      x: 0.190953342307
      y: 0.166305373812
      z: 0.038
    orientation: 
      x: -0.00637533579601
      y: -0.0200877247141
      z: -0.0346254483662
      w: 0.999178161487
  covariance: [0.058564, 0.0, 0.0, 0.0, 0.0, 0.0, 0.0, 0.058564, 0.0, 0.0, 0.0, 0.0, 0.0, 0.0, 0.141376, 0.0, 0.0, 0.0, 0.0, 0.0, 0.0, 99999.0, 0.0, 0.0, 0.0, 0.0, 0.0, 0.0, 99999.0, 0.0, 0.0, 0.0, 0.0, 0.0, 0.0, 99999.0]
twist: 
  twist: 
    linear: 
      x: 0.0
      y: 0.0
      z: 0.0
    angular: 
      x: 0.0
      y: 0.0
      z: 0.0
  covariance: [-1.0, 0.0, 0.0, 0.0, 0.0, 0.0, 0.0, 0.0, 0.0, 0.0, 0.0, 0.0, 0.0, 0.0, 0.0, 0.0, 0.0, 0.0, 0.0, 0.0, 0.0, 0.0, 0.0, 0.0, 0.0, 0.0, 0.0, 0.0, 0.0, 0.0, 0.0, 0.0, 0.0, 0.0, 0.0, 0.0]
---
header: 
  seq: 483
  stamp: 
    secs: 1724985826
    nsecs: 148080547
  frame_id: "map"
child_frame_id: "base_link"
pose: 
  pose: 
    position: 
      x: 0.190953342658
      y: 0.166305373804
      z: 0.039
    orientation: 
      x: -0.00636812341656
      y: -0.0200902034756
      z: -0.0346351842882
      w: 0.999177866459
  covariance: [0.058564, 0.0, 0.0, 0.0, 0.0, 0.0, 0.0, 0.058564, 0.0, 0.0, 0.0, 0.0, 0.0, 0.0, 0.141376, 0.0, 0.0, 0.0, 0.0, 0.0, 0.0, 99999.0, 0.0, 0.0, 0.0, 0.0, 0.0, 0.0, 99999.0, 0.0, 0.0, 0.0, 0.0, 0.0, 0.0, 99999.0]
twist: 
  twist: 
    linear: 
      x: 0.0
      y: 0.0
      z: 0.0
    angular: 
      x: 0.0
      y: 0.0
      z: 0.0
  covariance: [-1.0, 0.0, 0.0, 0.0, 0.0, 0.0, 0.0, 0.0, 0.0, 0.0, 0.0, 0.0, 0.0, 0.0, 0.0, 0.0, 0.0, 0.0, 0.0, 0.0, 0.0, 0.0, 0.0, 0.0, 0.0, 0.0, 0.0, 0.0, 0.0, 0.0, 0.0, 0.0, 0.0, 0.0, 0.0, 0.0]
---
header: 
  seq: 484
  stamp: 
    secs: 1724985826
    nsecs: 165984829
  frame_id: "map"
child_frame_id: "base_link"
pose: 
  pose: 
    position: 
      x: 0.190953342658
      y: 0.166305373804
      z: 0.039
    orientation: 
      x: -0.00637443227295
      y: -0.020085401369
      z: -0.0346354371693
      w: 0.999177866459
  covariance: [0.058564, 0.0, 0.0, 0.0, 0.0, 0.0, 0.0, 0.058564, 0.0, 0.0, 0.0, 0.0, 0.0, 0.0, 0.141376, 0.0, 0.0, 0.0, 0.0, 0.0, 0.0, 99999.0, 0.0, 0.0, 0.0, 0.0, 0.0, 0.0, 99999.0, 0.0, 0.0, 0.0, 0.0, 0.0, 0.0, 99999.0]
twist: 
  twist: 
    linear: 
      x: 0.0
      y: 0.0
      z: 0.0
    angular: 
      x: 0.0
      y: 0.0
      z: 0.0
  covariance: [-1.0, 0.0, 0.0, 0.0, 0.0, 0.0, 0.0, 0.0, 0.0, 0.0, 0.0, 0.0, 0.0, 0.0, 0.0, 0.0, 0.0, 0.0, 0.0, 0.0, 0.0, 0.0, 0.0, 0.0, 0.0, 0.0, 0.0, 0.0, 0.0, 0.0, 0.0, 0.0, 0.0, 0.0, 0.0, 0.0]
---
header: 
  seq: 485
  stamp: 
    secs: 1724985826
    nsecs: 189975359
  frame_id: "map"
child_frame_id: "base_link"
pose: 
  pose: 
    position: 
      x: 0.190953342612
      y: 0.166305373921
      z: 0.04
    orientation: 
      x: -0.0063865481748
      y: -0.0201083595477
      z: -0.0346274714149
      w: 0.999177571431
  covariance: [0.058564, 0.0, 0.0, 0.0, 0.0, 0.0, 0.0, 0.058564, 0.0, 0.0, 0.0, 0.0, 0.0, 0.0, 0.141376, 0.0, 0.0, 0.0, 0.0, 0.0, 0.0, 99999.0, 0.0, 0.0, 0.0, 0.0, 0.0, 0.0, 99999.0, 0.0, 0.0, 0.0, 0.0, 0.0, 0.0, 99999.0]
twist: 
  twist: 
    linear: 
      x: 0.0
      y: 0.0
      z: 0.0
    angular: 
      x: 0.0
      y: 0.0
      z: 0.0
  covariance: [-1.0, 0.0, 0.0, 0.0, 0.0, 0.0, 0.0, 0.0, 0.0, 0.0, 0.0, 0.0, 0.0, 0.0, 0.0, 0.0, 0.0, 0.0, 0.0, 0.0, 0.0, 0.0, 0.0, 0.0, 0.0, 0.0, 0.0, 0.0, 0.0, 0.0, 0.0, 0.0, 0.0, 0.0, 0.0, 0.0]
---
header: 
  seq: 486
  stamp: 
    secs: 1724985826
    nsecs: 208348346
  frame_id: "map"
child_frame_id: "base_link"
pose: 
  pose: 
    position: 
      x: 0.190953342963
      y: 0.166305374312
      z: 0.041
    orientation: 
      x: -0.00639082344575
      y: -0.0200933447329
      z: -0.0346110762908
      w: 0.999178456515
  covariance: [0.058564, 0.0, 0.0, 0.0, 0.0, 0.0, 0.0, 0.058564, 0.0, 0.0, 0.0, 0.0, 0.0, 0.0, 0.141376, 0.0, 0.0, 0.0, 0.0, 0.0, 0.0, 99999.0, 0.0, 0.0, 0.0, 0.0, 0.0, 0.0, 99999.0, 0.0, 0.0, 0.0, 0.0, 0.0, 0.0, 99999.0]
twist: 
  twist: 
    linear: 
      x: 0.0
      y: 0.0
      z: 0.0
    angular: 
      x: 0.0
      y: 0.0
      z: 0.0
  covariance: [-1.0, 0.0, 0.0, 0.0, 0.0, 0.0, 0.0, 0.0, 0.0, 0.0, 0.0, 0.0, 0.0, 0.0, 0.0, 0.0, 0.0, 0.0, 0.0, 0.0, 0.0, 0.0, 0.0, 0.0, 0.0, 0.0, 0.0, 0.0, 0.0, 0.0, 0.0, 0.0, 0.0, 0.0, 0.0, 0.0]
---
header: 
  seq: 487
  stamp: 
    secs: 1724985826
    nsecs: 226995541
  frame_id: "map"
child_frame_id: "base_link"
pose: 
  pose: 
    position: 
      x: 0.190953342829
      y: 0.166305373894
      z: 0.042
    orientation: 
      x: -0.00639366901657
      y: -0.020132208737
      z: -0.0346078731304
      w: 0.999177782165
  covariance: [0.058564, 0.0, 0.0, 0.0, 0.0, 0.0, 0.0, 0.058564, 0.0, 0.0, 0.0, 0.0, 0.0, 0.0, 0.141376, 0.0, 0.0, 0.0, 0.0, 0.0, 0.0, 99999.0, 0.0, 0.0, 0.0, 0.0, 0.0, 0.0, 99999.0, 0.0, 0.0, 0.0, 0.0, 0.0, 0.0, 99999.0]
twist: 
  twist: 
    linear: 
      x: 0.0
      y: 0.0
      z: 0.0
    angular: 
      x: 0.0
      y: 0.0
      z: 0.0
  covariance: [-1.0, 0.0, 0.0, 0.0, 0.0, 0.0, 0.0, 0.0, 0.0, 0.0, 0.0, 0.0, 0.0, 0.0, 0.0, 0.0, 0.0, 0.0, 0.0, 0.0, 0.0, 0.0, 0.0, 0.0, 0.0, 0.0, 0.0, 0.0, 0.0, 0.0, 0.0, 0.0, 0.0, 0.0, 0.0, 0.0]
---
header: 
  seq: 488
  stamp: 
    secs: 1724985826
    nsecs: 247923763
  frame_id: "map"
child_frame_id: "base_link"
pose: 
  pose: 
    position: 
      x: 0.190953342783
      y: 0.166305373612
      z: 0.043
    orientation: 
      x: -0.00639817148537
      y: -0.0201461744904
      z: -0.0346091375358
      w: 0.99917744499
  covariance: [0.058564, 0.0, 0.0, 0.0, 0.0, 0.0, 0.0, 0.058564, 0.0, 0.0, 0.0, 0.0, 0.0, 0.0, 0.141376, 0.0, 0.0, 0.0, 0.0, 0.0, 0.0, 99999.0, 0.0, 0.0, 0.0, 0.0, 0.0, 0.0, 99999.0, 0.0, 0.0, 0.0, 0.0, 0.0, 0.0, 99999.0]
twist: 
  twist: 
    linear: 
      x: 0.0
      y: 0.0
      z: 0.0
    angular: 
      x: 0.0
      y: 0.0
      z: 0.0
  covariance: [-1.0, 0.0, 0.0, 0.0, 0.0, 0.0, 0.0, 0.0, 0.0, 0.0, 0.0, 0.0, 0.0, 0.0, 0.0, 0.0, 0.0, 0.0, 0.0, 0.0, 0.0, 0.0, 0.0, 0.0, 0.0, 0.0, 0.0, 0.0, 0.0, 0.0, 0.0, 0.0, 0.0, 0.0, 0.0, 0.0]
---
header: 
  seq: 489
  stamp: 
    secs: 1724985826
    nsecs: 272044373
  frame_id: "map"
child_frame_id: "base_link"
pose: 
  pose: 
    position: 
      x: 0.190953343134
      y: 0.166305374003
      z: 0.044
    orientation: 
      x: -0.00641275166078
      y: -0.0201488587178
      z: -0.0346025204806
      w: 0.999177487137
  covariance: [0.058564, 0.0, 0.0, 0.0, 0.0, 0.0, 0.0, 0.058564, 0.0, 0.0, 0.0, 0.0, 0.0, 0.0, 0.141376, 0.0, 0.0, 0.0, 0.0, 0.0, 0.0, 99999.0, 0.0, 0.0, 0.0, 0.0, 0.0, 0.0, 99999.0, 0.0, 0.0, 0.0, 0.0, 0.0, 0.0, 99999.0]
twist: 
  twist: 
    linear: 
      x: 0.0
      y: 0.0
      z: 0.0
    angular: 
      x: 0.0
      y: 0.0
      z: 0.0
  covariance: [-1.0, 0.0, 0.0, 0.0, 0.0, 0.0, 0.0, 0.0, 0.0, 0.0, 0.0, 0.0, 0.0, 0.0, 0.0, 0.0, 0.0, 0.0, 0.0, 0.0, 0.0, 0.0, 0.0, 0.0, 0.0, 0.0, 0.0, 0.0, 0.0, 0.0, 0.0, 0.0, 0.0, 0.0, 0.0, 0.0]
---
header: 
  seq: 490
  stamp: 
    secs: 1724985826
    nsecs: 289473038
  frame_id: "map"
child_frame_id: "base_link"
pose: 
  pose: 
    position: 
      x: 0.190953343134
      y: 0.166305374003
      z: 0.045
    orientation: 
      x: -0.00640681158931
      y: -0.0201571115976
      z: -0.0345839758673
      w: 0.999177992899
  covariance: [0.058564, 0.0, 0.0, 0.0, 0.0, 0.0, 0.0, 0.058564, 0.0, 0.0, 0.0, 0.0, 0.0, 0.0, 0.141376, 0.0, 0.0, 0.0, 0.0, 0.0, 0.0, 99999.0, 0.0, 0.0, 0.0, 0.0, 0.0, 0.0, 99999.0, 0.0, 0.0, 0.0, 0.0, 0.0, 0.0, 99999.0]
twist: 
  twist: 
    linear: 
      x: 0.0
      y: 0.0
      z: 0.0
    angular: 
      x: 0.0
      y: 0.0
      z: 0.0
  covariance: [-1.0, 0.0, 0.0, 0.0, 0.0, 0.0, 0.0, 0.0, 0.0, 0.0, 0.0, 0.0, 0.0, 0.0, 0.0, 0.0, 0.0, 0.0, 0.0, 0.0, 0.0, 0.0, 0.0, 0.0, 0.0, 0.0, 0.0, 0.0, 0.0, 0.0, 0.0, 0.0, 0.0, 0.0, 0.0, 0.0]
---
header: 
  seq: 491
  stamp: 
    secs: 1724985826
    nsecs: 306531399
  frame_id: "map"
child_frame_id: "base_link"
pose: 
  pose: 
    position: 
      x: 0.190953342691
      y: 0.166305374245
      z: 0.045
    orientation: 
      x: -0.00643116456522
      y: -0.0201470068907
      z: -0.0345930374397
      w: 0.999177697871
  covariance: [0.058564, 0.0, 0.0, 0.0, 0.0, 0.0, 0.0, 0.058564, 0.0, 0.0, 0.0, 0.0, 0.0, 0.0, 0.141376, 0.0, 0.0, 0.0, 0.0, 0.0, 0.0, 99999.0, 0.0, 0.0, 0.0, 0.0, 0.0, 0.0, 99999.0, 0.0, 0.0, 0.0, 0.0, 0.0, 0.0, 99999.0]
twist: 
  twist: 
    linear: 
      x: 0.0
      y: 0.0
      z: 0.0
    angular: 
      x: 0.0
      y: 0.0
      z: 0.0
  covariance: [-1.0, 0.0, 0.0, 0.0, 0.0, 0.0, 0.0, 0.0, 0.0, 0.0, 0.0, 0.0, 0.0, 0.0, 0.0, 0.0, 0.0, 0.0, 0.0, 0.0, 0.0, 0.0, 0.0, 0.0, 0.0, 0.0, 0.0, 0.0, 0.0, 0.0, 0.0, 0.0, 0.0, 0.0, 0.0, 0.0]
---
header: 
  seq: 492
  stamp: 
    secs: 1724985826
    nsecs: 327938822
  frame_id: "map"
child_frame_id: "base_link"
pose: 
  pose: 
    position: 
      x: 0.190953343042
      y: 0.166305374636
      z: 0.046
    orientation: 
      x: -0.00644519156324
      y: -0.0201178597108
      z: -0.0345910565378
      w: 0.999178330074
  covariance: [0.058564, 0.0, 0.0, 0.0, 0.0, 0.0, 0.0, 0.058564, 0.0, 0.0, 0.0, 0.0, 0.0, 0.0, 0.141376, 0.0, 0.0, 0.0, 0.0, 0.0, 0.0, 99999.0, 0.0, 0.0, 0.0, 0.0, 0.0, 0.0, 99999.0, 0.0, 0.0, 0.0, 0.0, 0.0, 0.0, 99999.0]
twist: 
  twist: 
    linear: 
      x: 0.0
      y: 0.0
      z: 0.0
    angular: 
      x: 0.0
      y: 0.0
      z: 0.0
  covariance: [-1.0, 0.0, 0.0, 0.0, 0.0, 0.0, 0.0, 0.0, 0.0, 0.0, 0.0, 0.0, 0.0, 0.0, 0.0, 0.0, 0.0, 0.0, 0.0, 0.0, 0.0, 0.0, 0.0, 0.0, 0.0, 0.0, 0.0, 0.0, 0.0, 0.0, 0.0, 0.0, 0.0, 0.0, 0.0, 0.0]
---
header: 
  seq: 493
  stamp: 
    secs: 1724985826
    nsecs: 346518720
  frame_id: "map"
child_frame_id: "base_link"
pose: 
  pose: 
    position: 
      x: 0.190953343042
      y: 0.166305374636
      z: 0.046
    orientation: 
      x: -0.00642580928128
      y: -0.0201244214482
      z: -0.0345949340479
      w: 0.999178161487
  covariance: [0.058564, 0.0, 0.0, 0.0, 0.0, 0.0, 0.0, 0.058564, 0.0, 0.0, 0.0, 0.0, 0.0, 0.0, 0.141376, 0.0, 0.0, 0.0, 0.0, 0.0, 0.0, 99999.0, 0.0, 0.0, 0.0, 0.0, 0.0, 0.0, 99999.0, 0.0, 0.0, 0.0, 0.0, 0.0, 0.0, 99999.0]
twist: 
  twist: 
    linear: 
      x: 0.0
      y: 0.0
      z: 0.0
    angular: 
      x: 0.0
      y: 0.0
      z: 0.0
  covariance: [-1.0, 0.0, 0.0, 0.0, 0.0, 0.0, 0.0, 0.0, 0.0, 0.0, 0.0, 0.0, 0.0, 0.0, 0.0, 0.0, 0.0, 0.0, 0.0, 0.0, 0.0, 0.0, 0.0, 0.0, 0.0, 0.0, 0.0, 0.0, 0.0, 0.0, 0.0, 0.0, 0.0, 0.0, 0.0, 0.0]
---
header: 
  seq: 494
  stamp: 
    secs: 1724985826
    nsecs: 366561309
  frame_id: "map"
child_frame_id: "base_link"
pose: 
  pose: 
    position: 
      x: 0.190953342907
      y: 0.166305374218
      z: 0.047
    orientation: 
      x: -0.00643799103759
      y: -0.0201270279674
      z: -0.034596282747
      w: 0.999177992899
  covariance: [0.058564, 0.0, 0.0, 0.0, 0.0, 0.0, 0.0, 0.058564, 0.0, 0.0, 0.0, 0.0, 0.0, 0.0, 0.141376, 0.0, 0.0, 0.0, 0.0, 0.0, 0.0, 99999.0, 0.0, 0.0, 0.0, 0.0, 0.0, 0.0, 99999.0, 0.0, 0.0, 0.0, 0.0, 0.0, 0.0, 99999.0]
twist: 
  twist: 
    linear: 
      x: 0.0
      y: 0.0
      z: 0.0
    angular: 
      x: 0.0
      y: 0.0
      z: 0.0
  covariance: [-1.0, 0.0, 0.0, 0.0, 0.0, 0.0, 0.0, 0.0, 0.0, 0.0, 0.0, 0.0, 0.0, 0.0, 0.0, 0.0, 0.0, 0.0, 0.0, 0.0, 0.0, 0.0, 0.0, 0.0, 0.0, 0.0, 0.0, 0.0, 0.0, 0.0, 0.0, 0.0, 0.0, 0.0, 0.0, 0.0]
---
header: 
  seq: 495
  stamp: 
    secs: 1724985826
    nsecs: 388520541
  frame_id: "map"
child_frame_id: "base_link"
pose: 
  pose: 
    position: 
      x: 0.190953342907
      y: 0.166305374218
      z: 0.047
    orientation: 
      x: -0.00644439867565
      y: -0.0201379058056
      z: -0.0345960720128
      w: 0.999177697871
  covariance: [0.058564, 0.0, 0.0, 0.0, 0.0, 0.0, 0.0, 0.058564, 0.0, 0.0, 0.0, 0.0, 0.0, 0.0, 0.141376, 0.0, 0.0, 0.0, 0.0, 0.0, 0.0, 99999.0, 0.0, 0.0, 0.0, 0.0, 0.0, 0.0, 99999.0, 0.0, 0.0, 0.0, 0.0, 0.0, 0.0, 99999.0]
twist: 
  twist: 
    linear: 
      x: 0.0
      y: 0.0
      z: 0.0
    angular: 
      x: 0.0
      y: 0.0
      z: 0.0
  covariance: [-1.0, 0.0, 0.0, 0.0, 0.0, 0.0, 0.0, 0.0, 0.0, 0.0, 0.0, 0.0, 0.0, 0.0, 0.0, 0.0, 0.0, 0.0, 0.0, 0.0, 0.0, 0.0, 0.0, 0.0, 0.0, 0.0, 0.0, 0.0, 0.0, 0.0, 0.0, 0.0, 0.0, 0.0, 0.0, 0.0]
---
header: 
  seq: 496
  stamp: 
    secs: 1724985826
    nsecs: 405960214
  frame_id: "map"
child_frame_id: "base_link"
pose: 
  pose: 
    position: 
      x: 0.190953342861
      y: 0.166305374335
      z: 0.048
    orientation: 
      x: -0.0064790163848
      y: -0.0201578814361
      z: -0.0345900450134
      w: 0.99917731855
  covariance: [0.058564, 0.0, 0.0, 0.0, 0.0, 0.0, 0.0, 0.058564, 0.0, 0.0, 0.0, 0.0, 0.0, 0.0, 0.141376, 0.0, 0.0, 0.0, 0.0, 0.0, 0.0, 99999.0, 0.0, 0.0, 0.0, 0.0, 0.0, 0.0, 99999.0, 0.0, 0.0, 0.0, 0.0, 0.0, 0.0, 99999.0]
twist: 
  twist: 
    linear: 
      x: 0.0
      y: 0.0
      z: 0.0
    angular: 
      x: 0.0
      y: 0.0
      z: 0.0
  covariance: [-1.0, 0.0, 0.0, 0.0, 0.0, 0.0, 0.0, 0.0, 0.0, 0.0, 0.0, 0.0, 0.0, 0.0, 0.0, 0.0, 0.0, 0.0, 0.0, 0.0, 0.0, 0.0, 0.0, 0.0, 0.0, 0.0, 0.0, 0.0, 0.0, 0.0, 0.0, 0.0, 0.0, 0.0, 0.0, 0.0]
---
header: 
  seq: 497
  stamp: 
    secs: 1724985826
    nsecs: 427035892
  frame_id: "map"
child_frame_id: "base_link"
pose: 
  pose: 
    position: 
      x: 0.190953342861
      y: 0.166305374335
      z: 0.048
    orientation: 
      x: -0.00647650601314
      y: -0.0201476898013
      z: -0.0345973785651
      w: 0.999177234256
  covariance: [0.058564, 0.0, 0.0, 0.0, 0.0, 0.0, 0.0, 0.058564, 0.0, 0.0, 0.0, 0.0, 0.0, 0.0, 0.141376, 0.0, 0.0, 0.0, 0.0, 0.0, 0.0, 99999.0, 0.0, 0.0, 0.0, 0.0, 0.0, 0.0, 99999.0, 0.0, 0.0, 0.0, 0.0, 0.0, 0.0, 99999.0]
twist: 
  twist: 
    linear: 
      x: 0.0
      y: 0.0
      z: 0.0
    angular: 
      x: 0.0
      y: 0.0
      z: 0.0
  covariance: [-1.0, 0.0, 0.0, 0.0, 0.0, 0.0, 0.0, 0.0, 0.0, 0.0, 0.0, 0.0, 0.0, 0.0, 0.0, 0.0, 0.0, 0.0, 0.0, 0.0, 0.0, 0.0, 0.0, 0.0, 0.0, 0.0, 0.0, 0.0, 0.0, 0.0, 0.0, 0.0, 0.0, 0.0, 0.0, 0.0]
---
header: 
  seq: 498
  stamp: 
    secs: 1724985826
    nsecs: 447593681
  frame_id: "map"
child_frame_id: "base_link"
pose: 
  pose: 
    position: 
      x: 0.190953343212
      y: 0.166305374327
      z: 0.049
    orientation: 
      x: -0.00648711187244
      y: -0.020151524506
      z: -0.0345862517971
      w: 0.999177487137
  covariance: [0.058564, 0.0, 0.0, 0.0, 0.0, 0.0, 0.0, 0.058564, 0.0, 0.0, 0.0, 0.0, 0.0, 0.0, 0.141376, 0.0, 0.0, 0.0, 0.0, 0.0, 0.0, 99999.0, 0.0, 0.0, 0.0, 0.0, 0.0, 0.0, 99999.0, 0.0, 0.0, 0.0, 0.0, 0.0, 0.0, 99999.0]
twist: 
  twist: 
    linear: 
      x: 0.0
      y: 0.0
      z: 0.0
    angular: 
      x: 0.0
      y: 0.0
      z: 0.0
  covariance: [-1.0, 0.0, 0.0, 0.0, 0.0, 0.0, 0.0, 0.0, 0.0, 0.0, 0.0, 0.0, 0.0, 0.0, 0.0, 0.0, 0.0, 0.0, 0.0, 0.0, 0.0, 0.0, 0.0, 0.0, 0.0, 0.0, 0.0, 0.0, 0.0, 0.0, 0.0, 0.0, 0.0, 0.0, 0.0, 0.0]
---
header: 
  seq: 499
  stamp: 
    secs: 1724985826
    nsecs: 466182444
  frame_id: "map"
child_frame_id: "base_link"
pose: 
  pose: 
    position: 
      x: 0.190953343212
      y: 0.166305374327
      z: 0.049
    orientation: 
      x: -0.00647115138774
      y: -0.0201456581915
      z: -0.0345814892032
      w: 0.999177866459
  covariance: [0.058564, 0.0, 0.0, 0.0, 0.0, 0.0, 0.0, 0.058564, 0.0, 0.0, 0.0, 0.0, 0.0, 0.0, 0.141376, 0.0, 0.0, 0.0, 0.0, 0.0, 0.0, 99999.0, 0.0, 0.0, 0.0, 0.0, 0.0, 0.0, 99999.0, 0.0, 0.0, 0.0, 0.0, 0.0, 0.0, 99999.0]
twist: 
  twist: 
    linear: 
      x: 0.0
      y: 0.0
      z: 0.0
    angular: 
      x: 0.0
      y: 0.0
      z: 0.0
  covariance: [-1.0, 0.0, 0.0, 0.0, 0.0, 0.0, 0.0, 0.0, 0.0, 0.0, 0.0, 0.0, 0.0, 0.0, 0.0, 0.0, 0.0, 0.0, 0.0, 0.0, 0.0, 0.0, 0.0, 0.0, 0.0, 0.0, 0.0, 0.0, 0.0, 0.0, 0.0, 0.0, 0.0, 0.0, 0.0, 0.0]
---
header: 
  seq: 500
  stamp: 
    secs: 1724985826
    nsecs: 489312365
  frame_id: "map"
child_frame_id: "base_link"
pose: 
  pose: 
    position: 
      x: 0.190953343078
      y: 0.166305373909
      z: 0.05
    orientation: 
      x: -0.00645750568699
      y: -0.020147774095
      z: -0.0345886963143
      w: 0.999177655724
  covariance: [0.058564, 0.0, 0.0, 0.0, 0.0, 0.0, 0.0, 0.058564, 0.0, 0.0, 0.0, 0.0, 0.0, 0.0, 0.141376, 0.0, 0.0, 0.0, 0.0, 0.0, 0.0, 99999.0, 0.0, 0.0, 0.0, 0.0, 0.0, 0.0, 99999.0, 0.0, 0.0, 0.0, 0.0, 0.0, 0.0, 99999.0]
twist: 
  twist: 
    linear: 
      x: 0.0
      y: 0.0
      z: 0.0
    angular: 
      x: 0.0
      y: 0.0
      z: 0.0
  covariance: [-1.0, 0.0, 0.0, 0.0, 0.0, 0.0, 0.0, 0.0, 0.0, 0.0, 0.0, 0.0, 0.0, 0.0, 0.0, 0.0, 0.0, 0.0, 0.0, 0.0, 0.0, 0.0, 0.0, 0.0, 0.0, 0.0, 0.0, 0.0, 0.0, 0.0, 0.0, 0.0, 0.0, 0.0, 0.0, 0.0]
---
header: 
  seq: 501
  stamp: 
    secs: 1724985826
    nsecs: 507505639
  frame_id: "map"
child_frame_id: "base_link"
pose: 
  pose: 
    position: 
      x: 0.190953343078
      y: 0.166305373909
      z: 0.05
    orientation: 
      x: -0.00646165715157
      y: -0.0201556713608
      z: -0.0345778645742
      w: 0.999177866459
  covariance: [0.058564, 0.0, 0.0, 0.0, 0.0, 0.0, 0.0, 0.058564, 0.0, 0.0, 0.0, 0.0, 0.0, 0.0, 0.141376, 0.0, 0.0, 0.0, 0.0, 0.0, 0.0, 99999.0, 0.0, 0.0, 0.0, 0.0, 0.0, 0.0, 99999.0, 0.0, 0.0, 0.0, 0.0, 0.0, 0.0, 99999.0]
twist: 
  twist: 
    linear: 
      x: 0.0
      y: 0.0
      z: 0.0
    angular: 
      x: 0.0
      y: 0.0
      z: 0.0
  covariance: [-1.0, 0.0, 0.0, 0.0, 0.0, 0.0, 0.0, 0.0, 0.0, 0.0, 0.0, 0.0, 0.0, 0.0, 0.0, 0.0, 0.0, 0.0, 0.0, 0.0, 0.0, 0.0, 0.0, 0.0, 0.0, 0.0, 0.0, 0.0, 0.0, 0.0, 0.0, 0.0, 0.0, 0.0, 0.0, 0.0]
---
header: 
  seq: 502
  stamp: 
    secs: 1724985826
    nsecs: 526049570
  frame_id: "map"
child_frame_id: "base_link"
pose: 
  pose: 
    position: 
      x: 0.190953343078
      y: 0.166305373909
      z: 0.05
    orientation: 
      x: -0.00646090706938
      y: -0.0201859637496
      z: -0.0345995702012
      w: 0.999176559906
  covariance: [0.058564, 0.0, 0.0, 0.0, 0.0, 0.0, 0.0, 0.058564, 0.0, 0.0, 0.0, 0.0, 0.0, 0.0, 0.141376, 0.0, 0.0, 0.0, 0.0, 0.0, 0.0, 99999.0, 0.0, 0.0, 0.0, 0.0, 0.0, 0.0, 99999.0, 0.0, 0.0, 0.0, 0.0, 0.0, 0.0, 99999.0]
twist: 
  twist: 
    linear: 
      x: 0.0
      y: 0.0
      z: 0.0
    angular: 
      x: 0.0
      y: 0.0
      z: 0.0
  covariance: [-1.0, 0.0, 0.0, 0.0, 0.0, 0.0, 0.0, 0.0, 0.0, 0.0, 0.0, 0.0, 0.0, 0.0, 0.0, 0.0, 0.0, 0.0, 0.0, 0.0, 0.0, 0.0, 0.0, 0.0, 0.0, 0.0, 0.0, 0.0, 0.0, 0.0, 0.0, 0.0, 0.0, 0.0, 0.0, 0.0]
---
header: 
  seq: 503
  stamp: 
    secs: 1724985826
    nsecs: 546499007
  frame_id: "map"
child_frame_id: "base_link"
pose: 
  pose: 
    position: 
      x: 0.19095334312
      y: 0.166305374561
      z: 0.051
    orientation: 
      x: -0.00647008059437
      y: -0.0201877352343
      z: -0.0346137315423
      w: 0.99917596985
  covariance: [0.058564, 0.0, 0.0, 0.0, 0.0, 0.0, 0.0, 0.058564, 0.0, 0.0, 0.0, 0.0, 0.0, 0.0, 0.141376, 0.0, 0.0, 0.0, 0.0, 0.0, 0.0, 99999.0, 0.0, 0.0, 0.0, 0.0, 0.0, 0.0, 99999.0, 0.0, 0.0, 0.0, 0.0, 0.0, 0.0, 99999.0]
twist: 
  twist: 
    linear: 
      x: 0.0
      y: 0.0
      z: 0.0
    angular: 
      x: 0.0
      y: 0.0
      z: 0.0
  covariance: [-1.0, 0.0, 0.0, 0.0, 0.0, 0.0, 0.0, 0.0, 0.0, 0.0, 0.0, 0.0, 0.0, 0.0, 0.0, 0.0, 0.0, 0.0, 0.0, 0.0, 0.0, 0.0, 0.0, 0.0, 0.0, 0.0, 0.0, 0.0, 0.0, 0.0, 0.0, 0.0, 0.0, 0.0, 0.0, 0.0]
---
header: 
  seq: 504
  stamp: 
    secs: 1724985826
    nsecs: 567543646
  frame_id: "map"
child_frame_id: "base_link"
pose: 
  pose: 
    position: 
      x: 0.19095334312
      y: 0.166305374561
      z: 0.052
    orientation: 
      x: -0.00647965122171
      y: -0.0202009081001
      z: -0.0346056393474
      w: 0.999175885557
  covariance: [0.058564, 0.0, 0.0, 0.0, 0.0, 0.0, 0.0, 0.058564, 0.0, 0.0, 0.0, 0.0, 0.0, 0.0, 0.141376, 0.0, 0.0, 0.0, 0.0, 0.0, 0.0, 99999.0, 0.0, 0.0, 0.0, 0.0, 0.0, 0.0, 99999.0, 0.0, 0.0, 0.0, 0.0, 0.0, 0.0, 99999.0]
twist: 
  twist: 
    linear: 
      x: 0.0
      y: 0.0
      z: 0.0
    angular: 
      x: 0.0
      y: 0.0
      z: 0.0
  covariance: [-1.0, 0.0, 0.0, 0.0, 0.0, 0.0, 0.0, 0.0, 0.0, 0.0, 0.0, 0.0, 0.0, 0.0, 0.0, 0.0, 0.0, 0.0, 0.0, 0.0, 0.0, 0.0, 0.0, 0.0, 0.0, 0.0, 0.0, 0.0, 0.0, 0.0, 0.0, 0.0, 0.0, 0.0, 0.0, 0.0]
---
header: 
  seq: 505
  stamp: 
    secs: 1724985826
    nsecs: 589016316
  frame_id: "map"
child_frame_id: "base_link"
pose: 
  pose: 
    position: 
      x: 0.190953342986
      y: 0.166305374542
      z: 0.052
    orientation: 
      x: -0.00648479116159
      y: -0.020211020051
      z: -0.0346089689484
      w: 0.999175506235
  covariance: [0.058564, 0.0, 0.0, 0.0, 0.0, 0.0, 0.0, 0.058564, 0.0, 0.0, 0.0, 0.0, 0.0, 0.0, 0.141376, 0.0, 0.0, 0.0, 0.0, 0.0, 0.0, 99999.0, 0.0, 0.0, 0.0, 0.0, 0.0, 0.0, 99999.0, 0.0, 0.0, 0.0, 0.0, 0.0, 0.0, 99999.0]
twist: 
  twist: 
    linear: 
      x: 0.0
      y: 0.0
      z: 0.0
    angular: 
      x: 0.0
      y: 0.0
      z: 0.0
  covariance: [-1.0, 0.0, 0.0, 0.0, 0.0, 0.0, 0.0, 0.0, 0.0, 0.0, 0.0, 0.0, 0.0, 0.0, 0.0, 0.0, 0.0, 0.0, 0.0, 0.0, 0.0, 0.0, 0.0, 0.0, 0.0, 0.0, 0.0, 0.0, 0.0, 0.0, 0.0, 0.0, 0.0, 0.0, 0.0, 0.0]
---
header: 
  seq: 506
  stamp: 
    secs: 1724985826
    nsecs: 606528181
  frame_id: "map"
child_frame_id: "base_link"
pose: 
  pose: 
    position: 
      x: 0.190953342986
      y: 0.166305374542
      z: 0.052
    orientation: 
      x: -0.00649263771941
      y: -0.0202088475127
      z: -0.0345973785651
      w: 0.99917596985
  covariance: [0.058564, 0.0, 0.0, 0.0, 0.0, 0.0, 0.0, 0.058564, 0.0, 0.0, 0.0, 0.0, 0.0, 0.0, 0.141376, 0.0, 0.0, 0.0, 0.0, 0.0, 0.0, 99999.0, 0.0, 0.0, 0.0, 0.0, 0.0, 0.0, 99999.0, 0.0, 0.0, 0.0, 0.0, 0.0, 0.0, 99999.0]
twist: 
  twist: 
    linear: 
      x: 0.0
      y: 0.0
      z: 0.0
    angular: 
      x: 0.0
      y: 0.0
      z: 0.0
  covariance: [-1.0, 0.0, 0.0, 0.0, 0.0, 0.0, 0.0, 0.0, 0.0, 0.0, 0.0, 0.0, 0.0, 0.0, 0.0, 0.0, 0.0, 0.0, 0.0, 0.0, 0.0, 0.0, 0.0, 0.0, 0.0, 0.0, 0.0, 0.0, 0.0, 0.0, 0.0, 0.0, 0.0, 0.0, 0.0, 0.0]
---
header: 
  seq: 507
  stamp: 
    secs: 1724985826
    nsecs: 628169173
  frame_id: "map"
child_frame_id: "base_link"
pose: 
  pose: 
    position: 
      x: 0.190953342986
      y: 0.166305374542
      z: 0.052
    orientation: 
      x: -0.00649001473663
      y: -0.0201976568659
      z: -0.0345988115579
      w: 0.999176138438
  covariance: [0.058564, 0.0, 0.0, 0.0, 0.0, 0.0, 0.0, 0.058564, 0.0, 0.0, 0.0, 0.0, 0.0, 0.0, 0.141376, 0.0, 0.0, 0.0, 0.0, 0.0, 0.0, 99999.0, 0.0, 0.0, 0.0, 0.0, 0.0, 0.0, 99999.0, 0.0, 0.0, 0.0, 0.0, 0.0, 0.0, 99999.0]
twist: 
  twist: 
    linear: 
      x: 0.0
      y: 0.0
      z: 0.0
    angular: 
      x: 0.0
      y: 0.0
      z: 0.0
  covariance: [-1.0, 0.0, 0.0, 0.0, 0.0, 0.0, 0.0, 0.0, 0.0, 0.0, 0.0, 0.0, 0.0, 0.0, 0.0, 0.0, 0.0, 0.0, 0.0, 0.0, 0.0, 0.0, 0.0, 0.0, 0.0, 0.0, 0.0, 0.0, 0.0, 0.0, 0.0, 0.0, 0.0, 0.0, 0.0, 0.0]
---
header: 
  seq: 508
  stamp: 
    secs: 1724985826
    nsecs: 646642671
  frame_id: "map"
child_frame_id: "base_link"
pose: 
  pose: 
    position: 
      x: 0.190953342851
      y: 0.166305374124
      z: 0.053
    orientation: 
      x: -0.00648619122722
      y: -0.0201573025755
      z: -0.0345996544949
      w: 0.999176897081
  covariance: [0.058564, 0.0, 0.0, 0.0, 0.0, 0.0, 0.0, 0.058564, 0.0, 0.0, 0.0, 0.0, 0.0, 0.0, 0.141376, 0.0, 0.0, 0.0, 0.0, 0.0, 0.0, 99999.0, 0.0, 0.0, 0.0, 0.0, 0.0, 0.0, 99999.0, 0.0, 0.0, 0.0, 0.0, 0.0, 0.0, 99999.0]
twist: 
  twist: 
    linear: 
      x: 0.0
      y: 0.0
      z: 0.0
    angular: 
      x: 0.0
      y: 0.0
      z: 0.0
  covariance: [-1.0, 0.0, 0.0, 0.0, 0.0, 0.0, 0.0, 0.0, 0.0, 0.0, 0.0, 0.0, 0.0, 0.0, 0.0, 0.0, 0.0, 0.0, 0.0, 0.0, 0.0, 0.0, 0.0, 0.0, 0.0, 0.0, 0.0, 0.0, 0.0, 0.0, 0.0, 0.0, 0.0, 0.0, 0.0, 0.0]
---
header: 
  seq: 509
  stamp: 
    secs: 1724985826
    nsecs: 666609068
  frame_id: "map"
child_frame_id: "base_link"
pose: 
  pose: 
    position: 
      x: 0.190953342851
      y: 0.166305374124
      z: 0.053
    orientation: 
      x: -0.00650697291626
      y: -0.0201574283575
      z: -0.0345913094189
      w: 0.999177065669
  covariance: [0.058564, 0.0, 0.0, 0.0, 0.0, 0.0, 0.0, 0.058564, 0.0, 0.0, 0.0, 0.0, 0.0, 0.0, 0.141376, 0.0, 0.0, 0.0, 0.0, 0.0, 0.0, 99999.0, 0.0, 0.0, 0.0, 0.0, 0.0, 0.0, 99999.0, 0.0, 0.0, 0.0, 0.0, 0.0, 0.0, 99999.0]
twist: 
  twist: 
    linear: 
      x: 0.0
      y: 0.0
      z: 0.0
    angular: 
      x: 0.0
      y: 0.0
      z: 0.0
  covariance: [-1.0, 0.0, 0.0, 0.0, 0.0, 0.0, 0.0, 0.0, 0.0, 0.0, 0.0, 0.0, 0.0, 0.0, 0.0, 0.0, 0.0, 0.0, 0.0, 0.0, 0.0, 0.0, 0.0, 0.0, 0.0, 0.0, 0.0, 0.0, 0.0, 0.0, 0.0, 0.0, 0.0, 0.0, 0.0, 0.0]
---
header: 
  seq: 510
  stamp: 
    secs: 1724985826
    nsecs: 689183436
  frame_id: "map"
child_frame_id: "base_link"
pose: 
  pose: 
    position: 
      x: 0.190953342851
      y: 0.166305374124
      z: 0.053
    orientation: 
      x: -0.00651276810793
      y: -0.0201498709007
      z: -0.0345975050056
      w: 0.999177023522
  covariance: [0.058564, 0.0, 0.0, 0.0, 0.0, 0.0, 0.0, 0.058564, 0.0, 0.0, 0.0, 0.0, 0.0, 0.0, 0.141376, 0.0, 0.0, 0.0, 0.0, 0.0, 0.0, 99999.0, 0.0, 0.0, 0.0, 0.0, 0.0, 0.0, 99999.0, 0.0, 0.0, 0.0, 0.0, 0.0, 0.0, 99999.0]
twist: 
  twist: 
    linear: 
      x: 0.0
      y: 0.0
      z: 0.0
    angular: 
      x: 0.0
      y: 0.0
      z: 0.0
  covariance: [-1.0, 0.0, 0.0, 0.0, 0.0, 0.0, 0.0, 0.0, 0.0, 0.0, 0.0, 0.0, 0.0, 0.0, 0.0, 0.0, 0.0, 0.0, 0.0, 0.0, 0.0, 0.0, 0.0, 0.0, 0.0, 0.0, 0.0, 0.0, 0.0, 0.0, 0.0, 0.0, 0.0, 0.0, 0.0, 0.0]
---
header: 
  seq: 511
  stamp: 
    secs: 1724985826
    nsecs: 706015908
  frame_id: "map"
child_frame_id: "base_link"
pose: 
  pose: 
    position: 
      x: 0.190953342851
      y: 0.166305374124
      z: 0.053
    orientation: 
      x: -0.00650318365116
      y: -0.0201621870001
      z: -0.0345908879504
      w: 0.999177065669
  covariance: [0.058564, 0.0, 0.0, 0.0, 0.0, 0.0, 0.0, 0.058564, 0.0, 0.0, 0.0, 0.0, 0.0, 0.0, 0.141376, 0.0, 0.0, 0.0, 0.0, 0.0, 0.0, 99999.0, 0.0, 0.0, 0.0, 0.0, 0.0, 0.0, 99999.0, 0.0, 0.0, 0.0, 0.0, 0.0, 0.0, 99999.0]
twist: 
  twist: 
    linear: 
      x: 0.0
      y: 0.0
      z: 0.0
    angular: 
      x: 0.0
      y: 0.0
      z: 0.0
  covariance: [-1.0, 0.0, 0.0, 0.0, 0.0, 0.0, 0.0, 0.0, 0.0, 0.0, 0.0, 0.0, 0.0, 0.0, 0.0, 0.0, 0.0, 0.0, 0.0, 0.0, 0.0, 0.0, 0.0, 0.0, 0.0, 0.0, 0.0, 0.0, 0.0, 0.0, 0.0, 0.0, 0.0, 0.0, 0.0, 0.0]
---
header: 
  seq: 512
  stamp: 
    secs: 1724985826
    nsecs: 727034626
  frame_id: "map"
child_frame_id: "base_link"
pose: 
  pose: 
    position: 
      x: 0.190953342821
      y: 0.177392399113
      z: 0.054
    orientation: 
      x: -0.0064986403526
      y: -0.0201636404079
      z: -0.0345860410628
      w: 0.999177192109
  covariance: [0.058564, 0.0, 0.0, 0.0, 0.0, 0.0, 0.0, 0.058564, 0.0, 0.0, 0.0, 0.0, 0.0, 0.0, 0.141376, 0.0, 0.0, 0.0, 0.0, 0.0, 0.0, 99999.0, 0.0, 0.0, 0.0, 0.0, 0.0, 0.0, 99999.0, 0.0, 0.0, 0.0, 0.0, 0.0, 0.0, 99999.0]
twist: 
  twist: 
    linear: 
      x: 0.0
      y: 0.0
      z: 0.0
    angular: 
      x: 0.0
      y: 0.0
      z: 0.0
  covariance: [-1.0, 0.0, 0.0, 0.0, 0.0, 0.0, 0.0, 0.0, 0.0, 0.0, 0.0, 0.0, 0.0, 0.0, 0.0, 0.0, 0.0, 0.0, 0.0, 0.0, 0.0, 0.0, 0.0, 0.0, 0.0, 0.0, 0.0, 0.0, 0.0, 0.0, 0.0, 0.0, 0.0, 0.0, 0.0, 0.0]
---
header: 
  seq: 513
  stamp: 
    secs: 1724985826
    nsecs: 747430848
  frame_id: "map"
child_frame_id: "base_link"
pose: 
  pose: 
    position: 
      x: 0.190953342821
      y: 0.177392399113
      z: 0.054
    orientation: 
      x: -0.00649814446858
      y: -0.0201634197954
      z: -0.0345822056996
      w: 0.99917731855
  covariance: [0.058564, 0.0, 0.0, 0.0, 0.0, 0.0, 0.0, 0.058564, 0.0, 0.0, 0.0, 0.0, 0.0, 0.0, 0.141376, 0.0, 0.0, 0.0, 0.0, 0.0, 0.0, 99999.0, 0.0, 0.0, 0.0, 0.0, 0.0, 0.0, 99999.0, 0.0, 0.0, 0.0, 0.0, 0.0, 0.0, 99999.0]
twist: 
  twist: 
    linear: 
      x: 0.0
      y: 0.0
      z: 0.0
    angular: 
      x: 0.0
      y: 0.0
      z: 0.0
  covariance: [-1.0, 0.0, 0.0, 0.0, 0.0, 0.0, 0.0, 0.0, 0.0, 0.0, 0.0, 0.0, 0.0, 0.0, 0.0, 0.0, 0.0, 0.0, 0.0, 0.0, 0.0, 0.0, 0.0, 0.0, 0.0, 0.0, 0.0, 0.0, 0.0, 0.0, 0.0, 0.0, 0.0, 0.0, 0.0, 0.0]
---
header: 
  seq: 514
  stamp: 
    secs: 1724985826
    nsecs: 766015802
  frame_id: "map"
child_frame_id: "base_link"
pose: 
  pose: 
    position: 
      x: 0.190953343261
      y: 0.17739239964
      z: 0.055
    orientation: 
      x: -0.00650699530677
      y: -0.0201795541359
      z: -0.0345826693149
      w: 0.999176939228
  covariance: [0.058564, 0.0, 0.0, 0.0, 0.0, 0.0, 0.0, 0.058564, 0.0, 0.0, 0.0, 0.0, 0.0, 0.0, 0.141376, 0.0, 0.0, 0.0, 0.0, 0.0, 0.0, 99999.0, 0.0, 0.0, 0.0, 0.0, 0.0, 0.0, 99999.0, 0.0, 0.0, 0.0, 0.0, 0.0, 0.0, 99999.0]
twist: 
  twist: 
    linear: 
      x: 0.0
      y: 0.0
      z: 0.0
    angular: 
      x: 0.0
      y: 0.0
      z: 0.0
  covariance: [-1.0, 0.0, 0.0, 0.0, 0.0, 0.0, 0.0, 0.0, 0.0, 0.0, 0.0, 0.0, 0.0, 0.0, 0.0, 0.0, 0.0, 0.0, 0.0, 0.0, 0.0, 0.0, 0.0, 0.0, 0.0, 0.0, 0.0, 0.0, 0.0, 0.0, 0.0, 0.0, 0.0, 0.0, 0.0, 0.0]
---
header: 
  seq: 515
  stamp: 
    secs: 1724985826
    nsecs: 789431100
  frame_id: "map"
child_frame_id: "base_link"
pose: 
  pose: 
    position: 
      x: 0.190953343261
      y: 0.17739239964
      z: 0.055
    orientation: 
      x: -0.00652804436488
      y: -0.0201763463656
      z: -0.0345635346457
      w: 0.999177529284
  covariance: [0.058564, 0.0, 0.0, 0.0, 0.0, 0.0, 0.0, 0.058564, 0.0, 0.0, 0.0, 0.0, 0.0, 0.0, 0.141376, 0.0, 0.0, 0.0, 0.0, 0.0, 0.0, 99999.0, 0.0, 0.0, 0.0, 0.0, 0.0, 0.0, 99999.0, 0.0, 0.0, 0.0, 0.0, 0.0, 0.0, 99999.0]
twist: 
  twist: 
    linear: 
      x: 0.0
      y: 0.0
      z: 0.0
    angular: 
      x: 0.0
      y: 0.0
      z: 0.0
  covariance: [-1.0, 0.0, 0.0, 0.0, 0.0, 0.0, 0.0, 0.0, 0.0, 0.0, 0.0, 0.0, 0.0, 0.0, 0.0, 0.0, 0.0, 0.0, 0.0, 0.0, 0.0, 0.0, 0.0, 0.0, 0.0, 0.0, 0.0, 0.0, 0.0, 0.0, 0.0, 0.0, 0.0, 0.0, 0.0, 0.0]
---
header: 
  seq: 516
  stamp: 
    secs: 1724985826
    nsecs: 806017844
  frame_id: "map"
child_frame_id: "base_link"
pose: 
  pose: 
    position: 
      x: 0.190953343261
      y: 0.17739239964
      z: 0.056
    orientation: 
      x: -0.00652019253871
      y: -0.0201750259839
      z: -0.0345580977023
      w: 0.999177824312
  covariance: [0.058564, 0.0, 0.0, 0.0, 0.0, 0.0, 0.0, 0.058564, 0.0, 0.0, 0.0, 0.0, 0.0, 0.0, 0.141376, 0.0, 0.0, 0.0, 0.0, 0.0, 0.0, 99999.0, 0.0, 0.0, 0.0, 0.0, 0.0, 0.0, 99999.0, 0.0, 0.0, 0.0, 0.0, 0.0, 0.0, 99999.0]
twist: 
  twist: 
    linear: 
      x: 0.0
      y: 0.0
      z: 0.0
    angular: 
      x: 0.0
      y: 0.0
      z: 0.0
  covariance: [-1.0, 0.0, 0.0, 0.0, 0.0, 0.0, 0.0, 0.0, 0.0, 0.0, 0.0, 0.0, 0.0, 0.0, 0.0, 0.0, 0.0, 0.0, 0.0, 0.0, 0.0, 0.0, 0.0, 0.0, 0.0, 0.0, 0.0, 0.0, 0.0, 0.0, 0.0, 0.0, 0.0, 0.0, 0.0, 0.0]
---
header: 
  seq: 517
  stamp: 
    secs: 1724985826
    nsecs: 827222034
  frame_id: "map"
child_frame_id: "base_link"
pose: 
  pose: 
    position: 
      x: 0.190953342729
      y: 0.177392399347
      z: 0.056
    orientation: 
      x: -0.0065372923054
      y: -0.0201882087278
      z: -0.0345353384041
      w: 0.99917824578
