header: 
  seq: 5926
  stamp: 
    secs: 1723852231
    nsecs:   5472071
  frame_id: "map"
pose: 
  position: 
    x: 0.0271702222526
    y: -0.0199193656445
    z: -0.255556643009
  orientation: 
    x: -0.01077595114
    y: -0.0155972048738
    z: 0.655328181874
    w: -0.755106409768
---
header: 
  seq: 5927
  stamp: 
    secs: 1723852231
    nsecs:  37024551
  frame_id: "map"
pose: 
  position: 
    x: 0.0274229943752
    y: -0.0202483516186
    z: -0.257084459066
  orientation: 
    x: -0.0107455947078
    y: -0.0155951451112
    z: 0.655361282955
    w: -0.755078197721
---
header: 
  seq: 5928
  stamp: 
    secs: 1723852231
    nsecs:  70644350
  frame_id: "map"
pose: 
  position: 
    x: 0.0275824069977
    y: -0.0204699784517
    z: -0.258126735687
  orientation: 
    x: -0.0107456133116
    y: -0.0156255749712
    z: 0.655394578966
    w: -0.75504852634
---
header: 
  seq: 5929
  stamp: 
    secs: 1723852231
    nsecs: 103609102
  frame_id: "map"
pose: 
  position: 
    x: 0.0277659464628
    y: -0.0206752195954
    z: -0.259154677391
  orientation: 
    x: -0.0107397127528
    y: -0.0156253616028
    z: 0.655413213141
    w: -0.755032589563
---
header: 
  seq: 5930
  stamp: 
    secs: 1723852231
    nsecs: 135645811
  frame_id: "map"
pose: 
  position: 
    x: 0.0281397327781
    y: -0.0208786781877
    z: -0.260451585054
  orientation: 
    x: -0.0107471495313
    y: -0.0156192682551
    z: 0.655432036977
    w: -0.755016210244
---
header: 
  seq: 5931
  stamp: 
    secs: 1723852231
    nsecs: 171631653
  frame_id: "map"
pose: 
  position: 
    x: 0.0283758547157
    y: -0.0210100803524
    z: -0.261419713497
  orientation: 
    x: -0.0107219090021
    y: -0.0156012055317
    z: 0.655455770921
    w: -0.75499635381
---
header: 
  seq: 5932
  stamp: 
    secs: 1723852231
    nsecs: 206462250
  frame_id: "map"
pose: 
  position: 
    x: 0.0286140907556
    y: -0.021192740649
    z: -0.261958539486
  orientation: 
    x: -0.0107226264863
    y: -0.0156072815926
    z: 0.65548048478
    w: -0.754974758818
---
header: 
  seq: 5933
  stamp: 
    secs: 1723852231
    nsecs: 237571877
  frame_id: "map"
pose: 
  position: 
    x: 0.0289385989308
    y: -0.0215707756579
    z: -0.262239336967
  orientation: 
    x: -0.0107188069282
    y: -0.0156146388518
    z: 0.655502822609
    w: -0.754955286974
---
header: 
  seq: 5934
  stamp: 
    secs: 1723852231
    nsecs: 271252637
  frame_id: "map"
pose: 
  position: 
    x: 0.0291392244399
    y: -0.0218330211937
    z: -0.262542039156
  orientation: 
    x: -0.0107029605363
    y: -0.0156426340728
    z: 0.655533774201
    w: -0.754928044305
---
header: 
  seq: 5935
  stamp: 
    secs: 1723852231
    nsecs: 305543643
  frame_id: "map"
pose: 
  position: 
    x: 0.0293548349291
    y: -0.0221044253558
    z: -0.262949705124
  orientation: 
    x: -0.0107030981721
    y: -0.0156429600523
    z: 0.655547982957
    w: -0.75491569001
---
header: 
  seq: 5936
  stamp: 
    secs: 1723852231
    nsecs: 337057403
  frame_id: "map"
pose: 
  position: 
    x: 0.0296983718872
    y: -0.0225162710994
    z: -0.263766556978
  orientation: 
    x: -0.0107478428141
    y: -0.0156558143472
    z: 0.655582517031
    w: -0.754884696271
---
header: 
  seq: 5937
  stamp: 
    secs: 1723852231
    nsecs: 370316206
  frame_id: "map"
pose: 
  position: 
    x: 0.0299256052822
    y: -0.0228013731539
    z: -0.264214396477
  orientation: 
    x: -0.0107825652318
    y: -0.0156505262348
    z: 0.655637265788
    w: -0.754836775304
---
header: 
  seq: 5938
  stamp: 
    secs: 1723852231
    nsecs: 404445995
  frame_id: "map"
pose: 
  position: 
    x: 0.030211603269
    y: -0.0231018327177
    z: -0.264749974012
  orientation: 
    x: -0.0107737637845
    y: -0.0156641903748
    z: 0.655659224296
    w: -0.754817598488
---
header: 
  seq: 5939
  stamp: 
    secs: 1723852231
    nsecs: 435760872
  frame_id: "map"
pose: 
  position: 
    x: 0.030764658004
    y: -0.0235578045249
    z: -0.265991657972
  orientation: 
    x: -0.0107870448162
    y: -0.0156898635678
    z: 0.655695728735
    w: -0.75478522444
---
header: 
  seq: 5940
  stamp: 
    secs: 1723852231
    nsecs: 471865755
  frame_id: "map"
pose: 
  position: 
    x: 0.0311437118798
    y: -0.0238866135478
    z: -0.26669973135
  orientation: 
    x: -0.0107932390858
    y: -0.015714191519
    z: 0.655735383651
    w: -0.75475003709
---
header: 
  seq: 5941
  stamp: 
    secs: 1723852231
    nsecs: 506375260
  frame_id: "map"
pose: 
  position: 
    x: 0.0314930826426
    y: -0.0241822693497
    z: -0.267535209656
  orientation: 
    x: -0.0107914206798
    y: -0.0157292176937
    z: 0.655758453782
    w: -0.754729748651
---
header: 
  seq: 5942
  stamp: 
    secs: 1723852231
    nsecs: 537672698
  frame_id: "map"
pose: 
  position: 
    x: 0.0319349691272
    y: -0.0244672913104
    z: -0.268358111382
  orientation: 
    x: -0.0107776740571
    y: -0.0157142781176
    z: 0.65579082783
    w: -0.754702179344
---
header: 
  seq: 5943
  stamp: 
    secs: 1723852231
    nsecs: 571049134
  frame_id: "map"
pose: 
  position: 
    x: 0.0322202593088
    y: -0.0246672704816
    z: -0.269056081772
  orientation: 
    x: -0.0107752567049
    y: -0.0156957774621
    z: 0.655838348402
    w: -0.754661317974
---
header: 
  seq: 5944
  stamp: 
    secs: 1723852231
    nsecs: 605448494
  frame_id: "map"
pose: 
  position: 
    x: 0.0324964374304
    y: -0.0248482804745
    z: -0.269660323858
  orientation: 
    x: -0.010783539713
    y: -0.0157212172011
    z: 0.655850191666
    w: -0.75465040194
---
header: 
  seq: 5945
  stamp: 
    secs: 1723852231
    nsecs: 636561161
  frame_id: "map"
pose: 
  position: 
    x: 0.0328572504222
    y: -0.0250806100667
    z: -0.270501703024
  orientation: 
    x: -0.0107752832113
    y: -0.0156848217511
    z: 0.655900488662
    w: -0.75460752279
---
header: 
  seq: 5946
  stamp: 
    secs: 1723852231
    nsecs: 670004414
  frame_id: "map"
pose: 
  position: 
    x: 0.0330923572183
    y: -0.0252384766936
    z: -0.271059006453
  orientation: 
    x: -0.0107593591112
    y: -0.0156310296954
    z: 0.655967865667
    w: -0.754550261028
---
header: 
  seq: 5947
  stamp: 
    secs: 1723852231
    nsecs: 703626677
  frame_id: "map"
pose: 
  position: 
    x: 0.0332932882011
    y: -0.0253851115704
    z: -0.271532982588
  orientation: 
    x: -0.0107659784713
    y: -0.0156140843574
    z: 0.655993274949
    w: -0.754528392082
---
header: 
  seq: 5948
  stamp: 
    secs: 1723852231
    nsecs: 736071679
  frame_id: "map"
pose: 
  position: 
    x: 0.0336944460869
    y: -0.025658627972
    z: -0.273185402155
  orientation: 
    x: -0.0107774797865
    y: -0.0155837565718
    z: 0.656047006912
    w: -0.754482162258
---
header: 
  seq: 5949
  stamp: 
    secs: 1723852231
    nsecs: 771678925
  frame_id: "map"
pose: 
  position: 
    x: 0.0339549817145
    y: -0.025839406997
    z: -0.274308562279
  orientation: 
    x: -0.0108150071099
    y: -0.0155711749143
    z: 0.656097330249
    w: -0.754438245242
---
header: 
  seq: 5950
  stamp: 
    secs: 1723852231
    nsecs: 806585138
  frame_id: "map"
pose: 
  position: 
    x: 0.0341517440975
    y: -0.0259442441165
    z: -0.275508314371
  orientation: 
    x: -0.0108001781693
    y: -0.0155448026763
    z: 0.656118224549
    w: -0.754420722689
---
header: 
  seq: 5951
  stamp: 
    secs: 1723852231
    nsecs: 837599948
  frame_id: "map"
pose: 
  position: 
    x: 0.0343027189374
    y: -0.0258728768677
    z: -0.27713522315
  orientation: 
    x: -0.0108068322676
    y: -0.0155066938581
    z: 0.656157347362
    w: -0.754387416142
---
header: 
  seq: 5952
  stamp: 
    secs: 1723852231
    nsecs: 871129539
  frame_id: "map"
pose: 
  position: 
    x: 0.0343869104981
    y: -0.0258371476084
    z: -0.278403967619
  orientation: 
    x: -0.0108095922277
    y: -0.0154823020281
    z: 0.656167083284
    w: -0.754379450388
---
header: 
  seq: 5953
  stamp: 
    secs: 1723852231
    nsecs: 905344288
  frame_id: "map"
pose: 
  position: 
    x: 0.0344043411314
    y: -0.0257197637111
    z: -0.279189229012
  orientation: 
    x: -0.0108071607167
    y: -0.0154748290296
    z: 0.656172593984
    w: -0.754374782625
---
header: 
  seq: 5954
  stamp: 
    secs: 1723852231
    nsecs: 936775775
  frame_id: "map"
pose: 
  position: 
    x: 0.0342731140554
    y: -0.0253918785602
    z: -0.279823571444
  orientation: 
    x: -0.0107977267374
    y: -0.0154626074314
    z: 0.65607073032
    w: -0.754463749353
---
header: 
  seq: 5955
  stamp: 
    secs: 1723852231
    nsecs: 970041426
  frame_id: "map"
pose: 
  position: 
    x: 0.0341684110463
    y: -0.0251669902354
    z: -0.280036240816
  orientation: 
    x: -0.0107937920986
    y: -0.0154695713749
    z: 0.655854137665
    w: -0.754652019326
---
header: 
  seq: 5956
  stamp: 
    secs: 1723852232
    nsecs:   3536360
  frame_id: "map"
pose: 
  position: 
    x: 0.0339326262474
    y: -0.0245858840644
    z: -0.280281484127
  orientation: 
    x: -0.0108043936773
    y: -0.0154919154608
    z: 0.655752131755
    w: -0.754739948188
---
header: 
  seq: 5957
  stamp: 
    secs: 1723852232
    nsecs:  35620462
  frame_id: "map"
pose: 
  position: 
    x: 0.033634994179
    y: -0.0238787978888
    z: -0.280667930841
  orientation: 
    x: -0.0107696241737
    y: -0.0154900830607
    z: 0.655471417939
    w: -0.754984331421
---
header: 
  seq: 5958
  stamp: 
    secs: 1723852232
    nsecs:  71554431
  frame_id: "map"
pose: 
  position: 
    x: 0.0332603678107
    y: -0.0230102520436
    z: -0.28105443716
  orientation: 
    x: -0.0107408759071
    y: -0.0155308747892
    z: 0.655213811132
    w: -0.755207546399
---
header: 
  seq: 5959
  stamp: 
    secs: 1723852232
    nsecs: 106478117
  frame_id: "map"
pose: 
  position: 
    x: 0.0329788140953
    y: -0.0224217660725
    z: -0.281465083361
  orientation: 
    x: -0.0107332654375
    y: -0.0155391596084
    z: 0.655113390997
    w: -0.755294479543
---
header: 
  seq: 5960
  stamp: 
    secs: 1723852232
    nsecs: 137764994
  frame_id: "map"
pose: 
  position: 
    x: 0.0324576310813
    y: -0.0210471171886
    z: -0.282059937716
  orientation: 
    x: -0.0107477945757
    y: -0.0155491573019
    z: 0.65494975059
    w: -0.755436035002
---
header: 
  seq: 5961
  stamp: 
    secs: 1723852232
    nsecs: 171099286
  frame_id: "map"
pose: 
  position: 
    x: 0.0320838056505
    y: -0.0201173443347
    z: -0.282510489225
  orientation: 
    x: -0.0107514526258
    y: -0.0155217442343
    z: 0.65485585268
    w: -0.755517963207
---
header: 
  seq: 5962
  stamp: 
    secs: 1723852232
    nsecs: 206285918
  frame_id: "map"
pose: 
  position: 
    x: 0.0317348279059
    y: -0.0192575957626
    z: -0.282900542021
  orientation: 
    x: -0.0107683851222
    y: -0.0155120478249
    z: 0.654814106226
    w: -0.755554061983
---
header: 
  seq: 5963
  stamp: 
    secs: 1723852232
    nsecs: 236870324
  frame_id: "map"
pose: 
  position: 
    x: 0.0308750811964
    y: -0.017226792872
    z: -0.283728867769
  orientation: 
    x: -0.0107702970415
    y: -0.0155175089699
    z: 0.654810644916
    w: -0.755556933237
---
header: 
  seq: 5964
  stamp: 
    secs: 1723852232
    nsecs: 270070278
  frame_id: "map"
pose: 
  position: 
    x: 0.0302952677011
    y: -0.015853472054
    z: -0.284235626459
  orientation: 
    x: -0.0107476816353
    y: -0.0155099867453
    z: 0.65482380527
    w: -0.755545964519
---
header: 
  seq: 5965
  stamp: 
    secs: 1723852232
    nsecs: 303602460
  frame_id: "map"
pose: 
  position: 
    x: 0.0295776799321
    y: -0.0143064958975
    z: -0.28484326601
  orientation: 
    x: -0.0107135514137
    y: -0.0154845423965
    z: 0.654853339674
    w: -0.755521403443
---
header: 
  seq: 5966
  stamp: 
    secs: 1723852232
    nsecs: 335683906
  frame_id: "map"
pose: 
  position: 
    x: 0.0285905282944
    y: -0.0123587688431
    z: -0.285189092159
  orientation: 
    x: -0.0107135364318
    y: -0.0154656176383
    z: 0.654922881974
    w: -0.755461554918
---
header: 
  seq: 5967
  stamp: 
    secs: 1723852232
    nsecs: 371896246
  frame_id: "map"
pose: 
  position: 
    x: 0.0273692421615
    y: -0.0100065749139
    z: -0.285673707724
  orientation: 
    x: -0.0107145372549
    y: -0.0154355591974
    z: 0.65498884706
    w: -0.755405030726
---
header: 
  seq: 5968
  stamp: 
    secs: 1723852232
    nsecs: 407580933
  frame_id: "map"
pose: 
  position: 
    x: 0.0263473950326
    y: -0.00802370999008
    z: -0.286213129759
  orientation: 
    x: -0.0107347894741
    y: -0.0154442197163
    z: 0.655019097961
    w: -0.755378235867
---
header: 
  seq: 5969
  stamp: 
    secs: 1723852232
    nsecs: 437603732
  frame_id: "map"
pose: 
  position: 
    x: 0.0246889442205
    y: -0.00465084519237
    z: -0.287394464016
  orientation: 
    x: -0.0107571105109
    y: -0.0154204261739
    z: 0.655087544443
    w: -0.755319145986
---
header: 
  seq: 5970
  stamp: 
    secs: 1723852232
    nsecs: 471673040
  frame_id: "map"
pose: 
  position: 
    x: 0.0235351230949
    y: -0.00234150094911
    z: -0.28832501173
  orientation: 
    x: -0.0107674172264
    y: -0.0153975149166
    z: 0.655164646834
    w: -0.755252496013
---
header: 
  seq: 5971
  stamp: 
    secs: 1723852232
    nsecs: 506506869
  frame_id: "map"
pose: 
  position: 
    x: 0.0223133880645
    y: 0.000220973510295
    z: -0.289230912924
  orientation: 
    x: -0.0107294447269
    y: -0.0153739319438
    z: 0.655196451899
    w: -0.755225917157
---
header: 
  seq: 5972
  stamp: 
    secs: 1723852232
    nsecs: 537640912
  frame_id: "map"
pose: 
  position: 
    x: 0.0203918889165
    y: 0.00446911109611
    z: -0.290741503239
  orientation: 
    x: -0.0106879835878
    y: -0.0153501102487
    z: 0.655303752507
    w: -0.755133958002
---
header: 
  seq: 5973
  stamp: 
    secs: 1723852232
    nsecs: 571206663
  frame_id: "map"
pose: 
  position: 
    x: 0.0190818663687
    y: 0.00733927916735
    z: -0.291678786278
  orientation: 
    x: -0.0106962419006
    y: -0.0153195641556
    z: 0.655403050482
    w: -0.755048147018
---
header: 
  seq: 5974
  stamp: 
    secs: 1723852232
    nsecs: 605415524
  frame_id: "map"
pose: 
  position: 
    x: 0.0176365673542
    y: 0.0104008838534
    z: -0.2924888134
  orientation: 
    x: -0.0107039574081
    y: -0.0153081212862
    z: 0.655452325416
    w: -0.75500561558
---
header: 
  seq: 5975
  stamp: 
    secs: 1723852232
    nsecs: 639074460
  frame_id: "map"
pose: 
  position: 
    x: 0.0158484112471
    y: 0.0140342172235
    z: -0.29321667552
  orientation: 
    x: -0.0107214857226
    y: -0.0152765975838
    z: 0.655560932577
    w: -0.754911591229
---
header: 
  seq: 5976
  stamp: 
    secs: 1723852232
    nsecs: 670497563
  frame_id: "map"
pose: 
  position: 
    x: 0.0136771406978
    y: 0.0184296108782
    z: -0.294020801783
  orientation: 
    x: -0.0107364417623
    y: -0.0152473484941
    z: 0.655658360285
    w: -0.754827481924
---
header: 
  seq: 5977
  stamp: 
    secs: 1723852232
    nsecs: 703599500
  frame_id: "map"
pose: 
  position: 
    x: 0.0120315244421
    y: 0.0219340939075
    z: -0.294707506895
  orientation: 
    x: -0.0107021869112
    y: -0.0152460524785
    z: 0.655726938476
    w: -0.754768428921
---
header: 
  seq: 5978
  stamp: 
    secs: 1723852232
    nsecs: 735573937
  frame_id: "map"
pose: 
  position: 
    x: 0.0103020910174
    y: 0.0260313656181
    z: -0.295456886292
  orientation: 
    x: -0.0106839442405
    y: -0.0152320712494
    z: 0.655820072475
    w: -0.754688023271
---
header: 
  seq: 5979
  stamp: 
    secs: 1723852232
    nsecs: 771654499
  frame_id: "map"
pose: 
  position: 
    x: 0.00815801694989
    y: 0.0310395509005
    z: -0.29645383358
  orientation: 
    x: -0.0107141045911
    y: -0.0152120235082
    z: 0.655901484381
    w: -0.754617148077
---
header: 
  seq: 5980
  stamp: 
    secs: 1723852232
    nsecs: 806570057
  frame_id: "map"
pose: 
  position: 
    x: 0.00657785590738
    y: 0.0348993390799
    z: -0.297177255154
  orientation: 
    x: -0.0107300538805
    y: -0.0152031311817
    z: 0.655931819575
    w: -0.754590774686
---
header: 
  seq: 5981
  stamp: 
    secs: 1723852232
    nsecs: 838111401
  frame_id: "map"
pose: 
  position: 
    x: 0.00430859113112
    y: 0.0408043153584
    z: -0.298255890608
  orientation: 
    x: -0.0107220657357
    y: -0.0151473564131
    z: 0.656011329605
    w: -0.754522897187
---
header: 
  seq: 5982
  stamp: 
    secs: 1723852232
    nsecs: 871122361
  frame_id: "map"
pose: 
  position: 
    x: 0.00277328467928
    y: 0.0448163673282
    z: -0.298929333687
  orientation: 
    x: -0.0106964007745
    y: -0.015169820848
    z: 0.656105801766
    w: -0.754440731906
---
header: 
  seq: 5983
  stamp: 
    secs: 1723852232
    nsecs: 905482841
  frame_id: "map"
pose: 
  position: 
    x: 0.00107166566886
    y: 0.0493673272431
    z: -0.299463301897
  orientation: 
    x: -0.0106734025893
    y: -0.0151600208826
    z: 0.656144555793
    w: -0.754407456969
---
header: 
  seq: 5984
  stamp: 
    secs: 1723852232
    nsecs: 936643924
  frame_id: "map"
pose: 
  position: 
    x: -0.00066509610042
    y: 0.0540167056024
    z: -0.300040513277
  orientation: 
    x: -0.0106556918579
    y: -0.0151340385029
    z: 0.656226684196
    w: -0.754336876803
---
header: 
  seq: 5985
  stamp: 
    secs: 1723852232
    nsecs: 970116010
  frame_id: "map"
pose: 
  position: 
    x: -0.00275244098157
    y: 0.0596066564322
    z: -0.300648480654
  orientation: 
    x: -0.0106797698915
    y: -0.0151018313959
    z: 0.656282902823
    w: -0.754288160314
---
header: 
  seq: 5986
  stamp: 
    secs: 1723852233
    nsecs:   6468032
  frame_id: "map"
pose: 
  position: 
    x: -0.00437950249761
    y: 0.0639104396105
    z: -0.301227599382
  orientation: 
    x: -0.0106816222125
    y: -0.0151187897402
    z: 0.656303691756
    w: -0.754269815898
---
header: 
  seq: 5987
  stamp: 
    secs: 1723852233
    nsecs:  38716039
  frame_id: "map"
pose: 
  position: 
    x: -0.00671249674633
    y: 0.0701497793198
    z: -0.302224874496
  orientation: 
    x: -0.0106620043363
    y: -0.0151157220752
    z: 0.656345717433
    w: -0.754233522193
---
header: 
  seq: 5988
  stamp: 
    secs: 1723852233
    nsecs:  71155089
  frame_id: "map"
pose: 
  position: 
    x: -0.0083489799872
    y: 0.0744981840253
    z: -0.303003430367
  orientation: 
    x: -0.0106513433239
    y: -0.0150845655114
    z: 0.656411719397
    w: -0.754176876829
---
header: 
  seq: 5989
  stamp: 
    secs: 1723852233
    nsecs: 105451568
  frame_id: "map"
pose: 
  position: 
    x: -0.00983384437859
    y: 0.0784652531147
    z: -0.303594440222
  orientation: 
    x: -0.0106162608469
    y: -0.0150942281703
    z: 0.656438893578
    w: -0.754153495865
---
header: 
  seq: 5990
  stamp: 
    secs: 1723852233
    nsecs: 136641900
  frame_id: "map"
pose: 
  position: 
    x: -0.0114917494357
    y: 0.0831409245729
    z: -0.304297804832
  orientation: 
    x: -0.0106029704309
    y: -0.0151286341574
    z: 0.656469623899
    w: -0.754126221585
---
header: 
  seq: 5991
  stamp: 
    secs: 1723852233
    nsecs: 170211491
  frame_id: "map"
pose: 
  position: 
    x: -0.0135506102815
    y: 0.0888982713223
    z: -0.305354237556
  orientation: 
    x: -0.0106072593667
    y: -0.0151179626083
    z: 0.656490186293
    w: -0.754108440884
---
header: 
  seq: 5992
  stamp: 
    secs: 1723852233
    nsecs: 203713209
  frame_id: "map"
pose: 
  position: 
    x: -0.014952968806
    y: 0.0928004309535
    z: -0.305861979723
  orientation: 
    x: -0.0106024883764
    y: -0.0151071498014
    z: 0.656501023301
    w: -0.754099289749
---
header: 
  seq: 5993
  stamp: 
    secs: 1723852233
    nsecs: 235760382
  frame_id: "map"
pose: 
  position: 
    x: -0.0166592020541
    y: 0.0974629893899
    z: -0.306334078312
  orientation: 
    x: -0.0105789294405
    y: -0.0151197347516
    z: 0.656507951189
    w: -0.754093457679
---
header: 
  seq: 5994
  stamp: 
    secs: 1723852233
    nsecs: 271756560
  frame_id: "map"
pose: 
  position: 
    x: -0.0187092199922
    y: 0.10305929184
    z: -0.30684864521
  orientation: 
    x: -0.0105751961517
    y: -0.015090422277
    z: 0.656522523462
    w: -0.754081329923
---
header: 
  seq: 5995
  stamp: 
    secs: 1723852233
    nsecs: 306561780
  frame_id: "map"
pose: 
  position: 
    x: -0.0202105715871
    y: 0.10721436888
    z: -0.307180464268
  orientation: 
    x: -0.0105586301353
    y: -0.0150834361076
    z: 0.656522713123
    w: -0.754081477437
---
header: 
  seq: 5996
  stamp: 
    secs: 1723852233
    nsecs: 337771281
  frame_id: "map"
pose: 
  position: 
    x: -0.0216502249241
    y: 0.111433148384
    z: -0.307349860668
  orientation: 
    x: -0.0105740897969
    y: -0.0150697940288
    z: 0.656532301531
    w: -0.754073237728
---
header: 
  seq: 5997
  stamp: 
    secs: 1723852233
    nsecs: 371273030
  frame_id: "map"
pose: 
  position: 
    x: -0.023463094607
    y: 0.116679035127
    z: -0.307563483715
  orientation: 
    x: -0.0105922784669
    y: -0.0150614598188
    z: 0.656538344335
    w: -0.754067869274
---
header: 
  seq: 5998
  stamp: 
    secs: 1723852233
    nsecs: 406379566
  frame_id: "map"
pose: 
  position: 
    x: -0.0247386340052
    y: 0.120498076081
    z: -0.307673513889
  orientation: 
    x: -0.010585502044
    y: -0.0150711996921
    z: 0.656548032842
    w: -0.754059445172
---
header: 
  seq: 5999
  stamp: 
    secs: 1723852233
    nsecs: 436684704
  frame_id: "map"
pose: 
  position: 
    x: -0.026016568765
    y: 0.124554477632
    z: -0.307910352945
  orientation: 
    x: -0.0105612272702
    y: -0.0150771563918
    z: 0.656570992338
    w: -0.754039688837
---
header: 
  seq: 6000
  stamp: 
    secs: 1723852233
    nsecs: 470138838
  frame_id: "map"
pose: 
  position: 
    x: -0.0276435017586
    y: 0.129614397883
    z: -0.308436989784
  orientation: 
    x: -0.010541718877
    y: -0.0150702413452
    z: 0.656600937674
    w: -0.754013958186
---
header: 
  seq: 6001
  stamp: 
    secs: 1723852233
    nsecs: 503569163
  frame_id: "map"
pose: 
  position: 
    x: -0.0288513246924
    y: 0.133260890841
    z: -0.3087220788
  orientation: 
    x: -0.0105283020204
    y: -0.015082019743
    z: 0.656627822095
    w: -0.753990529807
---
header: 
  seq: 6002
  stamp: 
    secs: 1723852233
    nsecs: 535757650
  frame_id: "map"
pose: 
  position: 
    x: -0.0302305649966
    y: 0.137180894613
    z: -0.308907538652
  orientation: 
    x: -0.0105554562801
    y: -0.0150841628114
    z: 0.656658452317
    w: -0.75396343992
---
header: 
  seq: 6003
  stamp: 
    secs: 1723852233
    nsecs: 571816164
  frame_id: "map"
pose: 
  position: 
    x: -0.0318991392851
    y: 0.141898021102
    z: -0.309109181166
  orientation: 
    x: -0.0105846693144
    y: -0.0150761786178
    z: 0.65668129064
    w: -0.753943214701
---
header: 
  seq: 6004
  stamp: 
    secs: 1723852233
    nsecs: 603856842
  frame_id: "map"
pose: 
  position: 
    x: -0.0331535339355
    y: 0.145493894815
    z: -0.309463053942
  orientation: 
    x: -0.0105589572673
    y: -0.0150614639347
    z: 0.656699945889
    w: -0.753927678319
---
header: 
  seq: 6005
  stamp: 
    secs: 1723852233
    nsecs: 635655693
  frame_id: "map"
pose: 
  position: 
    x: -0.0343865044415
    y: 0.149194687605
    z: -0.309822976589
  orientation: 
    x: -0.0104902169098
    y: -0.0150604012085
    z: 0.656741961029
    w: -0.753891985206
---
header: 
  seq: 6006
  stamp: 
    secs: 1723852233
    nsecs: 669654504
  frame_id: "map"
pose: 
  position: 
    x: -0.0359710305929
    y: 0.153842106462
    z: -0.310397326946
  orientation: 
    x: -0.0105041741021
    y: -0.015088150957
    z: 0.656805818773
    w: -0.753835713895
---
header: 
  seq: 6007
  stamp: 
    secs: 1723852233
    nsecs: 703776485
  frame_id: "map"
pose: 
  position: 
    x: -0.0370590537786
    y: 0.157172143459
    z: -0.310843378305
  orientation: 
    x: -0.0105276335978
    y: -0.0151102495704
    z: 0.656841922817
    w: -0.753803487361
---
header: 
  seq: 6008
  stamp: 
    secs: 1723852233
    nsecs: 735667497
  frame_id: "map"
pose: 
  position: 
    x: -0.0381074286997
    y: 0.160646393895
    z: -0.311403423548
  orientation: 
    x: -0.0105378484463
    y: -0.0151090067323
    z: 0.656918867157
    w: -0.75373632109
---
header: 
  seq: 6009
  stamp: 
    secs: 1723852233
    nsecs: 769544195
  frame_id: "map"
pose: 
  position: 
    x: -0.0394889488816
    y: 0.165056213737
    z: -0.312127888203
  orientation: 
    x: -0.0105326219078
    y: -0.0150591631448
    z: 0.657006469382
    w: -0.753661025745
---
header: 
  seq: 6010
  stamp: 
    secs: 1723852233
    nsecs: 806861603
  frame_id: "map"
pose: 
  position: 
    x: -0.0405345670879
    y: 0.168366223574
    z: -0.31226208806
  orientation: 
    x: -0.0105500188427
    y: -0.015082693434
    z: 0.657057345896
    w: -0.753615965496
---
header: 
  seq: 6011
  stamp: 
    secs: 1723852233
    nsecs: 837665467
  frame_id: "map"
pose: 
  position: 
    x: -0.0416255556047
    y: 0.171726003289
    z: -0.312378764153
  orientation: 
    x: -0.0105370379426
    y: -0.015099475453
    z: 0.657139890499
    w: -0.753543789018
---
header: 
  seq: 6012
  stamp: 
    secs: 1723852233
    nsecs: 871698103
  frame_id: "map"
pose: 
  position: 
    x: -0.0429369360209
    y: 0.175723358989
    z: -0.312536358833
  orientation: 
    x: -0.0105240458473
    y: -0.0150903299161
    z: 0.657198137444
    w: -0.753493381387
---
header: 
  seq: 6013
  stamp: 
    secs: 1723852233
    nsecs: 906592380
  frame_id: "map"
pose: 
  position: 
    x: -0.0439739376307
    y: 0.178750276566
    z: -0.312616318464
  orientation: 
    x: -0.0105069310987
    y: -0.0151008091702
    z: 0.657222535201
    w: -0.753472018203
---
header: 
  seq: 6014
  stamp: 
    secs: 1723852233
    nsecs: 937753176
  frame_id: "map"
pose: 
  position: 
    x: -0.04501882568
    y: 0.181737437844
    z: -0.312447696924
  orientation: 
    x: -0.0105030833878
    y: -0.0150966437116
    z: 0.657250115045
    w: -0.753448147282
---
header: 
  seq: 6015
  stamp: 
    secs: 1723852233
    nsecs: 971112748
  frame_id: "map"
pose: 
  position: 
    x: -0.0465026237071
    y: 0.185877755284
    z: -0.312414228916
  orientation: 
    x: -0.00996919213554
    y: -0.0145205371222
    z: 0.657207399214
    w: -0.753504012929
---
header: 
  seq: 6016
  stamp: 
    secs: 1723852234
    nsecs:   5468875
  frame_id: "map"
pose: 
  position: 
    x: -0.0476582236588
    y: 0.188926443458
    z: -0.312791466713
  orientation: 
    x: -0.0101815669771
    y: -0.0148167403991
    z: 0.657250510171
    w: -0.753457783105
---
header: 
  seq: 6017
  stamp: 
    secs: 1723852234
    nsecs:  36753992
  frame_id: "map"
pose: 
  position: 
    x: -0.0488948784769
    y: 0.192045092583
    z: -0.313124626875
  orientation: 
    x: -0.0102950890197
    y: -0.0147619183798
    z: 0.65721551775
    w: -0.753487886491
---
header: 
  seq: 6018
  stamp: 
    secs: 1723852234
    nsecs:  70296159
  frame_id: "map"
pose: 
  position: 
    x: -0.0502574704587
    y: 0.196227490902
    z: -0.313850224018
  orientation: 
    x: -0.0106320341403
    y: -0.0151156415682
    z: 0.657034391669
    w: -0.753634030689
---
header: 
  seq: 6019
  stamp: 
    secs: 1723852234
    nsecs: 104256762
  frame_id: "map"
pose: 
  position: 
    x: -0.0511490218341
    y: 0.198939159513
    z: -0.314212024212
  orientation: 
    x: -0.0105244080468
    y: -0.0149705630606
    z: 0.656961372254
    w: -0.753702076775
---
header: 
  seq: 6020
  stamp: 
    secs: 1723852234
    nsecs: 135681464
  frame_id: "map"
pose: 
  position: 
    x: -0.051998436451
    y: 0.20183442533
    z: -0.31525850296
  orientation: 
    x: -0.0103532426156
    y: -0.0154109125107
    z: 0.656949291913
    w: -0.753706149215
---
header: 
  seq: 6021
  stamp: 
    secs: 1723852234
    nsecs: 171723531
  frame_id: "map"
pose: 
  position: 
    x: -0.0528193749487
    y: 0.204915732145
    z: -0.316429078579
  orientation: 
    x: -0.0101723058657
    y: -0.0164019064206
    z: 0.656833198419
    w: -0.753788862405
---
header: 
  seq: 6022
  stamp: 
    secs: 1723852234
    nsecs: 206926899
  frame_id: "map"
pose: 
  position: 
    x: -0.0531461276114
    y: 0.206955939531
    z: -0.317454993725
  orientation: 
    x: -0.0100949298494
    y: -0.0169360726152
    z: 0.656688297554
    w: -0.75390434477
---
header: 
  seq: 6023
  stamp: 
    secs: 1723852234
    nsecs: 237736139
  frame_id: "map"
pose: 
  position: 
    x: -0.0532718114555
    y: 0.208914786577
    z: -0.318441569805
  orientation: 
    x: -0.0104048850174
    y: -0.018192649952
    z: 0.656473069404
    w: -0.754058375696
---
header: 
  seq: 6024
  stamp: 
    secs: 1723852234
    nsecs: 271133600
  frame_id: "map"
pose: 
  position: 
    x: -0.0541324056685
    y: 0.211845874786
    z: -0.319797098637
  orientation: 
    x: -0.0108411305827
    y: -0.020014561407
    z: 0.65630602037
    w: -0.754151414864
---
header: 
  seq: 6025
  stamp: 
    secs: 1723852234
    nsecs: 306031781
  frame_id: "map"
pose: 
  position: 
    x: -0.0552038513124
    y: 0.214280053973
    z: -0.320859611034
  orientation: 
    x: -0.0108398424697
    y: -0.02033162688
    z: 0.656369340741
    w: -0.754087841612
---
header: 
  seq: 6026
  stamp: 
    secs: 1723852234
    nsecs: 336652379
  frame_id: "map"
pose: 
  position: 
    x: -0.0562989339232
    y: 0.217238098383
    z: -0.321816265583
  orientation: 
    x: -0.010734373274
    y: -0.0203327720889
    z: 0.657370749862
    w: -0.753216497665
---
header: 
  seq: 6027
  stamp: 
    secs: 1723852234
    nsecs: 370693687
  frame_id: "map"
pose: 
  position: 
    x: -0.0575543008745
    y: 0.221690297127
    z: -0.323020845652
  orientation: 
    x: -0.0113920435641
    y: -0.0199693368508
    z: 0.658867474015
    w: -0.751907664163
---
header: 
  seq: 6028
  stamp: 
    secs: 1723852234
    nsecs: 407051789
  frame_id: "map"
pose: 
  position: 
    x: -0.0582273602486
    y: 0.224927321076
    z: -0.323774367571
  orientation: 
    x: -0.0125945293721
    y: -0.0198686908351
    z: 0.660274952215
    w: -0.750655454952
---
header: 
  seq: 6029
  stamp: 
    secs: 1723852234
    nsecs: 436670871
  frame_id: "map"
pose: 
  position: 
    x: -0.0588336847723
    y: 0.22854912281
    z: -0.324883580208
  orientation: 
    x: -0.0152302936731
    y: -0.0194513838574
    z: 0.662975606364
    w: -0.748233307179
---
header: 
  seq: 6030
  stamp: 
    secs: 1723852234
    nsecs: 470633458
  frame_id: "map"
pose: 
  position: 
    x: -0.0603489018977
    y: 0.233026728034
    z: -0.326191663742
  orientation: 
    x: -0.0180195023018
    y: -0.0188418258411
    z: 0.665046892161
    w: -0.746346371697
---
header: 
  seq: 6031
  stamp: 
    secs: 1723852234
    nsecs: 506732069
  frame_id: "map"
pose: 
  position: 
    x: -0.0623123236001
    y: 0.236339762807
    z: -0.32707259059
  orientation: 
    x: -0.0198925345091
    y: -0.0184802981595
    z: 0.666138587734
    w: -0.745333659319
---
header: 
  seq: 6032
  stamp: 
    secs: 1723852234
    nsecs: 537671774
  frame_id: "map"
pose: 
  position: 
    x: -0.0640686675906
    y: 0.239457011223
    z: -0.328288346529
  orientation: 
    x: -0.0230549438502
    y: -0.017976209092
    z: 0.666757208639
    w: -0.744701382834
---
header: 
  seq: 6033
  stamp: 
    secs: 1723852234
    nsecs: 570737199
  frame_id: "map"
pose: 
  position: 
    x: -0.0668075084686
    y: 0.244207918644
    z: -0.330525845289
  orientation: 
    x: -0.0260513012759
    y: -0.0155754551243
    z: 0.666157369423
    w: -0.745193410412
---
header: 
  seq: 6034
  stamp: 
    secs: 1723852234
    nsecs: 605700405
  frame_id: "map"
pose: 
  position: 
    x: -0.0690052807331
    y: 0.247655391693
    z: -0.333192408085
  orientation: 
    x: -0.0265793607873
    y: -0.0140113654905
    z: 0.665792522595
    w: -0.745531789019
---
header: 
  seq: 6035
  stamp: 
    secs: 1723852234
    nsecs: 637114644
  frame_id: "map"
pose: 
  position: 
    x: -0.0714120641351
    y: 0.251099199057
    z: -0.336218357086
  orientation: 
    x: -0.0278329549174
    y: -0.00796765558655
    z: 0.664819154299
    w: -0.746443201448
---
header: 
  seq: 6036
  stamp: 
    secs: 1723852234
    nsecs: 669724672
  frame_id: "map"
pose: 
  position: 
    x: -0.0744521021843
    y: 0.254335254431
    z: -0.33768376708
  orientation: 
    x: -0.028622254096
    y: -0.00453340985624
    z: 0.664493082571
    w: -0.74673243683
---
header: 
  seq: 6037
  stamp: 
    secs: 1723852234
    nsecs: 703630490
  frame_id: "map"
pose: 
  position: 
    x: -0.079114690423
    y: 0.259011030197
    z: -0.339455723763
  orientation: 
    x: -0.0301841767891
    y: -0.00336787563916
    z: 0.664358507684
    w: -0.746796795067
---
header: 
  seq: 6038
  stamp: 
    secs: 1723852234
    nsecs: 736217446
  frame_id: "map"
pose: 
  position: 
    x: -0.0838605612516
    y: 0.264033466578
    z: -0.340419769287
  orientation: 
    x: -0.0315081383756
    y: -0.00180854761138
    z: 0.664474769766
    w: -0.746644033815
---
header: 
  seq: 6039
  stamp: 
    secs: 1723852234
    nsecs: 771708626
  frame_id: "map"
pose: 
  position: 
    x: -0.0893307626247
    y: 0.27170202136
    z: -0.340467989445
  orientation: 
    x: -0.031019976454
    y: 0.0016568360789
    z: 0.665186024176
    w: -0.746031318736
---
header: 
  seq: 6040
  stamp: 
    secs: 1723852234
    nsecs: 807909478
  frame_id: "map"
pose: 
  position: 
    x: -0.0936688035727
    y: 0.278783351183
    z: -0.339134216309
  orientation: 
    x: -0.0305350097903
    y: 0.00391794469579
    z: 0.665634071518
    w: -0.745643035626
---
header: 
  seq: 6041
  stamp: 
    secs: 1723852234
    nsecs: 836171585
  frame_id: "map"
pose: 
  position: 
    x: -0.0992218926549
    y: 0.287582010031
    z: -0.336038559675
  orientation: 
    x: -0.0293358048511
    y: 0.00883149344237
    z: 0.665952359249
    w: -0.745364955988
---
header: 
  seq: 6042
  stamp: 
    secs: 1723852234
    nsecs: 871728238
  frame_id: "map"
pose: 
  position: 
    x: -0.107026308775
    y: 0.298476338387
    z: -0.328383028507
  orientation: 
    x: -0.0263119798632
    y: 0.0147366666553
    z: 0.665060297493
    w: -0.746180479067
---
header: 
  seq: 6043
  stamp: 
    secs: 1723852234
    nsecs: 908335174
  frame_id: "map"
pose: 
  position: 
    x: -0.114170633256
    y: 0.306685090065
    z: -0.319193929434
  orientation: 
    x: -0.0235739659906
    y: 0.0182148107978
    z: 0.664349612065
    w: -0.74682811281
---
header: 
  seq: 6044
  stamp: 
    secs: 1723852234
    nsecs: 936194781
  frame_id: "map"
pose: 
  position: 
    x: -0.12222006917
    y: 0.313797265291
    z: -0.309019774199
  orientation: 
    x: -0.0146848128607
    y: 0.0252272464231
    z: 0.663212782486
    w: -0.747861514023
---
header: 
  seq: 6045
  stamp: 
    secs: 1723852234
    nsecs: 971793483
  frame_id: "map"
pose: 
  position: 
    x: -0.134747132659
    y: 0.323112249374
    z: -0.290988564491
  orientation: 
    x: -0.00187961114924
    y: 0.0322915547761
    z: 0.663562883186
    w: -0.747420966186
---
header: 
  seq: 6046
  stamp: 
    secs: 1723852235
    nsecs:   7140469
  frame_id: "map"
pose: 
  position: 
    x: -0.144467607141
    y: 0.329805135727
    z: -0.275611966848
  orientation: 
    x: 0.00512567712785
    y: 0.0353697261495
    z: 0.664425315707
    w: -0.746499696664
---
header: 
  seq: 6047
  stamp: 
    secs: 1723852235
    nsecs:  37847244
  frame_id: "map"
pose: 
  position: 
    x: -0.155415609479
    y: 0.338004350662
    z: -0.256843328476
  orientation: 
    x: 0.0194173501125
    y: 0.0410239385871
    z: 0.667272482838
    w: -0.743429572704
---
header: 
  seq: 6048
  stamp: 
    secs: 1723852235
    nsecs:  71267777
  frame_id: "map"
pose: 
  position: 
    x: -0.169537559152
    y: 0.34934258461
    z: -0.232415944338
  orientation: 
    x: 0.0337167102873
    y: 0.0469738052401
    z: 0.671573168334
    w: -0.738678674573
---
header: 
  seq: 6049
  stamp: 
    secs: 1723852235
    nsecs: 105693889
  frame_id: "map"
pose: 
  position: 
    x: -0.18058270216
    y: 0.359237343073
    z: -0.213593199849
  orientation: 
    x: 0.0403275261235
    y: 0.0497307744932
    z: 0.674112073415
    w: -0.73584878765
---
header: 
  seq: 6050
  stamp: 
    secs: 1723852235
    nsecs: 137747430
  frame_id: "map"
pose: 
  position: 
    x: -0.192835316062
    y: 0.372945994139
    z: -0.19221881032
  orientation: 
    x: 0.0520470054257
    y: 0.0548737645915
    z: 0.680092521557
    w: -0.729214810474
---
header: 
  seq: 6051
  stamp: 
    secs: 1723852235
    nsecs: 171298653
  frame_id: "map"
pose: 
  position: 
    x: -0.204304307699
    y: 0.38780683279
    z: -0.173594072461
  orientation: 
    x: 0.0624044408295
    y: 0.0593401449889
    z: 0.686789823056
    w: -0.721737033635
---
header: 
  seq: 6052
  stamp: 
    secs: 1723852235
    nsecs: 206157058
  frame_id: "map"
pose: 
  position: 
    x: -0.220746189356
    y: 0.413620591164
    z: -0.152270436287
  orientation: 
    x: 0.06732462079
    y: 0.0610199613077
    z: 0.690101478751
    w: -0.717986039191
---
header: 
  seq: 6053
  stamp: 
    secs: 1723852235
    nsecs: 237744162
  frame_id: "map"
pose: 
  position: 
    x: -0.233964934945
    y: 0.434155583382
    z: -0.140007898211
  orientation: 
    x: 0.0759340520365
    y: 0.0628949590234
    z: 0.696127250561
    w: -0.711115391656
---
header: 
  seq: 6054
  stamp: 
    secs: 1723852235
    nsecs: 270667218
  frame_id: "map"
pose: 
  position: 
    x: -0.247759774327
    y: 0.459256768227
    z: -0.132495686412
  orientation: 
    x: 0.0822662241913
    y: 0.0617985950287
    z: 0.702364416804
    w: -0.704341948912
---
header: 
  seq: 6055
  stamp: 
    secs: 1723852235
    nsecs: 306986055
  frame_id: "map"
pose: 
  position: 
    x: -0.264895319939
    y: 0.493211627007
    z: -0.128752335906
  orientation: 
    x: 0.0838898946517
    y: 0.0599499973745
    z: 0.705863687549
    w: -0.700803144424
---
header: 
  seq: 6056
  stamp: 
    secs: 1723852235
    nsecs: 336161133
  frame_id: "map"
pose: 
  position: 
    x: -0.280429542065
    y: 0.520926117897
    z: -0.124508880079
  orientation: 
    x: 0.0832439981495
    y: 0.0537377902971
    z: 0.713754359941
    w: -0.693352400836
---
header: 
  seq: 6057
  stamp: 
    secs: 1723852235
    nsecs: 369713187
  frame_id: "map"
pose: 
  position: 
    x: -0.295599550009
    y: 0.54740858078
    z: -0.11965765059
  orientation: 
    x: 0.0810077140264
    y: 0.0460073141249
    z: 0.723259111751
    w: -0.684264228477
---
header: 
  seq: 6058
  stamp: 
    secs: 1723852235
    nsecs: 404487303
  frame_id: "map"
pose: 
  position: 
    x: -0.317204713821
    y: 0.589370548725
    z: -0.113118350506
  orientation: 
    x: 0.0788557670642
    y: 0.0422051652613
    z: 0.728375824771
    w: -0.679315259914
---
header: 
  seq: 6059
  stamp: 
    secs: 1723852235
    nsecs: 436120488
  frame_id: "map"
pose: 
  position: 
    x: -0.333428233862
    y: 0.621460318565
    z: -0.108212046325
  orientation: 
    x: 0.0753250254657
    y: 0.035553797242
    z: 0.738849548434
    w: -0.668702788826
---
header: 
  seq: 6060
  stamp: 
    secs: 1723852235
    nsecs: 472068313
  frame_id: "map"
pose: 
  position: 
    x: -0.357695311308
    y: 0.666626155376
    z: -0.0995997712016
  orientation: 
    x: 0.0748010229178
    y: 0.0300805034443
    z: 0.749359413019
    w: -0.657237033717
---
header: 
  seq: 6061
  stamp: 
    secs: 1723852235
    nsecs: 503284726
  frame_id: "map"
pose: 
  position: 
    x: -0.379600673914
    y: 0.70483982563
    z: -0.0921593233943
  orientation: 
    x: 0.0763827098487
    y: 0.0273841061273
    z: 0.755182790394
    w: -0.650472685802
---
header: 
  seq: 6062
  stamp: 
    secs: 1723852235
    nsecs: 537416914
  frame_id: "map"
pose: 
  position: 
    x: -0.401584208012
    y: 0.740496814251
    z: -0.0865955427289
  orientation: 
    x: 0.0831045684721
    y: 0.0222693279111
    z: 0.768785153647
    w: -0.633693377402
---
header: 
  seq: 6063
  stamp: 
    secs: 1723852235
    nsecs: 569742555
  frame_id: "map"
pose: 
  position: 
    x: -0.425094038248
    y: 0.780920445919
    z: -0.079126752913
  orientation: 
    x: 0.0924977707453
    y: 0.0183717164355
    z: 0.783739150527
    w: -0.613889036902
---
header: 
  seq: 6064
  stamp: 
    secs: 1723852235
    nsecs: 603708310
  frame_id: "map"
pose: 
  position: 
    x: -0.453618347645
    y: 0.832178473473
    z: -0.0697819516063
  orientation: 
    x: 0.0974883263939
    y: 0.0173207215476
    z: 0.791136006734
    w: -0.603572584204
---
header: 
  seq: 6065
  stamp: 
    secs: 1723852235
    nsecs: 636179168
  frame_id: "map"
pose: 
  position: 
    x: -0.476049631834
    y: 0.874846994877
    z: -0.0626635551453
  orientation: 
    x: 0.106266640392
    y: 0.0168098174499
    z: 0.805397214791
    w: -0.582889545133
---
header: 
  seq: 6066
  stamp: 
    secs: 1723852235
    nsecs: 672362740
  frame_id: "map"
pose: 
  position: 
    x: -0.502428293228
    y: 0.929469764233
    z: -0.055696953088
  orientation: 
    x: 0.11220047412
    y: 0.0168510792146
    z: 0.818979184238
    w: -0.562494621918
---
header: 
  seq: 6067
  stamp: 
    secs: 1723852235
    nsecs: 703605041
  frame_id: "map"
pose: 
  position: 
    x: -0.523310005665
    y: 0.976072192192
    z: -0.0507298670709
  orientation: 
    x: 0.114028720115
    y: 0.0168362013771
    z: 0.825557780455
    w: -0.552420534673
---
header: 
  seq: 6068
  stamp: 
    secs: 1723852235
    nsecs: 737748014
  frame_id: "map"
pose: 
  position: 
    x: -0.543748736382
    y: 1.02012574673
    z: -0.0459739416838
  orientation: 
    x: 0.11521922634
    y: 0.0165619571022
    z: 0.838660266279
    w: -0.532070645366
---
header: 
  seq: 6069
  stamp: 
    secs: 1723852235
    nsecs: 770779838
  frame_id: "map"
pose: 
  position: 
    x: -0.563482224941
    y: 1.06504368782
    z: -0.0431709252298
  orientation: 
    x: 0.113671778455
    y: 0.015920055331
    z: 0.851817701057
    w: -0.511108457181
---
header: 
  seq: 6070
  stamp: 
    secs: 1723852235
    nsecs: 805568195
  frame_id: "map"
pose: 
  position: 
    x: -0.590814173222
    y: 1.13028347492
    z: -0.0425323732197
  orientation: 
    x: 0.112034599929
    y: 0.0155603688575
    z: 0.858499251489
    w: -0.500185079328
---
header: 
  seq: 6071
  stamp: 
    secs: 1723852235
    nsecs: 837738026
  frame_id: "map"
pose: 
  position: 
    x: -0.611072003841
    y: 1.17725670338
    z: -0.0437064468861
  orientation: 
    x: 0.106687877069
    y: 0.0147243808489
    z: 0.872210084925
    w: -0.477127423592
---
header: 
  seq: 6072
  stamp: 
    secs: 1723852235
    nsecs: 870836827
  frame_id: "map"
pose: 
  position: 
    x: -0.63121932745
    y: 1.22663497925
    z: -0.0464766956866
  orientation: 
    x: 0.0990579171793
    y: 0.01392733126
    z: 0.886446953177
    w: -0.451890986521
---
header: 
  seq: 6073
  stamp: 
    secs: 1723852235
    nsecs: 906261062
  frame_id: "map"
pose: 
  position: 
    x: -0.658054530621
    y: 1.29581177235
    z: -0.0529003962874
  orientation: 
    x: 0.0948606258057
    y: 0.0137062736738
    z: 0.893632653673
    w: -0.438445383203
---
header: 
  seq: 6074
  stamp: 
    secs: 1723852235
    nsecs: 937764710
  frame_id: "map"
pose: 
  position: 
    x: -0.677979171276
    y: 1.34595251083
    z: -0.0594147033989
  orientation: 
    x: 0.0865857506451
    y: 0.0140029400721
    z: 0.907826616433
    w: -0.410070438912
---
header: 
  seq: 6075
  stamp: 
    secs: 1723852235
    nsecs: 970724918
  frame_id: "map"
pose: 
  position: 
    x: -0.698471605778
    y: 1.40172159672
    z: -0.067688792944
  orientation: 
    x: 0.0794914139796
    y: 0.0154591663717
    z: 0.921380452859
    w: -0.38013184654
---
header: 
  seq: 6076
  stamp: 
    secs: 1723852236
    nsecs:   5542554
  frame_id: "map"
pose: 
  position: 
    x: -0.724115133286
    y: 1.47219610214
    z: -0.079341493547
  orientation: 
    x: 0.0767479228277
    y: 0.0165098609633
    z: 0.92779931252
    w: -0.364726688721
---
header: 
  seq: 6077
  stamp: 
    secs: 1723852236
    nsecs:  36690358
  frame_id: "map"
pose: 
  position: 
    x: -0.745588600636
    y: 1.5310600996
    z: -0.0901615694165
  orientation: 
    x: 0.0733712990833
    y: 0.0189021450607
    z: 0.939598533495
    w: -0.333787656607
---
header: 
  seq: 6078
  stamp: 
    secs: 1723852236
    nsecs:  69730247
  frame_id: "map"
pose: 
  position: 
    x: -0.76496386528
    y: 1.58659994602
    z: -0.100775368512
  orientation: 
    x: 0.07289114638
    y: 0.02115907192
    z: 0.949758811045
    w: -0.303640079087
---
header: 
  seq: 6079
  stamp: 
    secs: 1723852236
    nsecs: 103956292
  frame_id: "map"
pose: 
  position: 
    x: -0.790121197701
    y: 1.66717743874
    z: -0.116086065769
  orientation: 
    x: 0.0735801604253
    y: 0.0219704224614
    z: 0.954281146817
    w: -0.288878840819
---
header: 
  seq: 6080
  stamp: 
    secs: 1723852236
    nsecs: 136409935
  frame_id: "map"
pose: 
  position: 
    x: -0.809219419956
    y: 1.72536933422
    z: -0.127073436975
  orientation: 
    x: 0.0758411386504
    y: 0.0225937111306
    z: 0.962339813913
    w: -0.260076422117
---
header: 
  seq: 6081
  stamp: 
    secs: 1723852236
    nsecs: 171779353
  frame_id: "map"
pose: 
  position: 
    x: -0.827407121658
    y: 1.78452587128
    z: -0.137122347951
  orientation: 
    x: 0.0781708346778
    y: 0.0213082454219
    z: 0.96931867875
    w: -0.232070578851
---
header: 
  seq: 6082
  stamp: 
    secs: 1723852236
    nsecs: 207103843
  frame_id: "map"
pose: 
  position: 
    x: -0.851407170296
    y: 1.87035703659
    z: -0.148847296834
  orientation: 
    x: 0.0789793271361
    y: 0.0198038874213
    z: 0.972453392755
    w: -0.218413566941
---
header: 
  seq: 6083
  stamp: 
    secs: 1723852236
    nsecs: 237799514
  frame_id: "map"
pose: 
  position: 
    x: -0.86813557148
    y: 1.9324837923
    z: -0.154400154948
  orientation: 
    x: 0.0787743828168
    y: 0.0153912546278
    z: 0.97825199832
    w: -0.191260923403
---
header: 
  seq: 6084
  stamp: 
    secs: 1723852236
    nsecs: 270744074
  frame_id: "map"
pose: 
  position: 
    x: -0.884434759617
    y: 2.00031042099
    z: -0.158583208919
  orientation: 
    x: 0.0757470352744
    y: 0.00916047264405
    z: 0.983457639873
    w: -0.164284917307
---
header: 
  seq: 6085
  stamp: 
    secs: 1723852236
    nsecs: 305576910
  frame_id: "map"
pose: 
  position: 
    x: -0.903527796268
    y: 2.08448576927
    z: -0.160698220134
  orientation: 
    x: 0.0734967518121
    y: 0.00564806492463
    z: 0.985806736622
    w: -0.150836363709
---
header: 
  seq: 6086
  stamp: 
    secs: 1723852236
    nsecs: 337173935
  frame_id: "map"
pose: 
  position: 
    x: -0.916925132275
    y: 2.15364003181
    z: -0.160022109747
  orientation: 
    x: 0.0681394711662
    y: -0.00201178761744
    z: 0.989981972023
    w: -0.123647937497
---
header: 
  seq: 6087
  stamp: 
    secs: 1723852236
    nsecs: 369756123
  frame_id: "map"
pose: 
  position: 
    x: -0.927976548672
    y: 2.21776890755
    z: -0.157893210649
  orientation: 
    x: 0.0630786698921
    y: -0.0104652099992
    z: 0.993292227652
    w: -0.0963439867732
---
header: 
  seq: 6088
  stamp: 
    secs: 1723852236
    nsecs: 406320371
  frame_id: "map"
pose: 
  position: 
    x: -0.940199375153
    y: 2.30848503113
    z: -0.153488785028
  orientation: 
    x: 0.0609399991872
    y: -0.0147129985656
    z: 0.994595618942
    w: -0.0827611954631
---
header: 
  seq: 6089
  stamp: 
    secs: 1723852236
    nsecs: 437226155
  frame_id: "map"
pose: 
  position: 
    x: -0.94699048996
    y: 2.37215971947
    z: -0.150129184127
  orientation: 
    x: 0.0574447070395
    y: -0.022176363817
    z: 0.996537830015
    w: -0.0558642568552
---
header: 
  seq: 6090
  stamp: 
    secs: 1723852236
    nsecs: 469903640
  frame_id: "map"
pose: 
  position: 
    x: -0.95175921917
    y: 2.4351849556
    z: -0.146936938167
  orientation: 
    x: 0.0557493237164
    y: -0.0273701410325
    z: 0.997616662896
    w: -0.0300646114483
---
header: 
  seq: 6091
  stamp: 
    secs: 1723852236
    nsecs: 504153270
  frame_id: "map"
pose: 
  position: 
    x: -0.955462992191
    y: 2.52397251129
    z: -0.142771691084
  orientation: 
    x: 0.0559849022091
    y: -0.0292420946262
    z: 0.997843623675
    w: -0.0178555545185
---
header: 
  seq: 6092
  stamp: 
    secs: 1723852236
    nsecs: 536232508
  frame_id: "map"
pose: 
  position: 
    x: -0.956661880016
    y: 2.58647561073
    z: -0.140843182802
  orientation: 
    x: 0.0589581450518
    y: -0.0322442317677
    z: 0.997726455437
    w: 0.00511692243716
---
header: 
  seq: 6093
  stamp: 
    secs: 1723852236
    nsecs: 570730237
  frame_id: "map"
pose: 
  position: 
    x: -0.956190049648
    y: 2.65346384048
    z: -0.140257880092
  orientation: 
    x: 0.0648740611013
    y: -0.0346379567606
    z: 0.996938267223
    w: 0.0265648214416
---
header: 
  seq: 6094
  stamp: 
    secs: 1723852236
    nsecs: 606918321
  frame_id: "map"
pose: 
  position: 
    x: -0.953688442707
    y: 2.73544001579
    z: -0.139909744263
  orientation: 
    x: 0.0676352723688
    y: -0.035422717909
    z: 0.996495008817
    w: 0.0341839179812
---
header: 
  seq: 6095
  stamp: 
    secs: 1723852236
    nsecs: 637196931
  frame_id: "map"
pose: 
  position: 
    x: -0.949222445488
    y: 2.80152487755
    z: -0.138044893742
  orientation: 
    x: 0.0772414782289
    y: -0.037214452879
    z: 0.994784436823
    w: 0.0552515259715
---
header: 
  seq: 6096
  stamp: 
    secs: 1723852236
    nsecs: 669980977
  frame_id: "map"
pose: 
  position: 
    x: -0.944756567478
    y: 2.86160564423
    z: -0.135443747044
  orientation: 
    x: 0.0871270610598
    y: -0.0384483466502
    z: 0.992844459533
    w: 0.0720456542571
---
header: 
  seq: 6097
  stamp: 
    secs: 1723852236
    nsecs: 703672137
  frame_id: "map"
pose: 
  position: 
    x: -0.940235614777
    y: 2.92058110237
    z: -0.132268071175
  orientation: 
    x: 0.0925128408778
    y: -0.0390942023226
    z: 0.991735913123
    w: 0.0798312729952
---
header: 
  seq: 6098
  stamp: 
    secs: 1723852236
    nsecs: 736182708
  frame_id: "map"
pose: 
  position: 
    x: -0.930535316467
    y: 3.00175094604
    z: -0.12723095715
  orientation: 
    x: 0.102945858587
    y: -0.0408964779561
    z: 0.989362118322
    w: 0.0942982630402
---
header: 
  seq: 6099
  stamp: 
    secs: 1723852236
    nsecs: 771873442
  frame_id: "map"
pose: 
  position: 
    x: -0.923640847206
    y: 3.05773019791
    z: -0.123473383486
  orientation: 
    x: 0.11079251123
    y: -0.0431857630583
    z: 0.987302191101
    w: 0.10533057996
---
header: 
  seq: 6100
  stamp: 
    secs: 1723852236
    nsecs: 807156396
  frame_id: "map"
pose: 
  position: 
    x: -0.913471460342
    y: 3.13603568077
    z: -0.118555821478
  orientation: 
    x: 0.114879725572
    y: -0.0454460748364
    z: 0.9859701821
    w: 0.112250418135
---
header: 
  seq: 6101
  stamp: 
    secs: 1723852236
    nsecs: 837919075
  frame_id: "map"
pose: 
  position: 
    x: -0.905097901821
    y: 3.19171261787
    z: -0.115232273936
  orientation: 
    x: 0.118759827666
    y: -0.0499364106134
    z: 0.984312167227
    w: 0.12054909046
---
header: 
  seq: 6102
  stamp: 
    secs: 1723852236
    nsecs: 870840434
  frame_id: "map"
pose: 
  position: 
    x: -0.897520720959
    y: 3.2519133091
    z: -0.112048074603
  orientation: 
    x: 0.121240880929
    y: -0.0562341244268
    z: 0.982464617975
    w: 0.130007264735
---
header: 
  seq: 6103
  stamp: 
    secs: 1723852236
    nsecs: 908796922
  frame_id: "map"
pose: 
  position: 
    x: -0.889343500137
    y: 3.32547616959
    z: -0.10877083987
  orientation: 
    x: 0.121227246424
    y: -0.0579177645843
    z: 0.98193643367
    w: 0.133230487121
---
header: 
  seq: 6104
  stamp: 
    secs: 1723852236
    nsecs: 936765778
  frame_id: "map"
pose: 
  position: 
    x: -0.882569849491
    y: 3.38260221481
    z: -0.105526551604
  orientation: 
    x: 0.118705977165
    y: -0.060756968595
    z: 0.980704734169
    w: 0.142953680779
---
header: 
  seq: 6105
  stamp: 
    secs: 1723852236
    nsecs: 970036453
  frame_id: "map"
pose: 
  position: 
    x: -0.876102209091
    y: 3.43529319763
    z: -0.104188807309
  orientation: 
    x: 0.115488223332
    y: -0.0617785133725
    z: 0.979951232811
    w: 0.150138032576
---
header: 
  seq: 6106
  stamp: 
    secs: 1723852237
    nsecs:   3702333
  frame_id: "map"
pose: 
  position: 
    x: -0.86959117651
    y: 3.48922753334
    z: -0.105370290577
  orientation: 
    x: 0.114151082953
    y: -0.0620674405557
    z: 0.979660841025
    w: 0.152911716677
---
header: 
  seq: 6107
  stamp: 
    secs: 1723852237
    nsecs:  36303497
  frame_id: "map"
pose: 
  position: 
    x: -0.860277175903
    y: 3.56350445747
    z: -0.111586287618
  orientation: 
    x: 0.112216302896
    y: -0.063245716292
    z: 0.979163592506
    w: 0.156990688676
---
header: 
  seq: 6108
  stamp: 
    secs: 1723852237
    nsecs:  70576903
  frame_id: "map"
pose: 
  position: 
    x: -0.853497803211
    y: 3.61664366722
    z: -0.118795014918
  orientation: 
    x: 0.111355859178
    y: -0.0656036691471
    z: 0.978705287676
    w: 0.159474823927
---
header: 
  seq: 6109
  stamp: 
    secs: 1723852237
    nsecs: 107075678
  frame_id: "map"
pose: 
  position: 
    x: -0.844763040543
    y: 3.69356513023
    z: -0.131753310561
  orientation: 
    x: 0.110988802275
    y: -0.0683393157168
    z: 0.978317115201
    w: 0.160956369946
---
header: 
  seq: 6110
  stamp: 
    secs: 1723852237
    nsecs: 137997623
  frame_id: "map"
pose: 
  position: 
    x: -0.839531302452
    y: 3.74763679504
    z: -0.139780953526
  orientation: 
    x: 0.109874280232
    y: -0.073437831835
    z: 0.977728703049
    w: 0.163037454885
---
header: 
  seq: 6111
  stamp: 
    secs: 1723852237
    nsecs: 170770373
  frame_id: "map"
pose: 
  position: 
    x: -0.834270775318
    y: 3.80645632744
    z: -0.147699847817
  orientation: 
    x: 0.105308651745
    y: -0.081091307032
    z: 0.976963906336
    w: 0.166960736425
---
header: 
  seq: 6112
  stamp: 
    secs: 1723852237
    nsecs: 206924409
  frame_id: "map"
pose: 
  position: 
    x: -0.82732874155
    y: 3.87808442116
    z: -0.155057653785
  orientation: 
    x: 0.103007573427
    y: -0.0836718400283
    z: 0.976708791462
    w: 0.168607708825
---
header: 
  seq: 6113
  stamp: 
    secs: 1723852237
    nsecs: 237790545
  frame_id: "map"
pose: 
  position: 
    x: -0.821622431278
    y: 3.93107390404
    z: -0.158323824406
  orientation: 
    x: 0.096374281467
    y: -0.0906148059581
    z: 0.97593113996
    w: 0.173376329706
---
header: 
  seq: 6114
  stamp: 
    secs: 1723852237
    nsecs: 270851074
  frame_id: "map"
pose: 
  position: 
    x: -0.814987778664
    y: 3.98804569244
    z: -0.159823298454
  orientation: 
    x: 0.0891392470966
    y: -0.097418720215
    z: 0.974657251464
    w: 0.180574716403
---
header: 
  seq: 6115
  stamp: 
    secs: 1723852237
    nsecs: 306536592
  frame_id: "map"
pose: 
  position: 
    x: -0.804706215858
    y: 4.05642032623
    z: -0.159341618419
  orientation: 
    x: 0.0871693481783
    y: -0.0992608088153
    z: 0.974084265058
    w: 0.183599637868
---
header: 
  seq: 6116
  stamp: 
    secs: 1723852237
    nsecs: 337865838
  frame_id: "map"
pose: 
  position: 
    x: -0.79475659132
    y: 4.11128091812
    z: -0.158670097589
  orientation: 
    x: 0.083908261458
    y: -0.102674993963
    z: 0.972421993353
    w: 0.191866742203
---
header: 
  seq: 6117
  stamp: 
    secs: 1723852237
    nsecs: 371027136
  frame_id: "map"
pose: 
  position: 
    x: -0.783749997616
    y: 4.16034889221
    z: -0.157429859042
  orientation: 
    x: 0.0845635257558
    y: -0.101929430042
    z: 0.970834911625
    w: 0.199847585144
---
header: 
  seq: 6118
  stamp: 
    secs: 1723852237
    nsecs: 407012849
  frame_id: "map"
pose: 
  position: 
    x: -0.770850658417
    y: 4.21282863617
    z: -0.15570281446
  orientation: 
    x: 0.0859180477587
    y: -0.100489834625
    z: 0.970437551137
    w: 0.20191800693
---
header: 
  seq: 6119
  stamp: 
    secs: 1723852237
    nsecs: 437420005
  frame_id: "map"
pose: 
  position: 
    x: -0.754262447357
    y: 4.27702379227
    z: -0.153756380081
  orientation: 
    x: 0.0936613171316
    y: -0.0936235147295
    z: 0.969525240455
    w: 0.206113894286
---
header: 
  seq: 6120
  stamp: 
    secs: 1723852237
    nsecs: 469805038
  frame_id: "map"
pose: 
  position: 
    x: -0.739777565002
    y: 4.32949542999
    z: -0.154451340437
  orientation: 
    x: 0.102485917932
    y: -0.0875806480776
    z: 0.968706959391
    w: 0.208406134936
---
header: 
  seq: 6121
  stamp: 
    secs: 1723852237
    nsecs: 503822506
  frame_id: "map"
pose: 
  position: 
    x: -0.725662410259
    y: 4.37844896317
    z: -0.156913518906
  orientation: 
    x: 0.109342555591
    y: -0.0838277043425
    z: 0.967916874569
    w: 0.210129098104
---
header: 
  seq: 6122
  stamp: 
    secs: 1723852237
    nsecs: 536272436
  frame_id: "map"
pose: 
  position: 
    x: -0.705502867699
    y: 4.44598817825
    z: -0.15936166048
  orientation: 
    x: 0.118416969639
    y: -0.0804086387216
    z: 0.966397227799
    w: 0.213514501563
---
header: 
  seq: 6123
  stamp: 
    secs: 1723852237
    nsecs: 571881665
  frame_id: "map"
pose: 
  position: 
    x: -0.689053058624
    y: 4.50131559372
    z: -0.163835197687
  orientation: 
    x: 0.126115564355
    y: -0.079806856799
    z: 0.964133899887
    w: 0.21948026153
---
header: 
  seq: 6124
  stamp: 
    secs: 1723852237
    nsecs: 607740401
  frame_id: "map"
pose: 
  position: 
    x: -0.668644309044
    y: 4.56874799728
    z: -0.16994343698
  orientation: 
    x: 0.12836888239
    y: -0.0807161329087
    z: 0.962847198749
    w: 0.22345382426
---
header: 
  seq: 6125
  stamp: 
    secs: 1723852237
    nsecs: 638442120
  frame_id: "map"
pose: 
  position: 
    x: -0.651320040226
    y: 4.62212705612
    z: -0.174473494291
  orientation: 
    x: 0.130001040172
    y: -0.0842349311441
    z: 0.96015266643
    w: 0.232618235
---
header: 
  seq: 6126
  stamp: 
    secs: 1723852237
    nsecs: 670795281
  frame_id: "map"
pose: 
  position: 
    x: -0.634825408459
    y: 4.67044258118
    z: -0.178726971149
  orientation: 
    x: 0.127880209438
    y: -0.0904771757536
    z: 0.957239602701
    w: 0.243213657688
---
header: 
  seq: 6127
  stamp: 
    secs: 1723852237
    nsecs: 707121542
  frame_id: "map"
pose: 
  position: 
    x: -0.616922914982
    y: 4.72205972672
    z: -0.183514758945
  orientation: 
    x: 0.126558327535
    y: -0.0929603508469
    z: 0.956351695043
    w: 0.24644029397
---
header: 
  seq: 6128
  stamp: 
    secs: 1723852237
    nsecs: 737224854
  frame_id: "map"
pose: 
  position: 
    x: -0.593989133835
    y: 4.78713464737
    z: -0.187795504928
  orientation: 
    x: 0.122963188186
    y: -0.100953092369
    z: 0.954070517941
    w: 0.253846696438
---
header: 
  seq: 6129
  stamp: 
    secs: 1723852237
    nsecs: 770017188
  frame_id: "map"
pose: 
  position: 
    x: -0.576103746891
    y: 4.84008646011
    z: -0.190206065774
  orientation: 
    x: 0.120523214271
    y: -0.107228703453
    z: 0.952925535581
    w: 0.256727707488
---
header: 
  seq: 6130
  stamp: 
    secs: 1723852237
    nsecs: 803708892
  frame_id: "map"
pose: 
  position: 
    x: -0.560690701008
    y: 4.88914680481
    z: -0.190570607781
  orientation: 
    x: 0.118555546172
    y: -0.110756921839
    z: 0.952442743431
    w: 0.257935003964
---
header: 
  seq: 6131
  stamp: 
    secs: 1723852237
    nsecs: 836232327
  frame_id: "map"
pose: 
  position: 
    x: -0.542055010796
    y: 4.96054458618
    z: -0.188632801175
  orientation: 
    x: 0.114648228903
    y: -0.113357012454
    z: 0.952148368768
    w: 0.259652846289
---
header: 
  seq: 6132
  stamp: 
