header: 
  seq: 17672
  stamp: 
    secs: 1723513901
    nsecs: 128283904
  frame_id: "map"
pose: 
  position: 
    x: -0.379559993744
    y: 1.02176725864
    z: 2.33957481384
  orientation: 
    x: 0.0709806824206
    y: 0.0145448142008
    z: -0.996590682163
    w: 0.0394626421698
---
header: 
  seq: 17673
  stamp: 
    secs: 1723513901
    nsecs: 168283904
  frame_id: "map"
pose: 
  position: 
    x: -0.379562884569
    y: 1.02287149429
    z: 2.33924508095
  orientation: 
    x: 0.0709542589808
    y: 0.0146422972273
    z: -0.996582168499
    w: 0.0396888021589
---
header: 
  seq: 17674
  stamp: 
    secs: 1723513901
    nsecs: 198288768
  frame_id: "map"
pose: 
  position: 
    x: -0.379680812359
    y: 1.02376198769
    z: 2.33914494514
  orientation: 
    x: 0.0709375477553
    y: 0.0146544934716
    z: -0.996574202745
    w: 0.0399130655398
---
header: 
  seq: 17675
  stamp: 
    secs: 1723513901
    nsecs: 228288768
  frame_id: "map"
pose: 
  position: 
    x: -0.379265129566
    y: 1.02416932583
    z: 2.33867049217
  orientation: 
    x: 0.0709141430835
    y: 0.0145747437316
    z: -0.99656906083
    w: 0.0401122515459
---
header: 
  seq: 17676
  stamp: 
    secs: 1723513901
    nsecs: 268288768
  frame_id: "map"
pose: 
  position: 
    x: -0.378878623247
    y: 1.02478396893
    z: 2.33821368217
  orientation: 
    x: 0.0708947028496
    y: 0.0145339771924
    z: -0.996565478347
    w: 0.0402498610063
---
header: 
  seq: 17677
  stamp: 
    secs: 1723513901
    nsecs: 298291584
  frame_id: "map"
pose: 
  position: 
    x: -0.37870401144
    y: 1.02529966831
    z: 2.3380484581
  orientation: 
    x: 0.0708615174748
    y: 0.0145064763738
    z: -0.996558566264
    w: 0.0404875692319
---
header: 
  seq: 17678
  stamp: 
    secs: 1723513901
    nsecs: 329291584
  frame_id: "map"
pose: 
  position: 
    x: -0.378302663565
    y: 1.02583992481
    z: 2.33799958229
  orientation: 
    x: 0.0708388925197
    y: 0.014577175078
    z: -0.99655060051
    w: 0.0406985142087
---
header: 
  seq: 17679
  stamp: 
    secs: 1723513901
    nsecs: 369291584
  frame_id: "map"
pose: 
  position: 
    x: -0.377918899059
    y: 1.02661144733
    z: 2.33819818497
  orientation: 
    x: 0.0708298256789
    y: 0.0146226462591
    z: -0.996545290007
    w: 0.0408264720407
---
header: 
  seq: 17680
  stamp: 
    secs: 1723513901
    nsecs: 399294400
  frame_id: "map"
pose: 
  position: 
    x: -0.377732813358
    y: 1.02724194527
    z: 2.33808159828
  orientation: 
    x: 0.0708017269018
    y: 0.0146755958718
    z: -0.996539263008
    w: 0.041004458182
---
header: 
  seq: 17681
  stamp: 
    secs: 1723513901
    nsecs: 429294400
  frame_id: "map"
pose: 
  position: 
    x: -0.377520650625
    y: 1.0277261734
    z: 2.33800315857
  orientation: 
    x: 0.0707831243366
    y: 0.0146871441083
    z: -0.996534669001
    w: 0.0411419833487
---
header: 
  seq: 17682
  stamp: 
    secs: 1723513901
    nsecs: 459294400
  frame_id: "map"
pose: 
  position: 
    x: -0.377408564091
    y: 1.02829658985
    z: 2.33795881271
  orientation: 
    x: 0.070770909653
    y: 0.0146822840498
    z: -0.996528051946
    w: 0.0413254485803
---
header: 
  seq: 17683
  stamp: 
    secs: 1723513901
    nsecs: 499300288
  frame_id: "map"
pose: 
  position: 
    x: -0.377401739359
    y: 1.02914786339
    z: 2.33788084984
  orientation: 
    x: 0.0707515589812
    y: 0.0146480133936
    z: -0.996520886982
    w: 0.0415440221366
---
header: 
  seq: 17684
  stamp: 
    secs: 1723513901
    nsecs: 529300288
  frame_id: "map"
pose: 
  position: 
    x: -0.377353727818
    y: 1.02971315384
    z: 2.33777284622
  orientation: 
    x: 0.0707471941482
    y: 0.0146384328881
    z: -0.996518316024
    w: 0.0416160511007
---
header: 
  seq: 17685
  stamp: 
    secs: 1723513901
    nsecs: 569300288
  frame_id: "map"
pose: 
  position: 
    x: -0.377425640821
    y: 1.03053736687
    z: 2.33756875992
  orientation: 
    x: 0.0707228174647
    y: 0.0146523834949
    z: -0.996510898179
    w: 0.0418297356227
---
header: 
  seq: 17686
  stamp: 
    secs: 1723513901
    nsecs: 599305408
  frame_id: "map"
pose: 
  position: 
    x: -0.377575784922
    y: 1.03121769428
    z: 2.33746814728
  orientation: 
    x: 0.0707154707422
    y: 0.0147153008372
    z: -0.996501162257
    w: 0.0420520602486
---
header: 
  seq: 17687
  stamp: 
    secs: 1723513901
    nsecs: 629305408
  frame_id: "map"
pose: 
  position: 
    x: -0.37713944912
    y: 1.03168094158
    z: 2.33707380295
  orientation: 
    x: 0.0707094727188
    y: 0.0147423248697
    z: -0.996497959096
    w: 0.0421280088696
---
header: 
  seq: 17688
  stamp: 
    secs: 1723513901
    nsecs: 669305408
  frame_id: "map"
pose: 
  position: 
    x: -0.37670481205
    y: 1.03241181374
    z: 2.33656430244
  orientation: 
    x: 0.0706787555688
    y: 0.0148013488968
    z: -0.996487928146
    w: 0.0423937026026
---
header: 
  seq: 17689
  stamp: 
    secs: 1723513901
    nsecs: 700310784
  frame_id: "map"
pose: 
  position: 
    x: -0.376481592655
    y: 1.03305053711
    z: 2.33619713783
  orientation: 
    x: 0.070644150372
    y: 0.0147965994738
    z: -0.996481859
    w: 0.0425961760629
---
header: 
  seq: 17690
  stamp: 
    secs: 1723513901
    nsecs: 730310784
  frame_id: "map"
pose: 
  position: 
    x: -0.376085907221
    y: 1.03351736069
    z: 2.33553385735
  orientation: 
    x: 0.0706377677586
    y: 0.0147911388228
    z: -0.996478655839
    w: 0.0426830828645
---
header: 
  seq: 17691
  stamp: 
    secs: 1723513901
    nsecs: 770310784
  frame_id: "map"
pose: 
  position: 
    x: -0.375530213118
    y: 1.03408503532
    z: 2.33443069458
  orientation: 
    x: 0.0706164072089
    y: 0.0147762952296
    z: -0.996470774379
    w: 0.0429083577698
---
header: 
  seq: 17692
  stamp: 
    secs: 1723513901
    nsecs: 800316416
  frame_id: "map"
pose: 
  position: 
    x: -0.375221461058
    y: 1.03458428383
    z: 2.33363342285
  orientation: 
    x: 0.0705867331934
    y: 0.0147897690502
    z: -0.996462935065
    w: 0.0431323261228
---
header: 
  seq: 17693
  stamp: 
    secs: 1723513901
    nsecs: 830316416
  frame_id: "map"
pose: 
  position: 
    x: -0.374909818172
    y: 1.03475892544
    z: 2.33275699615
  orientation: 
    x: 0.0705751401759
    y: 0.0148028530125
    z: -0.996460111226
    w: 0.0432133745125
---
header: 
  seq: 17694
  stamp: 
    secs: 1723513901
    nsecs: 860316416
  frame_id: "map"
pose: 
  position: 
    x: -0.374687641859
    y: 1.03502070904
    z: 2.33195662498
  orientation: 
    x: 0.0705472600356
    y: 0.0148574331813
    z: -0.99645336773
    w: 0.0433951960169
---
header: 
  seq: 17695
  stamp: 
    secs: 1723513901
    nsecs: 900322816
  frame_id: "map"
pose: 
  position: 
    x: -0.374509811401
    y: 1.0355052948
    z: 2.33085179329
  orientation: 
    x: 0.0705280358043
    y: 0.014918240547
    z: -0.996443378927
    w: 0.043632777802
---
header: 
  seq: 17696
  stamp: 
    secs: 1723513901
    nsecs: 930322816
  frame_id: "map"
pose: 
  position: 
    x: -0.374260753393
    y: 1.03567743301
    z: 2.33053660393
  orientation: 
    x: 0.0705220377809
    y: 0.0149328944794
    z: -0.996440386501
    w: 0.0437070826959
---
header: 
  seq: 17697
  stamp: 
    secs: 1723513901
    nsecs: 971322816
  frame_id: "map"
pose: 
  position: 
    x: -0.374043315649
    y: 1.0360609293
    z: 2.33023524284
  orientation: 
    x: 0.070501072358
    y: 0.0149335082429
    z: -0.99643090346
    w: 0.0439558755427
---
header: 
  seq: 17698
  stamp: 
    secs: 1723513902
    nsecs:   1328448
  frame_id: "map"
pose: 
  position: 
    x: -0.373839139938
    y: 1.03633511066
    z: 2.3299665451
  orientation: 
    x: 0.0704901615926
    y: 0.0149195629044
    z: -0.996424033524
    w: 0.0441340302713
---
header: 
  seq: 17699
  stamp: 
    secs: 1723513902
    nsecs:  31328448
  frame_id: "map"
pose: 
  position: 
    x: -0.373472332954
    y: 1.036470294
    z: 2.32953643799
  orientation: 
    x: 0.0704824566218
    y: 0.0149207193085
    z: -0.996419987426
    w: 0.0442373743439
---
header: 
  seq: 17700
  stamp: 
    secs: 1723513902
    nsecs:  71328448
  frame_id: "map"
pose: 
  position: 
    x: -0.373098403215
    y: 1.03679120541
    z: 2.32902503014
  orientation: 
    x: 0.0704568550455
    y: 0.0149486653033
    z: -0.99641151591
    w: 0.0444582659769
---
header: 
  seq: 17701
  stamp: 
    secs: 1723513902
    nsecs: 101333312
  frame_id: "map"
pose: 
  position: 
    x: -0.372902661562
    y: 1.03713512421
    z: 2.32871174812
  orientation: 
    x: 0.0704409972938
    y: 0.0149862708289
    z: -0.996404224505
    w: 0.0446349877127
---
header: 
  seq: 17702
  stamp: 
    secs: 1723513902
    nsecs: 131333312
  frame_id: "map"
pose: 
  position: 
    x: -0.372495859861
    y: 1.03737950325
    z: 2.32811641693
  orientation: 
    x: 0.070421617646
    y: 0.0150251381257
    z: -0.996395879429
    w: 0.0448372082919
---
header: 
  seq: 17703
  stamp: 
    secs: 1723513902
    nsecs: 161333312
  frame_id: "map"
pose: 
  position: 
    x: -0.372035652399
    y: 1.03763759136
    z: 2.32762145996
  orientation: 
    x: 0.0704085020736
    y: 0.0150399553771
    z: -0.99639305559
    w: 0.0449158121644
---
header: 
  seq: 17704
  stamp: 
    secs: 1723513902
    nsecs: 201337920
  frame_id: "map"
pose: 
  position: 
    x: -0.371536374092
    y: 1.03814387321
    z: 2.32699275017
  orientation: 
    x: 0.0703770104752
    y: 0.0150529761192
    z: -0.99638462622
    w: 0.0451471983627
---
header: 
  seq: 17705
  stamp: 
    secs: 1723513902
    nsecs: 231337920
  frame_id: "map"
pose: 
  position: 
    x: -0.371102899313
    y: 1.03840696812
    z: 2.32702803612
  orientation: 
    x: 0.0703507635253
    y: 0.0150528760204
    z: -0.996376955494
    w: 0.0453557409691
---
header: 
  seq: 17706
  stamp: 
    secs: 1723513902
    nsecs: 261337920
  frame_id: "map"
pose: 
  position: 
    x: -0.370742112398
    y: 1.03876614571
    z: 2.3270919323
  orientation: 
    x: 0.0703386673798
    y: 0.0150553310743
    z: -0.996372361488
    w: 0.045475395872
---
header: 
  seq: 17707
  stamp: 
    secs: 1723513902
    nsecs: 301342272
  frame_id: "map"
pose: 
  position: 
    x: -0.37036126852
    y: 1.03938233852
    z: 2.32720637321
  orientation: 
    x: 0.0703155682726
    y: 0.0150705434524
    z: -0.996364058558
    w: 0.0456880267228
---
header: 
  seq: 17708
  stamp: 
    secs: 1723513902
    nsecs: 331342272
  frame_id: "map"
pose: 
  position: 
    x: -0.370089411736
    y: 1.03957366943
    z: 2.32736134529
  orientation: 
    x: 0.0702953219803
    y: 0.0150970274784
    z: -0.996354828399
    w: 0.0459096769991
---
header: 
  seq: 17709
  stamp: 
    secs: 1723513902
    nsecs: 361342272
  frame_id: "map"
pose: 
  position: 
    x: -0.369874149561
    y: 1.03986644745
    z: 2.32752180099
  orientation: 
    x: 0.0702832284689
    y: 0.0151138941203
    z: -0.996350866595
    w: 0.0460085535057
---
header: 
  seq: 17710
  stamp: 
    secs: 1723513902
    nsecs: 401346368
  frame_id: "map"
pose: 
  position: 
    x: -0.369680464268
    y: 1.04041302204
    z: 2.32773590088
  orientation: 
    x: 0.0702696308419
    y: 0.0151415951365
    z: -0.996342605812
    w: 0.0461995630232
---
header: 
  seq: 17711
  stamp: 
    secs: 1723513902
    nsecs: 431346368
  frame_id: "map"
pose: 
  position: 
    x: -0.369314819574
    y: 1.0404753685
    z: 2.3274846077
  orientation: 
    x: 0.0702491211317
    y: 0.015156457169
    z: -0.996334977233
    w: 0.0463904461001
---
header: 
  seq: 17712
  stamp: 
    secs: 1723513902
    nsecs: 462346368
  frame_id: "map"
pose: 
  position: 
    x: -0.369015306234
    y: 1.04065430164
    z: 2.32726359367
  orientation: 
    x: 0.0702415188939
    y: 0.0151622839708
    z: -0.996331858366
    w: 0.0464663947211
---
header: 
  seq: 17713
  stamp: 
    secs: 1723513902
    nsecs: 501348928
  frame_id: "map"
pose: 
  position: 
    x: -0.368701964617
    y: 1.04105389118
    z: 2.32700681686
  orientation: 
    x: 0.0702236091175
    y: 0.0151706580227
    z: -0.996323049675
    w: 0.0466796156277
---
header: 
  seq: 17714
  stamp: 
    secs: 1723513902
    nsecs: 532348928
  frame_id: "map"
pose: 
  position: 
    x: -0.368275135756
    y: 1.04119348526
    z: 2.32676148415
  orientation: 
    x: 0.0702036841949
    y: 0.0151938335211
    z: -0.996316095445
    w: 0.0468502682173
---
header: 
  seq: 17715
  stamp: 
    secs: 1723513902
    nsecs: 562348928
  frame_id: "map"
pose: 
  position: 
    x: -0.367909103632
    y: 1.04144227505
    z: 2.32658624649
  orientation: 
    x: 0.0701945541338
    y: 0.0152134107322
    z: -0.99631120641
    w: 0.0469607772541
---
header: 
  seq: 17716
  stamp: 
    secs: 1723513902
    nsecs: 602351232
  frame_id: "map"
pose: 
  position: 
    x: -0.36749920249
    y: 1.0419267416
    z: 2.32640457153
  orientation: 
    x: 0.0701778165666
    y: 0.0152491881382
    z: -0.996302439866
    w: 0.047159457498
---
header: 
  seq: 17717
  stamp: 
    secs: 1723513902
    nsecs: 632351232
  frame_id: "map"
pose: 
  position: 
    x: -0.367268979549
    y: 1.04199922085
    z: 2.32682156563
  orientation: 
    x: 0.0701596407382
    y: 0.0152798657756
    z: -0.996293209706
    w: 0.0473716668802
---
header: 
  seq: 17718
  stamp: 
    secs: 1723513902
    nsecs: 662351232
  frame_id: "map"
pose: 
  position: 
    x: -0.367077112198
    y: 1.04218530655
    z: 2.32727026939
  orientation: 
    x: 0.0701560055725
    y: 0.0152900916547
    z: -0.9962886157
    w: 0.0474706698274
---
header: 
  seq: 17719
  stamp: 
    secs: 1723513902
    nsecs: 702356864
  frame_id: "map"
pose: 
  position: 
    x: -0.366890668869
    y: 1.04260218143
    z: 2.32804059982
  orientation: 
    x: 0.0701419970137
    y: 0.0153011025189
    z: -0.996280144183
    w: 0.0476648403585
---
header: 
  seq: 17720
  stamp: 
    secs: 1723513902
    nsecs: 732356864
  frame_id: "map"
pose: 
  position: 
    x: -0.366811066866
    y: 1.04260063171
    z: 2.32880830765
  orientation: 
    x: 0.0701312284939
    y: 0.0153074930348
    z: -0.996270745436
    w: 0.0478739308739
---
header: 
  seq: 17721
  stamp: 
    secs: 1723513902
    nsecs: 762356864
  frame_id: "map"
pose: 
  position: 
    x: -0.366770118475
    y: 1.04271745682
    z: 2.32970094681
  orientation: 
    x: 0.070126376338
    y: 0.0153166441693
    z: -0.996266783632
    w: 0.047961006263
---
header: 
  seq: 17722
  stamp: 
    secs: 1723513902
    nsecs: 792363008
  frame_id: "map"
pose: 
  position: 
    x: -0.366757571697
    y: 1.04294073582
    z: 2.33053159714
  orientation: 
    x: 0.0701180444329
    y: 0.0153442319158
    z: -0.996255656864
    w: 0.048195258447
---
header: 
  seq: 17723
  stamp: 
    secs: 1723513902
    nsecs: 832363008
  frame_id: "map"
pose: 
  position: 
    x: -0.366775721312
    y: 1.043394804
    z: 2.33161401749
  orientation: 
    x: 0.0701143802912
    y: 0.0153599131776
    z: -0.99625089427
    w: 0.0482946828626
---
header: 
  seq: 17724
  stamp: 
    secs: 1723513902
    nsecs: 862363008
  frame_id: "map"
pose: 
  position: 
    x: -0.366730362177
    y: 1.04361855984
    z: 2.33227396011
  orientation: 
    x: 0.0700998106525
    y: 0.015388712646
    z: -0.996240694733
    w: 0.0485161224047
---
header: 
  seq: 17725
  stamp: 
    secs: 1723513902
    nsecs: 892369152
  frame_id: "map"
pose: 
  position: 
    x: -0.366661429405
    y: 1.04382920265
    z: 2.33283209801
  orientation: 
    x: 0.0700854464797
    y: 0.0154084874205
    z: -0.996230874517
    w: 0.0487311977727
---
header: 
  seq: 17726
  stamp: 
    secs: 1723513902
    nsecs: 932369152
  frame_id: "map"
pose: 
  position: 
    x: -0.36661991477
    y: 1.04428446293
    z: 2.33365821838
  orientation: 
    x: 0.0700768116441
    y: 0.015413613531
    z: -0.996225943336
    w: 0.0488424233059
---
header: 
  seq: 17727
  stamp: 
    secs: 1723513902
    nsecs: 962369152
  frame_id: "map"
pose: 
  position: 
    x: -0.366612374783
    y: 1.04473769665
    z: 2.3341023922
  orientation: 
    x: 0.0700633035792
    y: 0.0154167850813
    z: -0.996215238036
    w: 0.049079710063
---
header: 
  seq: 17728
  stamp: 
    secs: 1723513903
    nsecs:   2374272
  frame_id: "map"
pose: 
  position: 
    x: -0.366635650396
    y: 1.04548692703
    z: 2.33462333679
  orientation: 
    x: 0.0700434181692
    y: 0.0154265183692
    z: -0.996206176464
    w: 0.0492876204667
---
header: 
  seq: 17729
  stamp: 
    secs: 1723513903
    nsecs:  33374272
  frame_id: "map"
pose: 
  position: 
    x: -0.366470247507
    y: 1.04576337337
    z: 2.33486008644
  orientation: 
    x: 0.0700224948931
    y: 0.0154510452008
    z: -0.996196988451
    w: 0.0494951515488
---
header: 
  seq: 17730
  stamp: 
    secs: 1723513903
    nsecs:  63374272
  frame_id: "map"
pose: 
  position: 
    x: -0.366333514452
    y: 1.04615116119
    z: 2.33506894112
  orientation: 
    x: 0.0700148083616
    y: 0.0154680567225
    z: -0.996193026647
    w: 0.0495807096512
---
header: 
  seq: 17731
  stamp: 
    secs: 1723513903
    nsecs: 103379648
  frame_id: "map"
pose: 
  position: 
    x: -0.366189539433
    y: 1.04681682587
    z: 2.33532691002
  orientation: 
    x: 0.0699911481745
    y: 0.0154993191474
    z: -0.996183459313
    w: 0.0497946892011
---
header: 
  seq: 17732
  stamp: 
    secs: 1723513903
    nsecs: 133379648
  frame_id: "map"
pose: 
  position: 
    x: -0.36603218317
    y: 1.04702448845
    z: 2.33551120758
  orientation: 
    x: 0.0699811303955
    y: 0.0155072506575
    z: -0.996179413215
    w: 0.0498872436805
---
header: 
  seq: 17733
  stamp: 
    secs: 1723513903
    nsecs: 163379648
  frame_id: "map"
pose: 
  position: 
    x: -0.365904182196
    y: 1.0473511219
    z: 2.33564448357
  orientation: 
    x: 0.0699653305957
    y: 0.0155253579973
    z: -0.996169930174
    w: 0.0500936367976
---
header: 
  seq: 17734
  stamp: 
    secs: 1723513903
    nsecs: 203384768
  frame_id: "map"
pose: 
  position: 
    x: -0.365758419037
    y: 1.04793775082
    z: 2.33569407463
  orientation: 
    x: 0.0699478818004
    y: 0.0155407047185
    z: -0.996160278546
    w: 0.0503043288933
---
header: 
  seq: 17735
  stamp: 
    secs: 1723513903
    nsecs: 233384768
  frame_id: "map"
pose: 
  position: 
    x: -0.365368902683
    y: 1.04808545113
    z: 2.33517122269
  orientation: 
    x: 0.0699388597406
    y: 0.0155450748198
    z: -0.996156190302
    w: 0.0503966726384
---
header: 
  seq: 17736
  stamp: 
    secs: 1723513903
    nsecs: 263384768
  frame_id: "map"
pose: 
  position: 
    x: -0.365006744862
    y: 1.04834282398
    z: 2.33474135399
  orientation: 
    x: 0.0699091383099
    y: 0.0155701337555
    z: -0.996147213023
    w: 0.0506077862026
---
header: 
  seq: 17737
  stamp: 
    secs: 1723513903
    nsecs: 303388864
  frame_id: "map"
pose: 
  position: 
    x: -0.364566594362
    y: 1.04885566235
    z: 2.33417105675
  orientation: 
    x: 0.0698831310702
    y: 0.015592869346
    z: -0.996139120828
    w: 0.0507955082659
---
header: 
  seq: 17738
  stamp: 
    secs: 1723513903
    nsecs: 333388864
  frame_id: "map"
pose: 
  position: 
    x: -0.364460289478
    y: 1.04873418808
    z: 2.33449220657
  orientation: 
    x: 0.0698702894523
    y: 0.0156072387872
    z: -0.996134400381
    w: 0.0509009596808
---
header: 
  seq: 17739
  stamp: 
    secs: 1723513903
    nsecs: 363388864
  frame_id: "map"
pose: 
  position: 
    x: -0.364363223314
    y: 1.04873943329
    z: 2.3348543644
  orientation: 
    x: 0.0698498008155
    y: 0.0156415884687
    z: -0.99612651892
    w: 0.0510714436831
---
header: 
  seq: 17740
  stamp: 
    secs: 1723513903
    nsecs: 403392704
  frame_id: "map"
pose: 
  position: 
    x: -0.36425101757
    y: 1.04893028736
    z: 2.33519220352
  orientation: 
    x: 0.0698357026947
    y: 0.0156677880035
    z: -0.996117794523
    w: 0.0512528015722
---
header: 
  seq: 17741
  stamp: 
    secs: 1723513903
    nsecs: 434392704
  frame_id: "map"
pose: 
  position: 
    x: -0.363953024149
    y: 1.04904270172
    z: 2.33516573906
  orientation: 
    x: 0.0698212120814
    y: 0.0156853711418
    z: -0.996110292384
    w: 0.051412285247
---
header: 
  seq: 17742
  stamp: 
    secs: 1723513903
    nsecs: 463392704
  frame_id: "map"
pose: 
  position: 
    x: -0.363676726818
    y: 1.04927670956
    z: 2.33523058891
  orientation: 
    x: 0.0698136124777
    y: 0.0156972539189
    z: -0.99610485544
    w: 0.0515251966541
---
header: 
  seq: 17743
  stamp: 
    secs: 1723513903
    nsecs: 494396544
  frame_id: "map"
pose: 
  position: 
    x: -0.363413512707
    y: 1.04961109161
    z: 2.33553814888
  orientation: 
    x: 0.0697977310184
    y: 0.0157194416005
    z: -0.996094866637
    w: 0.0517326012957
---
header: 
  seq: 17744
  stamp: 
    secs: 1723513903
    nsecs: 534396544
  frame_id: "map"
pose: 
  position: 
    x: -0.362825632095
    y: 1.04989039898
    z: 2.33578014374
  orientation: 
    x: 0.0697903105389
    y: 0.0157259822645
    z: -0.996090525512
    w: 0.051824607866
---
header: 
  seq: 17745
  stamp: 
    secs: 1723513903
    nsecs: 564396544
  frame_id: "map"
pose: 
  position: 
    x: -0.362344741821
    y: 1.05014741421
    z: 2.33593654633
  orientation: 
    x: 0.0697718238774
    y: 0.0157507909532
    z: -0.996081379645
    w: 0.0520173454042
---
header: 
  seq: 17746
  stamp: 
    secs: 1723513903
    nsecs: 594402176
  frame_id: "map"
pose: 
  position: 
    x: -0.361890435219
    y: 1.05051696301
    z: 2.3360991478
  orientation: 
    x: 0.0697459799568
    y: 0.0157756286179
    z: -0.996070969374
    w: 0.0522422831347
---
header: 
  seq: 17747
  stamp: 
    secs: 1723513903
    nsecs: 634402176
  frame_id: "map"
pose: 
  position: 
    x: -0.36131221056
    y: 1.05034601688
    z: 2.33663153648
  orientation: 
    x: 0.0697368051147
    y: 0.0157851617082
    z: -0.996067134011
    w: 0.0523244273425
---
header: 
  seq: 17748
  stamp: 
    secs: 1723513903
    nsecs: 664402176
  frame_id: "map"
pose: 
  position: 
    x: -0.360895365477
    y: 1.05036556721
    z: 2.33718156815
  orientation: 
    x: 0.069709733667
    y: 0.0158088403345
    z: -0.996057482382
    w: 0.0525383225986
---
header: 
  seq: 17749
  stamp: 
    secs: 1723513903
    nsecs: 694407040
  frame_id: "map"
pose: 
  position: 
    x: -0.360498607159
    y: 1.05050742626
    z: 2.33778595924
  orientation: 
    x: 0.0696900273812
    y: 0.0158275245593
    z: -0.996048041488
    w: 0.0527366656677
---
header: 
  seq: 17750
  stamp: 
    secs: 1723513903
    nsecs: 734407040
  frame_id: "map"
pose: 
  position: 
    x: -0.359929829836
    y: 1.0505002737
    z: 2.33862948418
  orientation: 
    x: 0.0696775782558
    y: 0.0158455107269
    z: -0.996040370762
    w: 0.0528919346577
---
header: 
  seq: 17751
  stamp: 
    secs: 1723513903
    nsecs: 764407040
  frame_id: "map"
pose: 
  position: 
    x: -0.359506428242
    y: 1.05054807663
    z: 2.33923268318
  orientation: 
    x: 0.0696641518504
    y: 0.0158675983097
    z: -0.996034343762
    w: 0.0530174901194
---
header: 
  seq: 17752
  stamp: 
    secs: 1723513903
    nsecs: 794409600
  frame_id: "map"
pose: 
  position: 
    x: -0.359092146158
    y: 1.05070841312
    z: 2.33983707428
  orientation: 
    x: 0.0696509098374
    y: 0.0158881053857
    z: -0.996025745805
    w: 0.0531899550235
---
header: 
  seq: 17753
  stamp: 
    secs: 1723513903
    nsecs: 834409600
  frame_id: "map"
pose: 
  position: 
    x: -0.358750134706
    y: 1.05058896542
    z: 2.34076213837
  orientation: 
    x: 0.0696456546522
    y: 0.0159058729165
    z: -0.996020098128
    w: 0.0532968394313
---
header: 
  seq: 17754
  stamp: 
    secs: 1723513903
    nsecs: 865409600
  frame_id: "map"
pose: 
  position: 
    x: -0.35849237442
    y: 1.05064272881
    z: 2.34144234657
  orientation: 
    x: 0.0696270283794
    y: 0.0159259163772
    z: -0.996010446499
    w: 0.0534956461157
---
header: 
  seq: 17755
  stamp: 
    secs: 1723513903
    nsecs: 894415232
  frame_id: "map"
pose: 
  position: 
    x: -0.358235657215
    y: 1.05081653595
    z: 2.3421421051
  orientation: 
    x: 0.0696149980883
    y: 0.015941302611
    z: -0.995998645382
    w: 0.0537260207897
---
header: 
  seq: 17756
  stamp: 
    secs: 1723513903
    nsecs: 935415232
  frame_id: "map"
pose: 
  position: 
    x: -0.357765763998
    y: 1.05067026615
    z: 2.34339189529
  orientation: 
    x: 0.0696082335191
    y: 0.0159473506838
    z: -0.995992997704
    w: 0.0538360240643
---
header: 
  seq: 17757
  stamp: 
    secs: 1723513903
    nsecs: 965415232
  frame_id: "map"
pose: 
  position: 
    x: -0.357417821884
    y: 1.05070436001
    z: 2.34426784515
  orientation: 
    x: 0.0695928894321
    y: 0.0159592281925
    z: -0.995984736922
    w: 0.0540050329268
---
header: 
  seq: 17758
  stamp: 
    secs: 1723513903
    nsecs: 995421888
  frame_id: "map"
pose: 
  position: 
    x: -0.35707116127
    y: 1.0508569479
    z: 2.34519791603
  orientation: 
    x: 0.0695735071501
    y: 0.0159752545317
    z: -0.995974368797
    w: 0.0542171158685
---
header: 
  seq: 17759
  stamp: 
    secs: 1723513904
    nsecs:  25421888
  frame_id: "map"
pose: 
  position: 
    x: -0.356644332409
    y: 1.05083692074
    z: 2.3455350399
  orientation: 
    x: 0.0695700590111
    y: 0.0159800777117
    z: -0.995970828462
    w: 0.0542841293577
---
header: 
  seq: 17760
  stamp: 
    secs: 1723513904
    nsecs:  65421888
  frame_id: "map"
pose: 
  position: 
    x: -0.356031268835
    y: 1.05082702637
    z: 2.34605765343
  orientation: 
    x: 0.0695498232554
    y: 0.0160102390501
    z: -0.995961682596
    w: 0.0544691961695
---
header: 
  seq: 17761
  stamp: 
    secs: 1723513904
    nsecs:  95428032
  frame_id: "map"
pose: 
  position: 
    x: -0.355571836233
    y: 1.05095362663
    z: 2.34640860558
  orientation: 
    x: 0.0695250830554
    y: 0.0160284939039
    z: -0.995953295373
    w: 0.0546490367721
---
header: 
  seq: 17762
  stamp: 
    secs: 1723513904
    nsecs: 125428032
  frame_id: "map"
pose: 
  position: 
    x: -0.355210602283
    y: 1.05096757412
    z: 2.34679675102
  orientation: 
    x: 0.0695155710385
    y: 0.0160343022665
    z: -0.995950429387
    w: 0.0547110769331
---
header: 
  seq: 17763
  stamp: 
    secs: 1723513904
    nsecs: 165428032
  frame_id: "map"
pose: 
  position: 
    x: -0.354774087667
    y: 1.05102157593
    z: 2.3475048542
  orientation: 
    x: 0.0694980879989
    y: 0.016056031601
    z: -0.995938712563
    w: 0.0549406086701
---
header: 
  seq: 17764
  stamp: 
    secs: 1723513904
    nsecs: 195432384
  frame_id: "map"
pose: 
  position: 
    x: -0.354428321123
    y: 1.05119514465
    z: 2.34807682037
  orientation: 
    x: 0.069485335943
    y: 0.016067097783
    z: -0.995930746809
    w: 0.0550965941564
---
header: 
  seq: 17765
  stamp: 
    secs: 1723513904
    nsecs: 235432384
  frame_id: "map"
pose: 
  position: 
    x: -0.354104429483
    y: 1.05117297173
    z: 2.34907865524
  orientation: 
    x: 0.0694653794103
    y: 0.0160820704509
    z: -0.995920800153
    w: 0.0552975503301
---
header: 
  seq: 17766
  stamp: 
    secs: 1723513904
    nsecs: 265432384
  frame_id: "map"
pose: 
  position: 
    x: -0.35387635231
    y: 1.05118727684
    z: 2.34996390343
  orientation: 
    x: 0.0694581722992
    y: 0.0160936239557
    z: -0.995916248293
    w: 0.0553851314813
---
header: 
  seq: 17767
  stamp: 
    secs: 1723513904
    nsecs: 296434688
  frame_id: "map"
pose: 
  position: 
    x: -0.353628188372
    y: 1.05132257938
    z: 2.35081529617
  orientation: 
    x: 0.0694467162589
    y: 0.0161167283313
    z: -0.995906217343
    w: 0.0555717577265
---
header: 
  seq: 17768
  stamp: 
    secs: 1723513904
    nsecs: 336434688
  frame_id: "map"
pose: 
  position: 
    x: -0.353323936462
    y: 1.05111050606
    z: 2.35174512863
  orientation: 
    x: 0.0694327814571
    y: 0.0161390450875
    z: -0.995897071477
    w: 0.0557460349451
---
header: 
  seq: 17769
  stamp: 
    secs: 1723513904
    nsecs: 366434688
  frame_id: "map"
pose: 
  position: 
    x: -0.353065311909
    y: 1.05111014843
    z: 2.35250163078
  orientation: 
    x: 0.0694242704279
    y: 0.0161538043871
    z: -0.995892814645
    w: 0.0558290220898
---
header: 
  seq: 17770
  stamp: 
    secs: 1723513904
    nsecs: 396438016
  frame_id: "map"
pose: 
  position: 
    x: -0.352781176567
    y: 1.05121934414
    z: 2.35321497917
  orientation: 
    x: 0.0694076487645
    y: 0.016178750053
    z: -0.995882530814
    w: 0.0560262693409
---
header: 
  seq: 17771
  stamp: 
    secs: 1723513904
    nsecs: 436438016
  frame_id: "map"
pose: 
  position: 
    x: -0.352515429258
    y: 1.05118966103
    z: 2.35359954834
  orientation: 
    x: 0.0693940300641
    y: 0.0161928481738
    z: -0.99587228913
    w: 0.0562196812287
---
header: 
  seq: 17772
  stamp: 
    secs: 1723513904
    nsecs: 466438016
  frame_id: "map"
pose: 
  position: 
    x: -0.35227522254
    y: 1.05129611492
    z: 2.35391783714
  orientation: 
    x: 0.0693897705982
    y: 0.0161961382622
    z: -0.995866472865
    w: 0.0563270713987
---
header: 
  seq: 17773
  stamp: 
    secs: 1723513904
    nsecs: 496440576
  frame_id: "map"
pose: 
  position: 
    x: -0.352005064487
    y: 1.05151021481
    z: 2.35429692268
  orientation: 
    x: 0.0693763731687
    y: 0.016214719754
    z: -0.995856399768
    w: 0.056516437189
---
header: 
  seq: 17774
  stamp: 
    secs: 1723513904
    nsecs: 526440576
  frame_id: "map"
pose: 
  position: 
    x: -0.351873427629
    y: 1.05165195465
    z: 2.35455393791
  orientation: 
    x: 0.0693677251623
    y: 0.0162246795812
    z: -0.995850709944
    w: 0.056624122387
---
header: 
  seq: 17775
  stamp: 
    secs: 1723513904
    nsecs: 566440576
  frame_id: "map"
pose: 
  position: 
    x: -0.351744890213
    y: 1.05188572407
    z: 2.3548116684
  orientation: 
    x: 0.0693606602968
    y: 0.0162514797085
    z: -0.995839203854
    w: 0.0568270594626
---
header: 
  seq: 17776
  stamp: 
    secs: 1723513904
    nsecs: 596443392
  frame_id: "map"
pose: 
  position: 
    x: -0.351602166891
    y: 1.05218589306
    z: 2.35497808456
  orientation: 
    x: 0.0693500629986
    y: 0.0162772972874
    z: -0.995828414261
    w: 0.0570211035531
---
header: 
  seq: 17777
  stamp: 
    secs: 1723513904
    nsecs: 626443392
  frame_id: "map"
pose: 
  position: 
    x: -0.351584643126
    y: 1.05210590363
    z: 2.35537171364
  orientation: 
    x: 0.0693442388309
    y: 0.0162862930053
    z: -0.995823061611
    w: 0.057119347857
---
header: 
  seq: 17778
  stamp: 
    secs: 1723513904
    nsecs: 666443392
  frame_id: "map"
pose: 
  position: 
    x: -0.35149165988
    y: 1.05219042301
    z: 2.35607171059
  orientation: 
    x: 0.0693417916795
    y: 0.0163021955381
    z: -0.99581357857
    w: 0.0572834255382
---
header: 
  seq: 17779
  stamp: 
    secs: 1723513904
    nsecs: 696449280
  frame_id: "map"
pose: 
  position: 
    x: -0.351367652416
    y: 1.0523763895
    z: 2.35642528534
  orientation: 
    x: 0.0693267294496
    y: 0.0163200763386
    z: -0.995803041858
    w: 0.0574792397964
---
header: 
  seq: 17780
  stamp: 
    secs: 1723513904
    nsecs: 726449280
  frame_id: "map"
pose: 
  position: 
    x: -0.351270079613
    y: 1.05230104923
    z: 2.3567070961
  orientation: 
    x: 0.0693236948765
    y: 0.0163321303373
    z: -0.995798110677
    w: 0.0575650929268
---
header: 
  seq: 17781
  stamp: 
    secs: 1723513904
    nsecs: 767449280
  frame_id: "map"
pose: 
  position: 
    x: -0.35106793046
    y: 1.05237698555
    z: 2.35729074478
  orientation: 
    x: 0.0693196961942
    y: 0.0163551267115
    z: -0.995785508769
    w: 0.0577809269381
---
header: 
  seq: 17782
  stamp: 
    secs: 1723513904
    nsecs: 797454912
  frame_id: "map"
pose: 
  position: 
    x: -0.350867599249
    y: 1.05255556107
    z: 2.35787153244
  orientation: 
    x: 0.0693158028791
    y: 0.016386694701
    z: -0.995774339854
    w: 0.057969028323
---
header: 
  seq: 17783
  stamp: 
    secs: 1723513904
    nsecs: 827454912
  frame_id: "map"
pose: 
  position: 
    x: -0.350626826286
    y: 1.05283427238
    z: 2.35843634605
  orientation: 
    x: 0.0692942474002
    y: 0.0164069067491
    z: -0.995763255233
    w: 0.0581789617754
---
header: 
  seq: 17784
  stamp: 
    secs: 1723513904
    nsecs: 867454912
  frame_id: "map"
pose: 
  position: 
    x: -0.350343972445
    y: 1.05281639099
    z: 2.3591709137
  orientation: 
    x: 0.0692884047934
    y: 0.0164139663462
    z: -0.995757986877
    w: 0.0582742557999
---
header: 
  seq: 17785
  stamp: 
    secs: 1723513904
    nsecs: 897457984
  frame_id: "map"
pose: 
  position: 
    x: -0.350107252598
    y: 1.05281329155
    z: 2.359821558
  orientation: 
    x: 0.0692694992976
    y: 0.0164276877796
    z: -0.995748293102
    w: 0.0584569202413
---
header: 
  seq: 17786
  stamp: 
    secs: 1723513904
    nsecs: 927457984
  frame_id: "map"
pose: 
  position: 
    x: -0.349828481674
    y: 1.05291140079
    z: 2.36066651344
  orientation: 
    x: 0.0692622368688
    y: 0.0164311938705
    z: -0.995743151186
    w: 0.0585523407064
---
header: 
  seq: 17787
  stamp: 
    secs: 1723513904
    nsecs: 967457984
  frame_id: "map"
pose: 
  position: 
    x: -0.349389582872
    y: 1.05320990086
    z: 2.36189031601
  orientation: 
    x: 0.0692514288363
    y: 0.0164408586697
    z: -0.995733373117
    w: 0.0587295260575
---
header: 
  seq: 17788
  stamp: 
    secs: 1723513904
    nsecs: 997464128
  frame_id: "map"
pose: 
  position: 
    x: -0.34901535511
    y: 1.05353808403
    z: 2.36281943321
  orientation: 
    x: 0.0692381657499
    y: 0.0164563871492
    z: -0.995722162056
    w: 0.0589289649447
---
header: 
  seq: 17789
  stamp: 
    secs: 1723513905
    nsecs:  27464128
  frame_id: "map"
pose: 
  position: 
    x: -0.348637014627
    y: 1.0536544323
    z: 2.36345505714
  orientation: 
    x: 0.0692296599891
    y: 0.0164675060147
    z: -0.995717399462
    w: 0.0590168411238
---
header: 
  seq: 17790
  stamp: 
    secs: 1723513905
    nsecs:  67464128
  frame_id: "map"
pose: 
  position: 
    x: -0.348071992397
    y: 1.05398154259
    z: 2.36440205574
  orientation: 
    x: 0.0692183119501
    y: 0.016496155335
    z: -0.995705766931
    w: 0.059218218766
---
header: 
  seq: 17791
  stamp: 
    secs: 1723513905
    nsecs:  97470016
  frame_id: "map"
pose: 
  position: 
    x: -0.347601562738
    y: 1.05433654785
    z: 2.36517262459
  orientation: 
    x: 0.0691968460333
    y: 0.0165161987956
    z: -0.995695103779
    w: 0.0594165196882
---
header: 
  seq: 17792
  stamp: 
    secs: 1723513905
    nsecs: 127470016
  frame_id: "map"
pose: 
  position: 
    x: -0.347418367863
    y: 1.05431234837
    z: 2.36602210999
  orientation: 
    x: 0.0691878081685
    y: 0.0165204740666
    z: -0.995688992486
    w: 0.0595280823962
---
header: 
  seq: 17793
  stamp: 
    secs: 1723513905
    nsecs: 168470016
  frame_id: "map"
pose: 
  position: 
    x: -0.347297310829
    y: 1.05414366722
    z: 2.36725640297
  orientation: 
    x: 0.0691769211107
    y: 0.0165406808462
    z: -0.995676854193
    w: 0.0597372993522
---
header: 
  seq: 17794
  stamp: 
    secs: 1723513905
    nsecs: 198475136
  frame_id: "map"
pose: 
  position: 
    x: -0.347138285637
    y: 1.05415773392
    z: 2.36823248863
  orientation: 
    x: 0.0691628124532
    y: 0.0165673914115
    z: -0.995666233188
    w: 0.0599236727164
---
header: 
  seq: 17795
  stamp: 
    secs: 1723513905
    nsecs: 228475136
  frame_id: "map"
pose: 
  position: 
    x: -0.3471814394
    y: 1.05389094353
    z: 2.36945676804
  orientation: 
    x: 0.069162572743
    y: 0.0165938043146
    z: -0.995654979979
    w: 0.0601038504937
---
header: 
  seq: 17796
  stamp: 
    secs: 1723513905
    nsecs: 268475136
  frame_id: "map"
pose: 
  position: 
    x: -0.347132146358
    y: 1.05373454094
    z: 2.37115931511
  orientation: 
    x: 0.0691578891744
    y: 0.0166099728994
    z: -0.995649795917
    w: 0.0601893664494
---
header: 
  seq: 17797
  stamp: 
    secs: 1723513905
    nsecs: 298478720
  frame_id: "map"
pose: 
  position: 
    x: -0.347019165754
    y: 1.05374765396
    z: 2.37261843681
  orientation: 
    x: 0.0691487907235
    y: 0.0166348974919
    z: -0.995638163386
    w: 0.0603861079382
---
header: 
  seq: 17798
  stamp: 
    secs: 1723513905
    nsecs: 328478720
  frame_id: "map"
pose: 
  position: 
    x: -0.347021222115
    y: 1.05332684517
    z: 2.37370419502
  orientation: 
    x: 0.0691481111056
    y: 0.0166444437531
    z: -0.995632810737
    w: 0.0604717081876
---
header: 
  seq: 17799
  stamp: 
    secs: 1723513905
    nsecs: 368478720
  frame_id: "map"
pose: 
  position: 
    x: -0.346915245056
    y: 1.05297660828
    z: 2.37510800362
  orientation: 
    x: 0.0691450580932
    y: 0.0166687545822
    z: -0.995621431088
    w: 0.0606558899155
---
header: 
  seq: 17800
  stamp: 
    secs: 1723513905
    nsecs: 398484608
  frame_id: "map"
pose: 
  position: 
    x: -0.346759110689
    y: 1.0528523922
    z: 2.37608218193
  orientation: 
    x: 0.0691356461751
    y: 0.016684125011
    z: -0.995610683641
    w: 0.0608392708534
---
header: 
  seq: 17801
  stamp: 
    secs: 1723513905
    nsecs: 428484608
  frame_id: "map"
pose: 
  position: 
    x: -0.346552908421
    y: 1.05231964588
    z: 2.37665987015
  orientation: 
    x: 0.0691314999789
    y: 0.0166938398596
    z: -0.995604698789
    w: 0.06093814736
---
header: 
  seq: 17802
  stamp: 
    secs: 1723513905
    nsecs: 468484608
  frame_id: "map"
pose: 
  position: 
    x: -0.346180051565
    y: 1.05180501938
    z: 2.37739133835
  orientation: 
    x: 0.069119398565
    y: 0.0167235323143
    z: -0.995594035636
    w: 0.0611180722563
---
header: 
  seq: 17803
  stamp: 
    secs: 1723513905
    nsecs: 498490240
  frame_id: "map"
pose: 
  position: 
    x: -0.34582901001
    y: 1.0515717268
    z: 2.3779592514
  orientation: 
    x: 0.0691016099608
    y: 0.0167612194994
    z: -0.995584299714
    w: 0.0612866175035
---
header: 
  seq: 17804
  stamp: 
    secs: 1723513905
    nsecs: 528490240
  frame_id: "map"
pose: 
  position: 
    x: -0.345525950193
    y: 1.05102169514
    z: 2.37843728065
  orientation: 
    x: 0.0690828440765
    y: 0.0167966860725
    z: -0.995574100177
    w: 0.0614636342673
---
header: 
  seq: 17805
  stamp: 
    secs: 1723513905
    nsecs: 568490240
  frame_id: "map"
pose: 
  position: 
    x: -0.34502863884
    y: 1.05050957203
    z: 2.37914919853
  orientation: 
    x: 0.0690786083182
    y: 0.0168119116215
    z: -0.995569084702
    w: 0.0615448512443
---
header: 
  seq: 17806
  stamp: 
    secs: 1723513905
    nsecs: 599492800
  frame_id: "map"
pose: 
  position: 
    x: -0.344587951899
    y: 1.05026566982
    z: 2.37963104248
  orientation: 
    x: 0.0690657508952
    y: 0.0168296264687
    z: -0.995558126521
    w: 0.0617312246085
---
header: 
  seq: 17807
  stamp: 
    secs: 1723513905
    nsecs: 629492800
  frame_id: "map"
pose: 
  position: 
    x: -0.344406247139
    y: 1.04974496365
    z: 2.37982082367
  orientation: 
    x: 0.0690584147094
    y: 0.0168344759905
    z: -0.995553616808
    w: 0.0618115143549
---
header: 
  seq: 17808
  stamp: 
    secs: 1723513905
    nsecs: 669492800
  frame_id: "map"
pose: 
  position: 
    x: -0.344056278467
    y: 1.0492606163
    z: 2.38007378578
  orientation: 
    x: 0.0690420169512
    y: 0.0168530864583
    z: -0.995542742921
    w: 0.0619988149496
---
header: 
  seq: 17809
  stamp: 
    secs: 1723513905
    nsecs: 699497920
  frame_id: "map"
pose: 
  position: 
    x: -0.343722730875
    y: 1.04903519154
    z: 2.38023948669
  orientation: 
    x: 0.0690287538648
    y: 0.0168819386103
    z: -0.995531405419
    w: 0.0621877592715
---
header: 
  seq: 17810
  stamp: 
    secs: 1723513905
    nsecs: 729497920
  frame_id: "map"
pose: 
  position: 
    x: -0.343793034554
    y: 1.04847753048
    z: 2.38052368164
  orientation: 
    x: 0.0690201032241
    y: 0.0169091233276
    z: -0.995519983623
    w: 0.0623734161392
---
header: 
  seq: 17811
  stamp: 
    secs: 1723513905
    nsecs: 769497920
  frame_id: "map"
pose: 
  position: 
    x: -0.343755722046
    y: 1.04792261124
    z: 2.38088178635
  orientation: 
    x: 0.069015322191
    y: 0.0169319537486
    z: -0.995512312897
    w: 0.0624935346575
---
header: 
  seq: 17812
  stamp: 
    secs: 1723513905
    nsecs: 799502528
  frame_id: "map"
pose: 
  position: 
    x: -0.343632906675
    y: 1.04765427113
    z: 2.38114905357
  orientation: 
    x: 0.0690118213684
    y: 0.0169506906569
    z: -0.995502155506
    w: 0.0626549992341
---
header: 
  seq: 17813
  stamp: 
    secs: 1723513905
    nsecs: 829502528
  frame_id: "map"
pose: 
  position: 
    x: -0.343738645315
    y: 1.04719877243
    z: 2.38138103485
  orientation: 
    x: 0.0690127222573
    y: 0.0169573024438
    z: -0.995494147605
    w: 0.0627795010246
---
header: 
  seq: 17814
  stamp: 
    secs: 1723513905
    nsecs: 859502528
  frame_id: "map"
pose: 
  position: 
    x: -0.343754380941
    y: 1.04686820507
    z: 2.38156557083
  orientation: 
    x: 0.0690162678609
    y: 0.0169661848921
    z: -0.995484833152
    w: 0.0629205665266
---
header: 
  seq: 17815
  stamp: 
    secs: 1723513905
    nsecs: 899508672
  frame_id: "map"
pose: 
  position: 
    x: -0.343644499779
    y: 1.04660069942
    z: 2.38167572021
  orientation: 
    x: 0.0690132648979
    y: 0.0169789185087
    z: -0.995472441978
    w: 0.0631152849667
---
header: 
  seq: 17816
  stamp: 
    secs: 1723513905
    nsecs: 929508672
  frame_id: "map"
pose: 
  position: 
    x: -0.34349784255
    y: 1.04603374004
    z: 2.38116383553
  orientation: 
    x: 0.0690116369759
    y: 0.0169786076757
    z: -0.995468648762
    w: 0.0631770722466
---
header: 
  seq: 17817
  stamp: 
    secs: 1723513905
    nsecs: 969508672
  frame_id: "map"
pose: 
  position: 
    x: -0.34318074584
    y: 1.04547154903
    z: 2.38064575195
  orientation: 
    x: 0.0689979655919
    y: 0.0170083686191
    z: -0.995456847644
    w: 0.0633691775821
---
header: 
  seq: 17818
  stamp: 
    secs: 1723513905
    nsecs: 999511488
  frame_id: "map"
pose: 
  position: 
    x: -0.342857241631
    y: 1.04517567158
    z: 2.38030195236
  orientation: 
    x: 0.0689871733645
    y: 0.0170405661772
    z: -0.995446142345
    w: 0.0635413053114
---
header: 
  seq: 17819
  stamp: 
    secs: 1723513906
    nsecs:  30511488
  frame_id: "map"
pose: 
  position: 
    x: -0.342643380165
    y: 1.04471564293
    z: 2.37991452217
  orientation: 
    x: 0.0689761256219
    y: 0.0170593267931
    z: -0.99543644857
    w: 0.0636988502312
---
header: 
  seq: 17820
  stamp: 
    secs: 1723513906
    nsecs:  70511488
  frame_id: "map"
pose: 
  position: 
    x: -0.342241585255
    y: 1.04427087307
    z: 2.37962293625
  orientation: 
    x: 0.068973138464
    y: 0.0170676191856
    z: -0.995429072871
    w: 0.0638151333862
---
header: 
  seq: 17821
  stamp: 
    secs: 1723513906
    nsecs: 100514560
  frame_id: "map"
pose: 
  position: 
    x: -0.34185090661
    y: 1.04406714439
    z: 2.37970972061
  orientation: 
    x: 0.0689538562808
    y: 0.0170772181303
    z: -0.995420348473
    w: 0.063969601586
---
header: 
  seq: 17822
  stamp: 
    secs: 1723513906
    nsecs: 130514560
  frame_id: "map"
pose: 
  position: 
    x: -0.341792613268
    y: 1.04372537136
    z: 2.37982797623
  orientation: 
    x: 0.0689462487746
    y: 0.0170842671907
    z: -0.995412930628
    w: 0.0640909845097
---
header: 
  seq: 17823
  stamp: 
    secs: 1723513906
    nsecs: 160514560
  frame_id: "map"
pose: 
  position: 
    x: -0.341837376356
    y: 1.04337489605
    z: 2.38006806374
  orientation: 
    x: 0.0689417364277
    y: 0.0170975039353
    z: -0.995404037643
    w: 0.0642307013125
---
header: 
  seq: 17824
  stamp: 
    secs: 1723513906
    nsecs: 200520704
  frame_id: "map"
pose: 
  position: 
    x: -0.341743201017
    y: 1.04306840897
    z: 2.38043880463
  orientation: 
    x: 0.0689292293504
    y: 0.0171172497339
    z: -0.995392405113
    w: 0.0644185919632
---
header: 
  seq: 17825
  stamp: 
    secs: 1723513906
    nsecs: 230520704
  frame_id: "map"
pose: 
  position: 
    x: -0.341765969992
    y: 1.04278886318
    z: 2.38075375557
  orientation: 
    x: 0.068927996555
    y: 0.0171216382745
    z: -0.995388485456
    w: 0.0644797470404
---
header: 
  seq: 17826
  stamp: 
    secs: 1723513906
    nsecs: 270520704
  frame_id: "map"
pose: 
  position: 
    x: -0.341773033142
    y: 1.04248058796
    z: 2.38139176369
  orientation: 
    x: 0.0689323271437
    y: 0.017136679431
    z: -0.995374534849
    w: 0.0646855501017
---
header: 
  seq: 17827
  stamp: 
    secs: 1723513906
    nsecs: 300525056
  frame_id: "map"
pose: 
  position: 
    x: -0.341667771339
    y: 1.042355299
    z: 2.38198566437
  orientation: 
    x: 0.0689310390307
    y: 0.0171526188423
    z: -0.995363450228
    w: 0.0648538424678
---
header: 
  seq: 17828
  stamp: 
    secs: 1723513906
    nsecs: 330525056
  frame_id: "map"
pose: 
  position: 
    x: -0.341533154249
    y: 1.04191529751
    z: 2.38218903542
  orientation: 
    x: 0.0689198622133
    y: 0.017162173006
    z: -0.995351101201
    w: 0.0650527334459
---
header: 
  seq: 17829
  stamp: 
    secs: 1723513906
    nsecs: 360525056
  frame_id: "map"
pose: 
  position: 
    x: -0.341312348843
    y: 1.04157328606
    z: 2.38247561455
  orientation: 
    x: 0.0689184318546
    y: 0.0171668960872
    z: -0.995344441999
    w: 0.0651536330012
---
header: 
  seq: 17830
  stamp: 
    secs: 1723513906
    nsecs: 400527872
  frame_id: "map"
pose: 
  position: 
    x: -0.340883255005
    y: 1.04126060009
    z: 2.38293242455
  orientation: 
    x: 0.0689126603705
    y: 0.0171869500846
    z: -0.995331713651
    w: 0.0653487729098
---
header: 
  seq: 17831
  stamp: 
    secs: 1723513906
    nsecs: 430527872
  frame_id: "map"
pose: 
  position: 
    x: -0.340743005276
    y: 1.04104268551
    z: 2.38261461258
  orientation: 
    x: 0.0689054664303
    y: 0.0171981216336
    z: -0.995325096596
    w: 0.065454182178
---
header: 
  seq: 17832
  stamp: 
    secs: 1723513906
    nsecs: 461527872
  frame_id: "map"
pose: 
  position: 
    x: -0.340509355068
    y: 1.04091060162
    z: 2.38234186172
  orientation: 
    x: 0.0689027848371
    y: 0.0172232569604
    z: -0.995313126891
    w: 0.0656334748715
---
header: 
  seq: 17833
  stamp: 
    secs: 1723513906
    nsecs: 501534272
  frame_id: "map"
pose: 
  position: 
    x: -0.340216010809
    y: 1.04076874256
    z: 2.38209366798
  orientation: 
    x: 0.0688836396312
    y: 0.0172449678558
    z: -0.995300272102
    w: 0.0658410481004
---
header: 
  seq: 17834
  stamp: 
    secs: 1723513906
    nsecs: 531534272
  frame_id: "map"
pose: 
  position: 
    x: -0.340232312679
    y: 1.04054069519
    z: 2.38247871399
  orientation: 
    x: 0.0688798832933
    y: 0.0172506208018
    z: -0.995296268151
    w: 0.0659043105201
---
header: 
  seq: 17835
  stamp: 
    secs: 1723513906
    nsecs: 561534272
  frame_id: "map"
pose: 
  position: 
    x: -0.340144336224
    y: 1.04040658474
    z: 2.38287496567
  orientation: 
    x: 0.0688801914921
    y: 0.0172682776972
    z: -0.995283750537
    w: 0.0660880286327
---
header: 
  seq: 17836
  stamp: 
    secs: 1723513906
    nsecs: 601538368
  frame_id: "map"
pose: 
  position: 
    x: -0.339876919985
    y: 1.04033982754
    z: 2.3833065033
  orientation: 
    x: 0.0688767828657
    y: 0.0172773023911
    z: -0.995273930322
    w: 0.0662371863296
---
header: 
  seq: 17837
  stamp: 
    secs: 1723513906
    nsecs: 631538368
  frame_id: "map"
pose: 
  position: 
    x: -0.339517712593
    y: 1.03991782665
    z: 2.38293528557
  orientation: 
    x: 0.0688642020315
    y: 0.0172952832903
    z: -0.995262887847
    w: 0.0664104941707
---
header: 
  seq: 17838
  stamp: 
    secs: 1723513906
    nsecs: 661538368
  frame_id: "map"
pose: 
  position: 
    x: -0.339075058699
    y: 1.03958666325
    z: 2.38259005547
  orientation: 
    x: 0.0688545345981
    y: 0.0173093445327
    z: -0.995256945142
    w: 0.0665067154258
---
header: 
  seq: 17839
  stamp: 
    secs: 1723513906
    nsecs: 701542208
  frame_id: "map"
pose: 
  position: 
    x: -0.338354498148
    y: 1.03928291798
    z: 2.38227081299
  orientation: 
    x: 0.068834572797
    y: 0.0173325358361
    z: -0.995246577017
    w: 0.0666768201064
---
header: 
  seq: 17840
  stamp: 
    secs: 1723513906
    nsecs: 731542208
  frame_id: "map"
pose: 
  position: 
    x: -0.338365167379
    y: 1.03900551796
    z: 2.38191080093
  orientation: 
    x: 0.0688226162629
    y: 0.0173426431772
    z: -0.995240507871
    w: 0.0667768767248
---
header: 
  seq: 17841
  stamp: 
    secs: 1723513906
    nsecs: 761542208
  frame_id: "map"
pose: 
  position: 
    x: -0.338266134262
    y: 1.03881025314
    z: 2.38157963753
  orientation: 
    x: 0.068818135526
    y: 0.0173709052733
    z: -0.995229001781
    w: 0.066945421972
---
header: 
  seq: 17842
  stamp: 
    secs: 1723513906
    nsecs: 801548352
  frame_id: "map"
pose: 
  position: 
    x: -0.33797749877
    y: 1.03867352009
    z: 2.38105916977
  orientation: 
    x: 0.0688105385566
    y: 0.0173984693122
    z: -0.995217158517
    w: 0.0671212164771
---
header: 
  seq: 17843
  stamp: 
    secs: 1723513906
    nsecs: 831548352
  frame_id: "map"
pose: 
  position: 
    x: -0.337650388479
    y: 1.03864908218
    z: 2.38071322441
  orientation: 
    x: 0.0688102329919
    y: 0.0174050705624
    z: -0.995211552986
    w: 0.0672035292723
---
header: 
  seq: 17844
  stamp: 
    secs: 1723513906
    nsecs: 861548352
  frame_id: "map"
pose: 
  position: 
    x: -0.337512910366
    y: 1.03845572472
    z: 2.38051867485
  orientation: 
    x: 0.0688053913727
    y: 0.0174231620971
    z: -0.995200805539
    w: 0.0673634765624
---
header: 
  seq: 17845
  stamp: 
    secs: 1723513906
    nsecs: 901553728
  frame_id: "map"
pose: 
  position: 
    x: -0.337356746197
    y: 1.03815591335
    z: 2.38019943237
  orientation: 
    x: 0.0688139234754
    y: 0.0174389961412
    z: -0.995188372219
    w: 0.0675332019213
---
header: 
  seq: 17846
  stamp: 
    secs: 1723513906
    nsecs: 932553728
  frame_id: "map"
pose: 
  position: 
    x: -0.337116390467
    y: 1.03803598881
    z: 2.37997698784
  orientation: 
    x: 0.0688057417184
    y: 0.0174510079931
    z: -0.995176486808
    w: 0.0677128317897
---
header: 
  seq: 17847
  stamp: 
    secs: 1723513906
    nsecs: 962553728
  frame_id: "map"
pose: 
  position: 
    x: -0.336780846119
    y: 1.03798007965
    z: 2.37998223305
  orientation: 
    x: 0.0687988454403
    y: 0.0174568927468
    z: -0.995170459809
    w: 0.0678063556465
---
header: 
  seq: 17848
  stamp: 
    secs: 1723513907
    nsecs:   2557312
  frame_id: "map"
pose: 
  position: 
    x: -0.336356282234
    y: 1.03792583942
    z: 2.38017225266
  orientation: 
    x: 0.0687966880485
    y: 0.0174579806623
    z: -0.995159290894
    w: 0.0679733836072
---
header: 
  seq: 17849
  stamp: 
    secs: 1723513907
    nsecs:  32557312
  frame_id: "map"
pose: 
  position: 
    x: -0.336297184229
    y: 1.03778386116
    z: 2.38059949875
  orientation: 
    x: 0.0687976468893
    y: 0.0174620636383
    z: -0.995152715985
    w: 0.0680676239604
---
header: 
  seq: 17850
  stamp: 
    secs: 1723513907
    nsecs:  62557312
  frame_id: "map"
pose: 
  position: 
    x: -0.336125850677
    y: 1.03771007061
    z: 2.38095760345
  orientation: 
    x: 0.068796369313
    y: 0.0174656856331
    z: -0.995140957015
    w: 0.0682393723681
---
header: 
  seq: 17851
  stamp: 
    secs: 1723513907
    nsecs:  92563712
  frame_id: "map"
pose: 
  position: 
    x: -0.335845261812
    y: 1.03770470619
    z: 2.38130164146
  orientation: 
    x: 0.068787152324
    y: 0.0174824152977
    z: -0.995128860869
    w: 0.0684202244951
---
header: 
  seq: 17852
  stamp: 
    secs: 1723513907
    nsecs: 132563712
  frame_id: "map"
pose: 
  position: 
    x: -0.335827082396
    y: 1.0375367403
    z: 2.38142681122
  orientation: 
    x: 0.0687823396808
    y: 0.0174934077227
    z: -0.995123171045
    w: 0.0685059090381
---
header: 
  seq: 17853
  stamp: 
    secs: 1723513907
    nsecs: 162563712
  frame_id: "map"
pose: 
  position: 
    x: -0.335798472166
    y: 1.03744065762
    z: 2.38147926331
  orientation: 
    x: 0.06878099625
    y: 0.0175172101554
    z: -0.995112170717
    w: 0.0686605458253
---
header: 
  seq: 17854
  stamp: 
    secs: 1723513907
    nsecs: 202569088
  frame_id: "map"
pose: 
  position: 
    x: -0.335586279631
    y: 1.03741312027
    z: 2.38159394264
  orientation: 
    x: 0.0687746900278
    y: 0.0175382572378
    z: -0.995100833215
    w: 0.0688252978561
---
header: 
  seq: 17855
  stamp: 
    secs: 1723513907
    nsecs: 232569088
  frame_id: "map"
pose: 
  position: 
    x: -0.335475802422
    y: 1.03716778755
    z: 2.38168120384
  orientation: 
    x: 0.068771897799
    y: 0.0175555479824
    z: -0.995089074244
    w: 0.0689930001663
---
header: 
  seq: 17856
  stamp: 
    secs: 1723513907
    nsecs: 262569088
  frame_id: "map"
pose: 
  position: 
    x: -0.335341244936
    y: 1.03684210777
    z: 2.38176679611
  orientation: 
    x: 0.0687691793273
    y: 0.0175628551923
    z: -0.995082794364
    w: 0.0690842480934
---
header: 
  seq: 17857
  stamp: 
    secs: 1723513907
    nsecs: 303572160
  frame_id: "map"
pose: 
  position: 
    x: -0.335117310286
    y: 1.03645765781
    z: 2.38154864311
  orientation: 
    x: 0.068770846762
    y: 0.0175728624346
    z: -0.99507107754
    w: 0.0692491265647
---
header: 
  seq: 17858
  stamp: 
    secs: 1723513907
    nsecs: 332572160
  frame_id: "map"
pose: 
  position: 
    x: -0.335099756718
    y: 1.03608250618
    z: 2.38104128838
  orientation: 
    x: 0.0687693531831
    y: 0.0175827010896
    z: -0.99505796987
    w: 0.069435457782
---
header: 
  seq: 17859
  stamp: 
    secs: 1723513907
    nsecs: 363572160
  frame_id: "map"
pose: 
  position: 
    x: -0.334963262081
    y: 1.03578352928
    z: 2.38058876991
  orientation: 
    x: 0.0687664977341
    y: 0.0175881274963
    z: -0.995052701514
    w: 0.0695124600742
---
header: 
  seq: 17860
  stamp: 
    secs: 1723513907
    nsecs: 393575488
  frame_id: "map"
pose: 
  position: 
    x: -0.334710657597
    y: 1.03556060791
    z: 2.38038659096
  orientation: 
    x: 0.0687612557198
    y: 0.0176085476444
    z: -0.995040605368
    w: 0.0696863158243
---
header: 
  seq: 17861
  stamp: 
    secs: 1723513907
    nsecs: 433575488
  frame_id: "map"
pose: 
  position: 
    x: -0.33485737443
    y: 1.03518092632
    z: 2.38017249107
  orientation: 
    x: 0.0687559399485
    y: 0.0176279141213
    z: -0.995029225719
    w: 0.06984832831
---
header: 
  seq: 17862
  stamp: 
    secs: 1723513907
    nsecs: 463575488
  frame_id: "map"
pose: 
  position: 
    x: -0.334810495377
    y: 1.0349906683
    z: 2.38007044792
  orientation: 
    x: 0.0687541671467
    y: 0.0176358614364
    z: -0.995023704482
    w: 0.0699276908258
---
header: 
  seq: 17863
  stamp: 
    secs: 1723513907
    nsecs: 493579840
  frame_id: "map"
pose: 
  position: 
    x: -0.334645807743
    y: 1.03486645222
    z: 2.37997174263
  orientation: 
    x: 0.0687479294131
    y: 0.0176460135586
    z: -0.995011819071
    w: 0.0700998185551
---
header: 
  seq: 17864
  stamp: 
    secs: 1723513907
    nsecs: 533579840
  frame_id: "map"
pose: 
  position: 
    x: -0.334981232882
    y: 1.03473436832
    z: 2.37956142426
  orientation: 
    x: 0.0687446445931
    y: 0.0176483816846
    z: -0.995006887889
    w: 0.0701715103444
---
header: 
  seq: 17865
  stamp: 
    secs: 1723513907
    nsecs: 563579840
  frame_id: "map"
pose: 
  position: 
    x: -0.335070312023
    y: 1.03471601009
    z: 2.37934565544
  orientation: 
    x: 0.0687459327062
    y: 0.0176468986424
    z: -0.994994075248
    w: 0.070351898856
---
header: 
  seq: 17866
  stamp: 
    secs: 1723513907
    nsecs: 593585728
  frame_id: "map"
pose: 
  position: 
    x: -0.335032761097
    y: 1.03475606441
    z: 2.37916779518
  orientation: 
    x: 0.0687450528907
    y: 0.01765136094
    z: -0.994982063396
    w: 0.0705212870402
---
header: 
  seq: 17867
  stamp: 
    secs: 1723513907
    nsecs: 633585728
  frame_id: "map"
pose: 
  position: 
    x: -0.33502933383
    y: 1.03430354595
    z: 2.37859630585
  orientation: 
    x: 0.0687425556899
    y: 0.0176514926489
    z: -0.994975193459
    w: 0.0706208800432
---
header: 
  seq: 17868
  stamp: 
    secs: 1723513907
    nsecs: 663585728
  frame_id: "map"
pose: 
  position: 
    x: -0.334884345531
    y: 1.03404474258
    z: 2.37824296951
  orientation: 
    x: 0.0687420604645
    y: 0.0176662124357
    z: -0.994963181608
    w: 0.0707877394165
---
header: 
  seq: 17869
  stamp: 
    secs: 1723513907
    nsecs: 693591360
  frame_id: "map"
pose: 
  position: 
    x: -0.334614574909
    y: 1.03386199474
    z: 2.37797498703
  orientation: 
    x: 0.0687344213482
    y: 0.0176901255039
    z: -0.994951001168
    w: 0.0709594035305
---
header: 
  seq: 17870
  stamp: 
    secs: 1723513907
    nsecs: 733591360
  frame_id: "map"
pose: 
  position: 
    x: -0.334380120039
    y: 1.03360760212
    z: 2.37745714188
  orientation: 
    x: 0.0687250858212
    y: 0.0177012628086
    z: -0.994945395638
    w: 0.0710451723672
---
header: 
  seq: 17871
  stamp: 
    secs: 1723513907
    nsecs: 764591360
  frame_id: "map"
pose: 
  position: 
    x: -0.334132283926
    y: 1.03347122669
    z: 2.37704873085
  orientation: 
    x: 0.0687136771962
    y: 0.017720163036
    z: -0.994933973842
    w: 0.0712113573909
---
header: 
  seq: 17872
  stamp: 
    secs: 1723513907
    nsecs: 804595712
  frame_id: "map"
pose: 
  position: 
    x: -0.333773642778
    y: 1.03324258327
    z: 2.3765630722
  orientation: 
    x: 0.0687049080175
    y: 0.0177330678742
    z: -0.994922046283
    w: 0.0713816728057
---
header: 
  seq: 17873
  stamp: 
    secs: 1723513907
    nsecs: 834595712
  frame_id: "map"
pose: 
  position: 
    x: -0.333685934544
    y: 1.0328527689
    z: 2.3761548996
  orientation: 
    x: 0.0687019788115
    y: 0.0177350698495
    z: -0.994917030808
    w: 0.0714542918257
---
header: 
  seq: 17874
  stamp: 
    secs: 1723513907
    nsecs: 864595712
  frame_id: "map"
pose: 
  position: 
    x: -0.333472579718
    y: 1.0325397253
    z: 2.37578821182
  orientation: 
    x: 0.0686967973834
    y: 0.01774658911
    z: -0.994904892516
    w: 0.0716249865621
---
header: 
  seq: 17875
  stamp: 
    secs: 1723513907
    nsecs: 894600832
  frame_id: "map"
pose: 
  position: 
    x: -0.333142876625
    y: 1.03229236603
    z: 2.37543416023
  orientation: 
    x: 0.0686905306738
    y: 0.0177605107409
    z: -0.994893217839
    w: 0.0717899071804
---
header: 
  seq: 17876
  stamp: 
    secs: 1723513907
    nsecs: 934600832
  frame_id: "map"
pose: 
  position: 
    x: -0.333168685436
    y: 1.03185129166
    z: 2.37456512451
  orientation: 
    x: 0.0686910232651
    y: 0.017777261479
    z: -0.994881332428
    w: 0.0719485479182
---
header: 
  seq: 17877
  stamp: 
    secs: 1723513907
    nsecs: 964600832
  frame_id: "map"
pose: 
  position: 
    x: -0.333037793636
    y: 1.03159248829
    z: 2.37389588356
  orientation: 
    x: 0.0686856258343
    y: 0.0177924053685
    z: -0.994873998876
    w: 0.0720519762844
---
header: 
  seq: 17878
  stamp: 
    secs: 1723513907
    nsecs: 994604928
  frame_id: "map"
pose: 
  position: 
    x: -0.332776725292
    y: 1.03139984608
    z: 2.37333703041
  orientation: 
    x: 0.0686779603762
    y: 0.0178095485992
    z: -0.994864010073
    w: 0.0721931260801
---
header: 
  seq: 17879
  stamp: 
    secs: 1723513908
    nsecs:  34604928
  frame_id: "map"
pose: 
  position: 
    x: -0.33257189393
    y: 1.03097069263
    z: 2.37247753143
  orientation: 
    x: 0.0686744411144
    y: 0.0178198482353
    z: -0.994856212906
    w: 0.072300811278
---
header: 
  seq: 17880
  stamp: 
