header: 
  seq: 20028
  stamp: 
    secs: 1723856119
    nsecs: 816971392
  frame_id: "map"
pose: 
  position: 
    x: -0.78908854723
    y: -0.988301277161
    z: -2.08515167236
  orientation: 
    x: 0.00277024518108
    y: 0.0264969083807
    z: -0.534053349024
    w: 0.845030899409
---
header: 
  seq: 20029
  stamp: 
    secs: 1723856119
    nsecs: 856971392
  frame_id: "map"
pose: 
  position: 
    x: -0.788850009441
    y: -0.988250553608
    z: -2.08658981323
  orientation: 
    x: 0.0027729886775
    y: 0.0265029129895
    z: -0.534021559764
    w: 0.845050803258
---
header: 
  seq: 20030
  stamp: 
    secs: 1723856119
    nsecs: 886971392
  frame_id: "map"
pose: 
  position: 
    x: -0.788765490055
    y: -0.988195955753
    z: -2.08752894402
  orientation: 
    x: 0.00277369858848
    y: 0.0264982412748
    z: -0.533971268037
    w: 0.845082718959
---
header: 
  seq: 20031
  stamp: 
    secs: 1723856119
    nsecs: 917974976
  frame_id: "map"
pose: 
  position: 
    x: -0.788650333881
    y: -0.98818641901
    z: -2.08831644058
  orientation: 
    x: 0.00274996201024
    y: 0.0265023716659
    z: -0.533914285497
    w: 0.845118712368
---
header: 
  seq: 20032
  stamp: 
    secs: 1723856119
    nsecs: 957974976
  frame_id: "map"
pose: 
  position: 
    x: -0.788338124752
    y: -0.988303482533
    z: -2.08895564079
  orientation: 
    x: 0.00273556095893
    y: 0.0265155609953
    z: -0.533889661201
    w: 0.84513389577
---
header: 
  seq: 20033
  stamp: 
    secs: 1723856119
    nsecs: 987974976
  frame_id: "map"
pose: 
  position: 
    x: -0.788198232651
    y: -0.98838031292
    z: -2.08949136734
  orientation: 
    x: 0.00272237689788
    y: 0.0265297644833
    z: -0.53382919101
    w: 0.845171690956
---
header: 
  seq: 20034
  stamp: 
    secs: 1723856120
    nsecs:  17978560
  frame_id: "map"
pose: 
  position: 
    x: -0.788071036339
    y: -0.988401651382
    z: -2.08952212334
  orientation: 
    x: 0.00272303807657
    y: 0.0265275965548
    z: -0.53377570666
    w: 0.845205619169
---
header: 
  seq: 20035
  stamp: 
    secs: 1723856120
    nsecs:  47978560
  frame_id: "map"
pose: 
  position: 
    x: -0.787889540195
    y: -0.988326728344
    z: -2.08913350105
  orientation: 
    x: 0.00272804433192
    y: 0.0265244948101
    z: -0.53375423284
    w: 0.845219253675
---
header: 
  seq: 20036
  stamp: 
    secs: 1723856120
    nsecs:  87978560
  frame_id: "map"
pose: 
  position: 
    x: -0.78777885437
    y: -0.988212943077
    z: -2.08842611313
  orientation: 
    x: 0.00271877070816
    y: 0.0265269669862
    z: -0.533700095213
    w: 0.845253329402
---
header: 
  seq: 20037
  stamp: 
    secs: 1723856120
    nsecs: 118982144
  frame_id: "map"
pose: 
  position: 
    x: -0.787735760212
    y: -0.988089382648
    z: -2.08815336227
  orientation: 
    x: 0.00270780067375
    y: 0.0265312304034
    z: -0.533658591104
    w: 0.845279407764
---
header: 
  seq: 20038
  stamp: 
    secs: 1723856120
    nsecs: 147982144
  frame_id: "map"
pose: 
  position: 
    x: -0.787676334381
    y: -0.987905502319
    z: -2.08828830719
  orientation: 
    x: 0.0026966660032
    y: 0.0265411612545
    z: -0.533622081397
    w: 0.845302177599
---
header: 
  seq: 20039
  stamp: 
    secs: 1723856120
    nsecs: 187982144
  frame_id: "map"
pose: 
  position: 
    x: -0.787706077099
    y: -0.987660825253
    z: -2.08853673935
  orientation: 
    x: 0.00268089517933
    y: 0.0265487002721
    z: -0.533578501555
    w: 0.845329488757
---
header: 
  seq: 20040
  stamp: 
    secs: 1723856120
    nsecs: 217985472
  frame_id: "map"
pose: 
  position: 
    x: -0.787806093693
    y: -0.987474441528
    z: -2.0887696743
  orientation: 
    x: 0.00267197058415
    y: 0.026553908042
    z: -0.533517093597
    w: 0.845368137417
---
header: 
  seq: 20041
  stamp: 
    secs: 1723856120
    nsecs: 247985472
  frame_id: "map"
pose: 
  position: 
    x: -0.787625551224
    y: -0.987369656563
    z: -2.08964157104
  orientation: 
    x: 0.00266799956077
    y: 0.0265552211798
    z: -0.533497716583
    w: 0.84538043376
---
header: 
  seq: 20042
  stamp: 
    secs: 1723856120
    nsecs: 288985472
  frame_id: "map"
pose: 
  position: 
    x: -0.787525713444
    y: -0.987220525742
    z: -2.09080862999
  orientation: 
    x: 0.00265705718523
    y: 0.0265568754436
    z: -0.533435539445
    w: 0.845419598719
---
header: 
  seq: 20043
  stamp: 
    secs: 1723856120
    nsecs: 318987776
  frame_id: "map"
pose: 
  position: 
    x: -0.787393808365
    y: -0.987130343914
    z: -2.09170365334
  orientation: 
    x: 0.00265284381747
    y: 0.0265514266463
    z: -0.53337879925
    w: 0.845455602665
---
header: 
  seq: 20044
  stamp: 
    secs: 1723856120
    nsecs: 348987776
  frame_id: "map"
pose: 
  position: 
    x: -0.787048101425
    y: -0.987086594105
    z: -2.09260511398
  orientation: 
    x: 0.00265372890128
    y: 0.0265506363929
    z: -0.533360444298
    w: 0.845467214121
---
header: 
  seq: 20045
  stamp: 
    secs: 1723856120
    nsecs: 388987776
  frame_id: "map"
pose: 
  position: 
    x: -0.786725223064
    y: -0.987019717693
    z: -2.09375286102
  orientation: 
    x: 0.00264991592858
    y: 0.0265590302012
    z: -0.533294358039
    w: 0.84550868662
---
header: 
  seq: 20046
  stamp: 
    secs: 1723856120
    nsecs: 418991104
  frame_id: "map"
pose: 
  position: 
    x: -0.786532282829
    y: -0.986965835094
    z: -2.09463334084
  orientation: 
    x: 0.00264100318721
    y: 0.026586887951
    z: -0.533242127557
    w: 0.845540686615
---
header: 
  seq: 20047
  stamp: 
    secs: 1723856120
    nsecs: 448991104
  frame_id: "map"
pose: 
  position: 
    x: -0.786340594292
    y: -0.986891746521
    z: -2.09534454346
  orientation: 
    x: 0.00262286818855
    y: 0.0265873686885
    z: -0.533191888514
    w: 0.845572465339
---
header: 
  seq: 20048
  stamp: 
    secs: 1723856120
    nsecs: 488991104
  frame_id: "map"
pose: 
  position: 
    x: -0.786214709282
    y: -0.98674094677
    z: -2.09567523003
  orientation: 
    x: 0.0026094325635
    y: 0.026547722992
    z: -0.533152681408
    w: 0.845598354041
---
header: 
  seq: 20049
  stamp: 
    secs: 1723856120
    nsecs: 518996480
  frame_id: "map"
pose: 
  position: 
    x: -0.786119818687
    y: -0.986667156219
    z: -2.09599208832
  orientation: 
    x: 0.00266332389477
    y: 0.026481111215
    z: -0.533095403841
    w: 0.845636412645
---
header: 
  seq: 20050
  stamp: 
    secs: 1723856120
    nsecs: 548996480
  frame_id: "map"
pose: 
  position: 
    x: -0.785993933678
    y: -0.986641585827
    z: -2.09623193741
  orientation: 
    x: 0.00268342003897
    y: 0.0264934418024
    z: -0.533074720275
    w: 0.845649088309
---
header: 
  seq: 20051
  stamp: 
    secs: 1723856120
    nsecs: 588996480
  frame_id: "map"
pose: 
  position: 
    x: -0.786008059978
    y: -0.986558735371
    z: -2.09638905525
  orientation: 
    x: 0.00265712303968
    y: 0.0265377565794
    z: -0.533000278404
    w: 0.845694617443
---
header: 
  seq: 20052
  stamp: 
    secs: 1723856120
    nsecs: 619000064
  frame_id: "map"
pose: 
  position: 
    x: -0.786142766476
    y: -0.986434936523
    z: -2.09651827812
  orientation: 
    x: 0.00261423071878
    y: 0.0265264717608
    z: -0.532944265242
    w: 0.845730484411
---
header: 
  seq: 20053
  stamp: 
    secs: 1723856120
    nsecs: 649000064
  frame_id: "map"
pose: 
  position: 
    x: -0.78614628315
    y: -0.986293077469
    z: -2.09591364861
  orientation: 
    x: 0.00264501899162
    y: 0.0264600535959
    z: -0.532918798009
    w: 0.845748533798
---
header: 
  seq: 20054
  stamp: 
    secs: 1723856120
    nsecs: 689000064
  frame_id: "map"
pose: 
  position: 
    x: -0.786169409752
    y: -0.986204087734
    z: -2.09544467926
  orientation: 
    x: 0.00272149049698
    y: 0.026382391442
    z: -0.532882867821
    w: 0.845773252925
---
header: 
  seq: 20055
  stamp: 
    secs: 1723856120
    nsecs: 720003904
  frame_id: "map"
pose: 
  position: 
    x: -0.786051273346
    y: -0.986187815666
    z: -2.09518313408
  orientation: 
    x: 0.00275428469639
    y: 0.0264877519779
    z: -0.532832354823
    w: 0.845801765268
---
header: 
  seq: 20056
  stamp: 
    secs: 1723856120
    nsecs: 749003904
  frame_id: "map"
pose: 
  position: 
    x: -0.785682737827
    y: -0.986063361168
    z: -2.09523439407
  orientation: 
    x: 0.00270632026569
    y: 0.026585852719
    z: -0.532804021604
    w: 0.845816695789
---
header: 
  seq: 20057
  stamp: 
    secs: 1723856120
    nsecs: 790003904
  frame_id: "map"
pose: 
  position: 
    x: -0.785410940647
    y: -0.985780835152
    z: -2.09527540207
  orientation: 
    x: 0.002552475049
    y: 0.0267147812457
    z: -0.532764909328
    w: 0.84583768492
---
header: 
  seq: 20058
  stamp: 
    secs: 1723856120
    nsecs: 820008512
  frame_id: "map"
pose: 
  position: 
    x: -0.785393059254
    y: -0.985625565052
    z: -2.09531497955
  orientation: 
    x: 0.00249509211476
    y: 0.0267164381437
    z: -0.532704428601
    w: 0.845875912111
---
header: 
  seq: 20059
  stamp: 
    secs: 1723856120
    nsecs: 850008512
  frame_id: "map"
pose: 
  position: 
    x: -0.785442769527
    y: -0.985530078411
    z: -2.09538698196
  orientation: 
    x: 0.0025331586215
    y: 0.0266786666649
    z: -0.532680889586
    w: 0.845891864694
---
header: 
  seq: 20060
  stamp: 
    secs: 1723856120
    nsecs: 880008512
  frame_id: "map"
pose: 
  position: 
    x: -0.785537660122
    y: -0.985393822193
    z: -2.09547781944
  orientation: 
    x: 0.00269974667441
    y: 0.0265051480896
    z: -0.5326332215
    w: 0.845926720137
---
header: 
  seq: 20061
  stamp: 
    secs: 1723856120
    nsecs: 920012352
  frame_id: "map"
pose: 
  position: 
    x: -0.785956680775
    y: -0.985115170479
    z: -2.09564638138
  orientation: 
    x: 0.00273793040207
    y: 0.0264899449311
    z: -0.532542774363
    w: 0.845984039851
---
header: 
  seq: 20062
  stamp: 
    secs: 1723856120
    nsecs: 950012352
  frame_id: "map"
pose: 
  position: 
    x: -0.786572277546
    y: -0.984683394432
    z: -2.09577679634
  orientation: 
    x: 0.00253525806139
    y: 0.0263349670178
    z: -0.532472547177
    w: 0.846033783669
---
header: 
  seq: 20063
  stamp: 
    secs: 1723856120
    nsecs: 990012352
  frame_id: "map"
pose: 
  position: 
    x: -0.786881566048
    y: -0.984522104263
    z: -2.09568595886
  orientation: 
    x: 0.0025577750152
    y: 0.0260671369664
    z: -0.532449102992
    w: 0.846056806385
---
header: 
  seq: 20064
  stamp: 
    secs: 1723856121
    nsecs:  20016192
  frame_id: "map"
pose: 
  position: 
    x: -0.78713041544
    y: -0.984557509422
    z: -2.09559607506
  orientation: 
    x: 0.00275510129158
    y: 0.0260233516592
    z: -0.53234191302
    w: 0.846124968376
---
header: 
  seq: 20065
  stamp: 
    secs: 1723856121
    nsecs:  50016192
  frame_id: "map"
pose: 
  position: 
    x: -0.787162959576
    y: -0.984343528748
    z: -2.09551334381
  orientation: 
    x: 0.00283629719523
    y: 0.0259091600415
    z: -0.532335485626
    w: 0.846132238707
---
header: 
  seq: 20066
  stamp: 
    secs: 1723856121
    nsecs:  90016192
  frame_id: "map"
pose: 
  position: 
    x: -0.786956131458
    y: -0.984093308449
    z: -2.09555721283
  orientation: 
    x: 0.00270391394406
    y: 0.0259764079725
    z: -0.532481661433
    w: 0.84603849358
---
header: 
  seq: 20067
  stamp: 
    secs: 1723856121
    nsecs: 120020032
  frame_id: "map"
pose: 
  position: 
    x: -0.78702133894
    y: -0.98416185379
    z: -2.09595775604
  orientation: 
    x: 0.00222321464881
    y: 0.0266461227124
    z: -0.532360910712
    w: 0.846095096797
---
header: 
  seq: 20068
  stamp: 
    secs: 1723856121
    nsecs: 150020032
  frame_id: "map"
pose: 
  position: 
    x: -0.787317097187
    y: -0.983998119831
    z: -2.09676551819
  orientation: 
    x: 0.00203250542766
    y: 0.0269664730054
    z: -0.532300071736
    w: 0.846123819874
---
header: 
  seq: 20069
  stamp: 
    secs: 1723856121
    nsecs: 190020032
  frame_id: "map"
pose: 
  position: 
    x: -0.788223206997
    y: -0.983288109303
    z: -2.09788656235
  orientation: 
    x: 0.00204352814563
    y: 0.0267339791352
    z: -0.532304233737
    w: 0.846128508711
---
header: 
  seq: 20070
  stamp: 
    secs: 1723856121
    nsecs: 221023616
  frame_id: "map"
pose: 
  position: 
    x: -0.789151787758
    y: -0.982855618
    z: -2.0985159874
  orientation: 
    x: 0.00241274244112
    y: 0.0259527793955
    z: -0.53216735131
    w: 0.846237911393
---
header: 
  seq: 20071
  stamp: 
    secs: 1723856121
    nsecs: 251023616
  frame_id: "map"
pose: 
  position: 
    x: -0.789945483208
    y: -0.982633054256
    z: -2.09866642952
  orientation: 
    x: 0.00261579015218
    y: 0.02569962435
    z: -0.53208531247
    w: 0.846296685174
---
header: 
  seq: 20072
  stamp: 
    secs: 1723856121
    nsecs: 281023616
  frame_id: "map"
pose: 
  position: 
    x: -0.790687203407
    y: -0.982453107834
    z: -2.09904265404
  orientation: 
    x: 0.00276106375355
    y: 0.0252312319345
    z: -0.531969682591
    w: 0.846382980846
---
header: 
  seq: 20073
  stamp: 
    secs: 1723856121
    nsecs: 321032576
  frame_id: "map"
pose: 
  position: 
    x: -0.790830671787
    y: -0.982374668121
    z: -2.09981751442
  orientation: 
    x: 0.00279045591203
    y: 0.0251655645103
    z: -0.531882248953
    w: 0.846439731577
---
header: 
  seq: 20074
  stamp: 
    secs: 1723856121
    nsecs: 351032576
  frame_id: "map"
pose: 
  position: 
    x: -0.789975762367
    y: -0.982466161251
    z: -2.10054826736
  orientation: 
    x: 0.00282750299187
    y: 0.0252944074262
    z: -0.531914101434
    w: 0.846415802704
---
header: 
  seq: 20075
  stamp: 
    secs: 1723856121
    nsecs: 391032576
  frame_id: "map"
pose: 
  position: 
    x: -0.7890188694
    y: -0.982521593571
    z: -2.10135698318
  orientation: 
    x: 0.00260062914052
    y: 0.0259901333571
    z: -0.531982242352
    w: 0.846352635115
---
header: 
  seq: 20076
  stamp: 
    secs: 1723856121
    nsecs: 421036160
  frame_id: "map"
pose: 
  position: 
    x: -0.788770914078
    y: -0.982443392277
    z: -2.10201191902
  orientation: 
    x: 0.00196534310747
    y: 0.0266493877761
    z: -0.531967406661
    w: 0.846343194221
---
header: 
  seq: 20077
  stamp: 
    secs: 1723856121
    nsecs: 451036160
  frame_id: "map"
pose: 
  position: 
    x: -0.788950562477
    y: -0.982338964939
    z: -2.102840662
  orientation: 
    x: 0.00180570138202
    y: 0.0268269919615
    z: -0.531952033598
    w: 0.84634752481
---
header: 
  seq: 20078
  stamp: 
    secs: 1723856121
    nsecs: 481036160
  frame_id: "map"
pose: 
  position: 
    x: -0.789424538612
    y: -0.982208430767
    z: -2.1035733223
  orientation: 
    x: 0.00199251201969
    y: 0.026614985411
    z: -0.531917399425
    w: 0.846375584074
---
header: 
  seq: 20079
  stamp: 
    secs: 1723856121
    nsecs: 521039488
  frame_id: "map"
pose: 
  position: 
    x: -0.790137946606
    y: -0.982149541378
    z: -2.1044523716
  orientation: 
    x: 0.00252665747011
    y: 0.0261113937915
    z: -0.531813138659
    w: 0.846455399668
---
header: 
  seq: 20080
  stamp: 
    secs: 1723856121
    nsecs: 551039488
  frame_id: "map"
pose: 
  position: 
    x: -0.78997606039
    y: -0.982125401497
    z: -2.10512447357
  orientation: 
    x: 0.00267867720142
    y: 0.0258818159564
    z: -0.531784742219
    w: 0.84647975001
---
header: 
  seq: 20081
  stamp: 
    secs: 1723856121
    nsecs: 581039488
  frame_id: "map"
pose: 
  position: 
    x: -0.789421081543
    y: -0.982128381729
    z: -2.10566592216
  orientation: 
    x: 0.0026427430618
    y: 0.0257384837443
    z: -0.531827057655
    w: 0.846457665061
---
header: 
  seq: 20082
  stamp: 
    secs: 1723856121
    nsecs: 622043328
  frame_id: "map"
pose: 
  position: 
    x: -0.78814047575
    y: -0.982486128807
    z: -2.10633611679
  orientation: 
    x: 0.0022833147377
    y: 0.026443395054
    z: -0.531846266082
    w: 0.84642488535
---
header: 
  seq: 20083
  stamp: 
    secs: 1723856121
    nsecs: 651043328
  frame_id: "map"
pose: 
  position: 
    x: -0.786961615086
    y: -0.982649803162
    z: -2.10694932938
  orientation: 
    x: 0.00201634737961
    y: 0.0268908404858
    z: -0.531844232496
    w: 0.846412841888
---
header: 
  seq: 20084
  stamp: 
    secs: 1723856121
    nsecs: 681043328
  frame_id: "map"
pose: 
  position: 
    x: -0.786101400852
    y: -0.982609987259
    z: -2.10753130913
  orientation: 
    x: 0.00153499349112
    y: 0.0274497709173
    z: -0.531914059287
    w: 0.846352034522
---
header: 
  seq: 20085
  stamp: 
    secs: 1723856121
    nsecs: 722046912
  frame_id: "map"
pose: 
  position: 
    x: -0.785906374454
    y: -0.982577085495
    z: -2.10809898376
  orientation: 
    x: 0.00136433168188
    y: 0.0275899026031
    z: -0.531911140618
    w: 0.846349474101
---
header: 
  seq: 20086
  stamp: 
    secs: 1723856121
    nsecs: 752046912
  frame_id: "map"
pose: 
  position: 
    x: -0.786358296871
    y: -0.982525110245
    z: -2.10812401772
  orientation: 
    x: 0.00146615978497
    y: 0.0274846316294
    z: -0.531849595683
    w: 0.846391462899
---
header: 
  seq: 20087
  stamp: 
    secs: 1723856121
    nsecs: 782046912
  frame_id: "map"
pose: 
  position: 
    x: -0.786928713322
    y: -0.982272028923
    z: -2.10816407204
  orientation: 
    x: 0.00192968555654
    y: 0.0268652731538
    z: -0.531746356977
    w: 0.846475314054
---
header: 
  seq: 20088
  stamp: 
    secs: 1723856121
    nsecs: 822050496
  frame_id: "map"
pose: 
  position: 
    x: -0.787292957306
    y: -0.981890082359
    z: -2.1085050106
  orientation: 
    x: 0.00226009314126
    y: 0.0262445712474
    z: -0.531682736309
    w: 0.8465338771
---
header: 
  seq: 20089
  stamp: 
    secs: 1723856121
    nsecs: 852050496
  frame_id: "map"
pose: 
  position: 
    x: -0.786750614643
    y: -0.981898665428
    z: -2.10912370682
  orientation: 
    x: 0.00224231639081
    y: 0.0262173773105
    z: -0.531646089625
    w: 0.846557795437
---
header: 
  seq: 20090
  stamp: 
    secs: 1723856121
    nsecs: 882050496
  frame_id: "map"
pose: 
  position: 
    x: -0.786025285721
    y: -0.982102096081
    z: -2.10962176323
  orientation: 
    x: 0.00196814192163
    y: 0.026657036112
    z: -0.531564714597
    w: 0.846595843504
---
header: 
  seq: 20091
  stamp: 
    secs: 1723856121
    nsecs: 922054336
  frame_id: "map"
pose: 
  position: 
    x: -0.78523337841
    y: -0.982409119606
    z: -2.11075687408
  orientation: 
    x: 0.0017970099116
    y: 0.0271958598626
    z: -0.531499460739
    w: 0.846620046332
---
header: 
  seq: 20092
  stamp: 
    secs: 1723856121
    nsecs: 952054336
  frame_id: "map"
pose: 
  position: 
    x: -0.785006701946
    y: -0.982387065887
    z: -2.11182665825
  orientation: 
    x: 0.00179285712994
    y: 0.0272699369001
    z: -0.531493423203
    w: 0.846621447715
---
header: 
  seq: 20093
  stamp: 
    secs: 1723856121
    nsecs: 982054336
  frame_id: "map"
pose: 
  position: 
    x: -0.785048604012
    y: -0.98223233223
    z: -2.11287379265
  orientation: 
    x: 0.00185575076463
    y: 0.0270597163223
    z: -0.531495035319
    w: 0.846627084856
---
header: 
  seq: 20094
  stamp: 
    secs: 1723856122
    nsecs:  22058688
  frame_id: "map"
pose: 
  position: 
    x: -0.785180032253
    y: -0.982208490372
    z: -2.11417770386
  orientation: 
    x: 0.00195940962145
    y: 0.0269115951745
    z: -0.531440571054
    w: 0.846665786199
---
header: 
  seq: 20095
  stamp: 
    secs: 1723856122
    nsecs:  52058688
  frame_id: "map"
pose: 
  position: 
    x: -0.784984350204
    y: -0.982255399227
    z: -2.11503124237
  orientation: 
    x: 0.00199795818277
    y: 0.0269183070601
    z: -0.531403871686
    w: 0.846688492814
---
header: 
  seq: 20096
  stamp: 
    secs: 1723856122
    nsecs:  82058688
  frame_id: "map"
pose: 
  position: 
    x: -0.784752964973
    y: -0.982171952724
    z: -2.11581468582
  orientation: 
    x: 0.00191775799841
    y: 0.0269270446286
    z: -0.531396453841
    w: 0.846693044674
---
header: 
  seq: 20097
  stamp: 
    secs: 1723856122
    nsecs: 123062016
  frame_id: "map"
pose: 
  position: 
    x: -0.784555792809
    y: -0.982161879539
    z: -2.11691808701
  orientation: 
    x: 0.0016937448644
    y: 0.0270958664645
    z: -0.531348522337
    w: 0.846718216879
---
header: 
  seq: 20098
  stamp: 
    secs: 1723856122
    nsecs: 153062016
  frame_id: "map"
pose: 
  position: 
    x: -0.784323394299
    y: -0.982209503651
    z: -2.11802554131
  orientation: 
    x: 0.0016250718431
    y: 0.0271917847892
    z: -0.531292899034
    w: 0.846750237947
---
header: 
  seq: 20099
  stamp: 
    secs: 1723856122
    nsecs: 183062016
  frame_id: "map"
pose: 
  position: 
    x: -0.784172594547
    y: -0.982092261314
    z: -2.11943101883
  orientation: 
    x: 0.00174683408845
    y: 0.0270519204724
    z: -0.531249414023
    w: 0.846781753253
---
header: 
  seq: 20100
  stamp: 
    secs: 1723856122
    nsecs: 223065856
  frame_id: "map"
pose: 
  position: 
    x: -0.784435331821
    y: -0.982020199299
    z: -2.12130117416
  orientation: 
    x: 0.0019229986956
    y: 0.026735559642
    z: -0.531154362343
    w: 0.846851011062
---
header: 
  seq: 20101
  stamp: 
    secs: 1723856122
    nsecs: 253065856
  frame_id: "map"
pose: 
  position: 
    x: -0.784655094147
    y: -0.982128739357
    z: -2.12245368958
  orientation: 
    x: 0.00199497892741
    y: 0.0266663321263
    z: -0.531054379482
    w: 0.846915674864
---
header: 
  seq: 20102
  stamp: 
    secs: 1723856122
    nsecs: 283065856
  frame_id: "map"
pose: 
  position: 
    x: -0.784679174423
    y: -0.982029020786
    z: -2.12356424332
  orientation: 
    x: 0.00212866873089
    y: 0.0264120522867
    z: -0.530986449298
    w: 0.846965903371
---
header: 
  seq: 20103
  stamp: 
    secs: 1723856122
    nsecs: 323068416
  frame_id: "map"
pose: 
  position: 
    x: -0.784294784069
    y: -0.981930911541
    z: -2.12475967407
  orientation: 
    x: 0.00215695321751
    y: 0.0262432238653
    z: -0.530979800633
    w: 0.846975333728
---
header: 
  seq: 20104
  stamp: 
    secs: 1723856122
    nsecs: 353068416
  frame_id: "map"
pose: 
  position: 
    x: -0.783585071564
    y: -0.982137203217
    z: -2.12510466576
  orientation: 
    x: 0.00210016692459
    y: 0.0263829841321
    z: -0.530961234946
    w: 0.846982772647
---
header: 
  seq: 20105
  stamp: 
    secs: 1723856122
    nsecs: 383068416
  frame_id: "map"
pose: 
  position: 
    x: -0.782850503922
    y: -0.982233643532
    z: -2.12545609474
  orientation: 
    x: 0.00189990090553
    y: 0.0267741095204
    z: -0.530972298494
    w: 0.846964038373
---
header: 
  seq: 20106
  stamp: 
    secs: 1723856122
    nsecs: 413072512
  frame_id: "map"
pose: 
  position: 
    x: -0.782270014286
    y: -0.982179403305
    z: -2.12557435036
  orientation: 
    x: 0.00156525229418
    y: 0.0270796162202
    z: -0.53099602717
    w: 0.84694014111
---
header: 
  seq: 20107
  stamp: 
    secs: 1723856122
    nsecs: 453072512
  frame_id: "map"
pose: 
  position: 
    x: -0.782075047493
    y: -0.982364356518
    z: -2.12586188316
  orientation: 
    x: 0.00148960923781
    y: 0.0271392908894
    z: -0.530965186213
    w: 0.846957579368
---
header: 
  seq: 20108
  stamp: 
    secs: 1723856122
    nsecs: 483072512
  frame_id: "map"
pose: 
  position: 
    x: -0.78237760067
    y: -0.982423245907
    z: -2.12617182732
  orientation: 
    x: 0.0015819529829
    y: 0.0270040390183
    z: -0.530861726237
    w: 0.847026647516
---
header: 
  seq: 20109
  stamp: 
    secs: 1723856122
    nsecs: 524075840
  frame_id: "map"
pose: 
  position: 
    x: -0.782758235931
    y: -0.982289850712
    z: -2.12667822838
  orientation: 
    x: 0.00192267469171
    y: 0.0263330124577
    z: -0.530795966617
    w: 0.847088361039
---
header: 
  seq: 20110
  stamp: 
    secs: 1723856122
    nsecs: 554075840
  frame_id: "map"
pose: 
  position: 
    x: -0.782491803169
    y: -0.98245626688
    z: -2.12754201889
  orientation: 
    x: 0.00212869770685
    y: 0.0260959561912
    z: -0.530789844787
    w: 0.847099034729
---
header: 
  seq: 20111
  stamp: 
    secs: 1723856122
    nsecs: 584075840
  frame_id: "map"
pose: 
  position: 
    x: -0.782080709934
    y: -0.982869982719
    z: -2.12833762169
  orientation: 
    x: 0.0022898501334
    y: 0.0262979173038
    z: -0.530726150362
    w: 0.847132214835
---
header: 
  seq: 20112
  stamp: 
    secs: 1723856122
    nsecs: 614079680
  frame_id: "map"
pose: 
  position: 
    x: -0.781510174274
    y: -0.982956647873
    z: -2.1292746067
  orientation: 
    x: 0.00188284328568
    y: 0.026911825665
    z: -0.5307149393
    w: 0.84712091948
---
header: 
  seq: 20113
  stamp: 
    secs: 1723856122
    nsecs: 654079680
  frame_id: "map"
pose: 
  position: 
    x: -0.780434131622
    y: -0.982818186283
    z: -2.13076472282
  orientation: 
    x: 0.00167233558244
    y: 0.0270173165927
    z: -0.530756190528
    w: 0.847092228013
---
header: 
  seq: 20114
  stamp: 
    secs: 1723856122
    nsecs: 684079680
  frame_id: "map"
pose: 
  position: 
    x: -0.780095279217
    y: -0.982897222042
    z: -2.13190841675
  orientation: 
    x: 0.00120034883104
    y: 0.0272298605155
    z: -0.530749489179
    w: 0.847090415698
---
header: 
  seq: 20115
  stamp: 
    secs: 1723856122
    nsecs: 724083520
  frame_id: "map"
pose: 
  position: 
    x: -0.780154407024
    y: -0.983168840408
    z: -2.13276410103
  orientation: 
    x: 0.00124513249176
    y: 0.0272482154681
    z: -0.530646956434
    w: 0.847153920462
---
header: 
  seq: 20116
  stamp: 
    secs: 1723856122
    nsecs: 754083520
  frame_id: "map"
pose: 
  position: 
    x: -0.780461728573
    y: -0.983145058155
    z: -2.13302993774
  orientation: 
    x: 0.00145039027818
    y: 0.0269761970736
    z: -0.530647420049
    w: 0.847162054804
---
header: 
  seq: 20117
  stamp: 
    secs: 1723856122
    nsecs: 784083520
  frame_id: "map"
pose: 
  position: 
    x: -0.781013846397
    y: -0.983137190342
    z: -2.13316655159
  orientation: 
    x: 0.0016213550179
    y: 0.0265092929687
    z: -0.530592197141
    w: 0.847211124272
---
header: 
  seq: 20118
  stamp: 
    secs: 1723856122
    nsecs: 814087104
  frame_id: "map"
pose: 
  position: 
    x: -0.781365156174
    y: -0.983253657818
    z: -2.13325119019
  orientation: 
    x: 0.00164439749023
    y: 0.0263308234558
    z: -0.530418731249
    w: 0.847325163108
---
header: 
  seq: 20119
  stamp: 
    secs: 1723856122
    nsecs: 854087104
  frame_id: "map"
pose: 
  position: 
    x: -0.78087335825
    y: -0.983465194702
    z: -2.13343787193
  orientation: 
    x: 0.00166535369357
    y: 0.0263172903661
    z: -0.530406729934
    w: 0.847333034032
---
header: 
  seq: 20120
  stamp: 
    secs: 1723856122
    nsecs: 884087104
  frame_id: "map"
pose: 
  position: 
    x: -0.780208349228
    y: -0.983727097511
    z: -2.13343071938
  orientation: 
    x: 0.00171765003003
    y: 0.0264959745646
    z: -0.530418077973
    w: 0.847320337293
---
header: 
  seq: 20121
  stamp: 
    secs: 1723856122
    nsecs: 914090432
  frame_id: "map"
pose: 
  position: 
    x: -0.779543995857
    y: -0.983946561813
    z: -2.13336348534
  orientation: 
    x: 0.00154046994725
    y: 0.0270428483633
    z: -0.530424421074
    w: 0.847299495677
---
header: 
  seq: 20122
  stamp: 
    secs: 1723856122
    nsecs: 954090432
  frame_id: "map"
pose: 
  position: 
    x: -0.779085755348
    y: -0.98397487402
    z: -2.13339018822
  orientation: 
    x: 0.00139426252977
    y: 0.0272181581796
    z: -0.530434884029
    w: 0.847287515435
---
header: 
  seq: 20123
  stamp: 
    secs: 1723856122
    nsecs: 985090432
  frame_id: "map"
pose: 
  position: 
    x: -0.779408633709
    y: -0.983868062496
    z: -2.13392949104
  orientation: 
    x: 0.00104272225178
    y: 0.0274372651571
    z: -0.53038950241
    w: 0.847309379113
---
header: 
  seq: 20124
  stamp: 
    secs: 1723856123
    nsecs:  25094016
  frame_id: "map"
pose: 
  position: 
    x: -0.780253767967
    y: -0.983691990376
    z: -2.13459897041
  orientation: 
    x: 0.00116731228725
    y: 0.0271101094651
    z: -0.530308475093
    w: 0.847370428823
---
header: 
  seq: 20125
  stamp: 
    secs: 1723856123
    nsecs:  55094016
  frame_id: "map"
pose: 
  position: 
    x: -0.78090941906
    y: -0.983588039875
    z: -2.13495826721
  orientation: 
    x: 0.00141490131465
    y: 0.0268119152436
    z: -0.530287549183
    w: 0.847392703432
---
header: 
  seq: 20126
  stamp: 
    secs: 1723856123
    nsecs:  85094016
  frame_id: "map"
pose: 
  position: 
    x: -0.781414210796
    y: -0.98350584507
    z: -2.13533163071
  orientation: 
    x: 0.00184013535725
    y: 0.0263260661303
    z: -0.530249343065
    w: 0.847430993844
---
header: 
  seq: 20127
  stamp: 
    secs: 1723856123
    nsecs: 115097600
  frame_id: "map"
pose: 
  position: 
    x: -0.781729578972
    y: -0.983438134193
    z: -2.13573145866
  orientation: 
    x: 0.00169815316133
    y: 0.0264283407265
    z: -0.530190421771
    w: 0.847464964204
---
header: 
  seq: 20128
  stamp: 
    secs: 1723856123
    nsecs: 155097600
  frame_id: "map"
pose: 
  position: 
    x: -0.781263709068
    y: -0.983553409576
    z: -2.13588905334
  orientation: 
    x: 0.00152482029556
    y: 0.0266132639756
    z: -0.530203856079
    w: 0.847451108428
---
header: 
  seq: 20129
  stamp: 
    secs: 1723856123
    nsecs: 185097600
  frame_id: "map"
pose: 
  position: 
    x: -0.781060993671
    y: -0.983665704727
    z: -2.13607025146
  orientation: 
    x: 0.00117498169659
    y: 0.0271131901363
    z: -0.530180759606
    w: 0.847450265491
---
header: 
  seq: 20130
  stamp: 
    secs: 1723856123
    nsecs: 215101440
  frame_id: "map"
pose: 
  position: 
    x: -0.781136870384
    y: -0.98374068737
    z: -2.13623261452
  orientation: 
    x: 0.00115530438669
    y: 0.0272303768144
    z: -0.530120942691
    w: 0.847483951359
---
header: 
  seq: 20131
  stamp: 
    secs: 1723856123
    nsecs: 255101440
  frame_id: "map"
pose: 
  position: 
    x: -0.781781494617
    y: -0.983790516853
    z: -2.13608551025
  orientation: 
    x: 0.00129264120965
    y: 0.0270966777913
    z: -0.530105495871
    w: 0.847497712305
---
header: 
  seq: 20132
  stamp: 
    secs: 1723856123
    nsecs: 285101440
  frame_id: "map"
pose: 
  position: 
    x: -0.782409310341
    y: -0.98379534483
    z: -2.13595223427
  orientation: 
    x: 0.00163837839343
    y: 0.0266810848403
    z: -0.530050462623
    w: 0.847544737652
---
header: 
  seq: 20133
  stamp: 
    secs: 1723856123
    nsecs: 315106816
  frame_id: "map"
pose: 
  position: 
    x: -0.782774090767
    y: -0.983904957771
    z: -2.13591742516
  orientation: 
    x: 0.0017595387291
    y: 0.0265231619161
    z: -0.529961796191
    w: 0.847604828521
---
header: 
  seq: 20134
  stamp: 
    secs: 1723856123
    nsecs: 355106816
  frame_id: "map"
pose: 
  position: 
    x: -0.782624542713
    y: -0.984221160412
    z: -2.13624763489
  orientation: 
    x: 0.00170814328152
    y: 0.0266046765553
    z: -0.529931587437
    w: 0.847621213108
---
header: 
  seq: 20135
  stamp: 
    secs: 1723856123
    nsecs: 385106816
  frame_id: "map"
pose: 
  position: 
    x: -0.782502830029
    y: -0.98438757658
    z: -2.13665246964
  orientation: 
    x: 0.00149674259192
    y: 0.0268429379582
    z: -0.52988591079
    w: 0.847642697464
---
header: 
  seq: 20136
  stamp: 
    secs: 1723856123
    nsecs: 416110912
  frame_id: "map"
pose: 
  position: 
    x: -0.782463371754
    y: -0.984526216984
    z: -2.13699650764
  orientation: 
    x: 0.00142832903716
    y: 0.0269332388983
    z: -0.529845102104
    w: 0.847665551593
---
header: 
  seq: 20137
  stamp: 
    secs: 1723856123
    nsecs: 456110912
  frame_id: "map"
pose: 
  position: 
    x: -0.782574355602
    y: -0.984547019005
    z: -2.13729572296
  orientation: 
    x: 0.00147820456402
    y: 0.0269074502953
    z: -0.529832868981
    w: 0.847673907206
---
header: 
  seq: 20138
  stamp: 
    secs: 1723856123
    nsecs: 486110912
  frame_id: "map"
pose: 
  position: 
    x: -0.782765090466
    y: -0.984574973583
    z: -2.1375784874
  orientation: 
    x: 0.00164491115495
    y: 0.0268115240681
    z: -0.529770881504
    w: 0.847715327021
---
header: 
  seq: 20139
  stamp: 
    secs: 1723856123
    nsecs: 516117056
  frame_id: "map"
pose: 
  position: 
    x: -0.782858490944
    y: -0.984574377537
    z: -2.13773560524
  orientation: 
    x: 0.0017296091983
    y: 0.0267534338571
    z: -0.52972279195
    w: 0.847747147892
---
header: 
  seq: 20140
  stamp: 
    secs: 1723856123
    nsecs: 546117056
  frame_id: "map"
pose: 
  position: 
    x: -0.782793223858
    y: -0.984617888927
    z: -2.13764214516
  orientation: 
    x: 0.00169591279292
    y: 0.0267764354996
    z: -0.529694869663
    w: 0.847763859117
---
header: 
  seq: 20141
  stamp: 
    secs: 1723856123
    nsecs: 586117056
  frame_id: "map"
pose: 
  position: 
    x: -0.782756209373
    y: -0.984653115273
    z: -2.13757205009
  orientation: 
    x: 0.00158543668335
    y: 0.0268872461498
    z: -0.52964011037
    w: 0.847794847587
---
header: 
  seq: 20142
  stamp: 
    secs: 1723856123
    nsecs: 616131136
  frame_id: "map"
pose: 
  position: 
    x: -0.782742083073
    y: -0.984627187252
    z: -2.13756322861
  orientation: 
    x: 0.00155655160414
    y: 0.0269150248743
    z: -0.529617108727
    w: 0.847808324042
---
header: 
  seq: 20143
  stamp: 
    secs: 1723856123
    nsecs: 656131136
  frame_id: "map"
pose: 
  position: 
    x: -0.782497286797
    y: -0.984789669514
    z: -2.13848018646
  orientation: 
    x: 0.00156821442737
    y: 0.0268971506592
    z: -0.529599227927
    w: 0.847820051403
---
header: 
  seq: 20144
  stamp: 
    secs: 1723856123
    nsecs: 686131136
  frame_id: "map"
pose: 
  position: 
    x: -0.782536149025
    y: -0.984937548637
    z: -2.13916754723
  orientation: 
    x: 0.00154691182963
    y: 0.0268828075598
    z: -0.529546712953
    w: 0.847853263119
---
header: 
  seq: 20145
  stamp: 
    secs: 1723856123
    nsecs: 716134976
  frame_id: "map"
pose: 
  position: 
    x: -0.782570183277
    y: -0.985091686249
    z: -2.1397998333
  orientation: 
    x: 0.001567587493
    y: 0.0268443854391
    z: -0.529483619121
    w: 0.847893934828
---
header: 
  seq: 20146
  stamp: 
    secs: 1723856123
    nsecs: 756134976
  frame_id: "map"
pose: 
  position: 
    x: -0.782391607761
    y: -0.9853271842
    z: -2.14016747475
  orientation: 
    x: 0.00161690325703
    y: 0.0267922010552
    z: -0.529475179215
    w: 0.847900773154
---
header: 
  seq: 20147
  stamp: 
    secs: 1723856123
    nsecs: 786134976
  frame_id: "map"
pose: 
  position: 
    x: -0.782298326492
    y: -0.98559898138
    z: -2.14037036896
  orientation: 
    x: 0.00167462204897
    y: 0.0268149906464
    z: -0.529438279649
    w: 0.847922921323
---
header: 
  seq: 20148
  stamp: 
    secs: 1723856123
    nsecs: 817132672
  frame_id: "map"
pose: 
  position: 
    x: -0.782146453857
    y: -0.985935747623
    z: -2.14040207863
  orientation: 
    x: 0.00160322133633
    y: 0.0270612849753
    z: -0.529394309949
    w: 0.847942698732
---
header: 
  seq: 20149
  stamp: 
    secs: 1723856123
    nsecs: 847132672
  frame_id: "map"
pose: 
  position: 
    x: -0.781894624233
    y: -0.986310303211
    z: -2.14038300514
  orientation: 
    x: 0.00156805374251
    y: 0.0271930768535
    z: -0.529373162768
    w: 0.847951791915
---
header: 
  seq: 20150
  stamp: 
    secs: 1723856123
    nsecs: 887132672
  frame_id: "map"
pose: 
  position: 
    x: -0.782104074955
    y: -0.986567080021
    z: -2.14019203186
  orientation: 
    x: 0.00155662404403
    y: 0.0273318506206
    z: -0.529255941845
    w: 0.848020543961
---
header: 
  seq: 20151
  stamp: 
    secs: 1723856123
    nsecs: 917136256
  frame_id: "map"
pose: 
  position: 
    x: -0.782636761665
    y: -0.986408352852
    z: -2.1405134201
  orientation: 
    x: 0.00160175278208
    y: 0.0268757137184
    z: -0.529156949435
    w: 0.848096777073
---
header: 
  seq: 20152
  stamp: 
    secs: 1723856123
    nsecs: 957136256
  frame_id: "map"
pose: 
  position: 
    x: -0.783263504505
    y: -0.98610419035
    z: -2.14114665985
  orientation: 
    x: 0.0017030487812
    y: 0.0264984638628
    z: -0.529136402846
    w: 0.848121285466
---
header: 
  seq: 20153
  stamp: 
    secs: 1723856123
    nsecs: 987136256
  frame_id: "map"
pose: 
  position: 
    x: -0.783579826355
    y: -0.986056983471
    z: -2.14161872864
  orientation: 
    x: 0.00196076885731
    y: 0.0259473253299
    z: -0.529051013331
    w: 0.848191080647
---
header: 
  seq: 20154
  stamp: 
    secs: 1723856124
    nsecs:  17140096
  frame_id: "map"
pose: 
  position: 
    x: -0.783558368683
    y: -0.98613101244
    z: -2.14203119278
  orientation: 
    x: 0.00197278992876
    y: 0.0258731692671
    z: -0.528998919827
    w: 0.84822580965
---
header: 
  seq: 20155
  stamp: 
    secs: 1723856124
    nsecs:  47140096
  frame_id: "map"
pose: 
  position: 
    x: -0.783082485199
    y: -0.98643040657
    z: -2.14244604111
  orientation: 
    x: 0.00186372310444
    y: 0.0259849756365
    z: -0.529014250743
    w: 0.848213007545
---
header: 
  seq: 20156
  stamp: 
    secs: 1723856124
    nsecs:  87140096
  frame_id: "map"
pose: 
  position: 
    x: -0.782178223133
    y: -0.987115263939
    z: -2.14289832115
  orientation: 
    x: 0.00169754466621
    y: 0.0265854799828
    z: -0.528998414064
    w: 0.848204651932
---
header: 
  seq: 20157
  stamp: 
    secs: 1723856124
    nsecs: 117143936
  frame_id: "map"
pose: 
  position: 
    x: -0.781651973724
    y: -0.987541019917
    z: -2.14299988747
  orientation: 
    x: 0.00162022232135
    y: 0.0271152065996
    z: -0.528976855951
    w: 0.848201511992
---
header: 
  seq: 20158
  stamp: 
    secs: 1723856124
    nsecs: 157143936
  frame_id: "map"
pose: 
  position: 
    x: -0.781950056553
    y: -0.987653374672
    z: -2.14186096191
  orientation: 
    x: 0.00155712322077
    y: 0.0272316504395
    z: -0.52894570943
    w: 0.84821731706
---
header: 
  seq: 20159
  stamp: 
    secs: 1723856124
    nsecs: 187143936
  frame_id: "map"
pose: 
  position: 
    x: -0.782613933086
    y: -0.98758238554
    z: -2.14118623734
  orientation: 
    x: 0.00150242583103
    y: 0.0270435609084
    z: -0.528833314322
    w: 0.848293465879
---
header: 
  seq: 20160
  stamp: 
    secs: 1723856124
    nsecs: 217147520
  frame_id: "map"
pose: 
  position: 
    x: -0.783114254475
    y: -0.987562716007
    z: -2.14061188698
  orientation: 
    x: 0.00189804512711
    y: 0.0265031698219
    z: -0.52879274798
    w: 0.848334959451
---
header: 
  seq: 20161
  stamp: 
    secs: 1723856124
    nsecs: 247147520
  frame_id: "map"
pose: 
  position: 
    x: -0.78274422884
    y: -0.987946093082
    z: -2.14019393921
  orientation: 
    x: 0.00215847840659
    y: 0.0263571889437
    z: -0.528796182948
    w: 0.848336750692
---
header: 
  seq: 20162
  stamp: 
    secs: 1723856124
    nsecs: 287147520
  frame_id: "map"
pose: 
  position: 
    x: -0.782267868519
    y: -0.988729536533
    z: -2.13974285126
  orientation: 
    x: 0.00225269373517
    y: 0.0267348444627
    z: -0.528663399302
    w: 0.848407409884
---
header: 
  seq: 20163
  stamp: 
    secs: 1723856124
    nsecs: 318153152
  frame_id: "map"
pose: 
  position: 
    x: -0.781938314438
    y: -0.988964319229
    z: -2.13996148109
  orientation: 
    x: 0.0018458251818
    y: 0.0272693178683
    z: -0.528546610385
    w: 0.848464265982
---
header: 
  seq: 20164
  stamp: 
    secs: 1723856124
    nsecs: 348153152
  frame_id: "map"
pose: 
  position: 
    x: -0.781489849091
    y: -0.988849043846
    z: -2.14071822166
  orientation: 
    x: 0.00172759273502
    y: 0.0273181528948
    z: -0.528556441137
    w: 0.848456795453
---
header: 
  seq: 20165
  stamp: 
    secs: 1723856124
    nsecs: 388153152
  frame_id: "map"
pose: 
  position: 
    x: -0.781273841858
    y: -0.98894494772
    z: -2.14160394669
  orientation: 
    x: 0.00169461809441
    y: 0.0272617709482
    z: -0.528510195508
    w: 0.848487446749
---
header: 
  seq: 20166
  stamp: 
    secs: 1723856124
    nsecs: 418156736
  frame_id: "map"
pose: 
  position: 
    x: -0.781425654888
    y: -0.989335954189
    z: -2.14201855659
  orientation: 
    x: 0.00199843892026
    y: 0.0272032026339
    z: -0.52839174179
    w: 0.848562404919
---
header: 
  seq: 20167
  stamp: 
    secs: 1723856124
    nsecs: 448156736
  frame_id: "map"
pose: 
  position: 
    x: -0.781687498093
    y: -0.989671885967
    z: -2.14206004143
  orientation: 
    x: 0.00215323244104
    y: 0.0270391025621
    z: -0.528288829723
    w: 0.84863143092
---
header: 
  seq: 20168
  stamp: 
    secs: 1723856124
    nsecs: 488156736
  frame_id: "map"
pose: 
  position: 
    x: -0.781461775303
    y: -0.989511549473
    z: -2.14225006104
  orientation: 
    x: 0.00223619719524
    y: 0.0264903940584
    z: -0.528389897866
    w: 0.848585575149
---
header: 
  seq: 20169
  stamp: 
    secs: 1723856124
    nsecs: 518160576
  frame_id: "map"
pose: 
  position: 
    x: -0.781130969524
    y: -0.989918828011
    z: -2.14234757423
  orientation: 
    x: 0.00210267466207
    y: 0.0265670262486
    z: -0.528303686487
    w: 0.848637141818
---
header: 
  seq: 20170
  stamp: 
    secs: 1723856124
    nsecs: 548160576
  frame_id: "map"
pose: 
  position: 
    x: -0.780591011047
    y: -0.990672647953
    z: -2.14224743843
  orientation: 
    x: 0.00195483668839
    y: 0.0270667904074
    z: -0.52823259529
    w: 0.848665917579
---
header: 
  seq: 20171
  stamp: 
    secs: 1723856124
    nsecs: 588160576
  frame_id: "map"
pose: 
  position: 
    x: -0.779662132263
    y: -0.990996062756
    z: -2.14202308655
  orientation: 
    x: 0.00187047581982
    y: 0.0274110814274
    z: -0.528254606482
    w: 0.84864146187
---
header: 
  seq: 20172
  stamp: 
    secs: 1723856124
    nsecs: 618164416
  frame_id: "map"
pose: 
  position: 
    x: -0.779090166092
    y: -0.991079390049
    z: -2.14199137688
  orientation: 
    x: 0.00183430197
    y: 0.0272723432218
    z: -0.528220973297
    w: 0.848666918567
---
header: 
  seq: 20173
  stamp: 
    secs: 1723856124
    nsecs: 648164416
  frame_id: "map"
pose: 
  position: 
    x: -0.778801381588
    y: -0.991445243359
    z: -2.14208173752
  orientation: 
    x: 0.00183129373869
    y: 0.0273572427797
    z: -0.52817455908
    w: 0.848693018003
---
header: 
  seq: 20174
  stamp: 
    secs: 1723856124
    nsecs: 688164416
  frame_id: "map"
pose: 
  position: 
    x: -0.778609216213
    y: -0.991650938988
    z: -2.14227676392
  orientation: 
    x: 0.00190013666446
    y: 0.0275460514414
    z: -0.528158248249
    w: 0.848697021953
---
header: 
  seq: 20175
  stamp: 
    secs: 1723856124
    nsecs: 719168256
  frame_id: "map"
pose: 
  position: 
    x: -0.778392791748
    y: -0.991423130035
    z: -2.14233374596
  orientation: 
    x: 0.00190031842275
    y: 0.0271958374721
    z: -0.528147363826
    w: 0.848714987047
---
header: 
  seq: 20176
  stamp: 
    secs: 1723856124
    nsecs: 748168256
  frame_id: "map"
pose: 
  position: 
    x: -0.77822637558
    y: -0.991426229477
    z: -2.14211583138
  orientation: 
    x: 0.00186381925194
    y: 0.027072510525
    z: -0.528078401045
    w: 0.848761949173
---
header: 
  seq: 20177
  stamp: 
    secs: 1723856124
    nsecs: 789168256
  frame_id: "map"
pose: 
  position: 
    x: -0.778107881546
    y: -0.991693973541
    z: -2.14220166206
  orientation: 
    x: 0.00188515082564
    y: 0.027018386069
    z: -0.528011345409
    w: 0.84880531828
---
header: 
  seq: 20178
  stamp: 
    secs: 1723856124
    nsecs: 819172096
  frame_id: "map"
pose: 
  position: 
    x: -0.777663886547
    y: -0.991787850857
    z: -2.14258646965
  orientation: 
    x: 0.00206065161993
    y: 0.0268422451694
    z: -0.528010681596
    w: 0.848810955421
---
header: 
  seq: 20179
  stamp: 
    secs: 1723856124
    nsecs: 849172096
  frame_id: "map"
pose: 
  position: 
    x: -0.777074694633
    y: -0.992008566856
    z: -2.14332389832
  orientation: 
    x: 0.00212159069452
    y: 0.026790009419
    z: -0.527967586443
    w: 0.848839299177
---
header: 
  seq: 20180
  stamp: 
    secs: 1723856124
    nsecs: 889172096
  frame_id: "map"
pose: 
  position: 
    x: -0.776533186436
    y: -0.992501854897
    z: -2.14437699318
  orientation: 
    x: 0.00199488277992
    y: 0.0270933942884
    z: -0.527918780393
    w: 0.848860288308
---
header: 
  seq: 20181
  stamp: 
    secs: 1723856124
    nsecs: 919174144
  frame_id: "map"
pose: 
  position: 
    x: -0.776214241982
    y: -0.992664039135
    z: -2.14517068863
  orientation: 
    x: 0.00170022099109
    y: 0.0274315331857
    z: -0.52788725455
    w: 0.848869644908
---
header: 
  seq: 20182
  stamp: 
    secs: 1723856124
    nsecs: 949174144
  frame_id: "map"
pose: 
  position: 
    x: -0.775996804237
    y: -0.992690563202
    z: -2.1458940506
  orientation: 
    x: 0.00166605306783
    y: 0.0273880534431
    z: -0.527854116591
    w: 0.848891740393
---
header: 
  seq: 20183
  stamp: 
    secs: 1723856124
    nsecs: 989174144
  frame_id: "map"
pose: 
  position: 
    x: -0.776159703732
    y: -0.992884635925
    z: -2.14656186104
  orientation: 
    x: 0.00182818014025
    y: 0.0271759718185
    z: -0.527786470899
    w: 0.84894033571
---
header: 
  seq: 20184
  stamp: 
    secs: 1723856125
    nsecs:  19177984
  frame_id: "map"
pose: 
  position: 
    x: -0.776419937611
    y: -0.992998600006
    z: -2.14697694778
  orientation: 
    x: 0.00201575337246
    y: 0.0270436557388
    z: -0.527738507785
    w: 0.848973884601
---
header: 
  seq: 20185
  stamp: 
    secs: 1723856125
    nsecs:  49177984
  frame_id: "map"
pose: 
  position: 
    x: -0.776534736156
    y: -0.992884576321
    z: -2.14722776413
  orientation: 
    x: 0.00206537206696
    y: 0.0269017775929
    z: -0.527688532159
    w: 0.849009361711
---
header: 
  seq: 20186
  stamp: 
    secs: 1723856125
    nsecs:  89177984
  frame_id: "map"
pose: 
  position: 
    x: -0.776576042175
    y: -0.992892205715
    z: -2.1474647522
  orientation: 
    x: 0.0019930507091
    y: 0.0268361444131
    z: -0.527658270722
    w: 0.849030435135
---
header: 
  seq: 20187
  stamp: 
    secs: 1723856125
    nsecs: 119181824
  frame_id: "map"
pose: 
  position: 
    x: -0.776596844196
    y: -0.993141651154
    z: -2.1473095417
  orientation: 
    x: 0.00182944717989
    y: 0.0272049477768
    z: -0.527603848604
    w: 0.849052909942
---
header: 
  seq: 20188
  stamp: 
    secs: 1723856125
    nsecs: 149181824
  frame_id: "map"
pose: 
  position: 
    x: -0.776487052441
    y: -0.993238687515
    z: -2.1470053196
  orientation: 
    x: 0.0017980530461
    y: 0.0272759652166
    z: -0.52757812849
    w: 0.849066576058
---
header: 
  seq: 20189
  stamp: 
    secs: 1723856125
    nsecs: 189181824
  frame_id: "map"
pose: 
  position: 
    x: -0.776542067528
    y: -0.993108272552
    z: -2.14662647247
  orientation: 
    x: 0.00175288216121
    y: 0.0271438822617
    z: -0.527550227276
    w: 0.849088323831
---
header: 
  seq: 20190
  stamp: 
    secs: 1723856125
    nsecs: 220185408
  frame_id: "map"
pose: 
  position: 
    x: -0.776949346066
    y: -0.993113160133
    z: -2.14626550674
  orientation: 
    x: 0.00166907051877
    y: 0.02707472982
    z: -0.52749153779
    w: 0.849127204299
---
header: 
  seq: 20191
  stamp: 
    secs: 1723856125
    nsecs: 250185408
  frame_id: "map"
pose: 
  position: 
    x: -0.777309238911
    y: -0.993180215359
    z: -2.14535307884
  orientation: 
    x: 0.00166589501715
    y: 0.0269281127878
    z: -0.527433206551
    w: 0.849168086742
---
header: 
  seq: 20192
  stamp: 
    secs: 1723856125
    nsecs: 290185408
  frame_id: "map"
pose: 
  position: 
    x: -0.777574002743
    y: -0.993363976479
    z: -2.14423823357
  orientation: 
    x: 0.00183754991151
    y: 0.0267997874879
    z: -0.527406970138
    w: 0.849188001128
---
header: 
  seq: 20193
  stamp: 
    secs: 1723856125
    nsecs: 320190016
  frame_id: "map"
pose: 
  position: 
    x: -0.777599155903
    y: -0.993688344955
    z: -2.14349675179
  orientation: 
    x: 0.00216434603816
    y: 0.0266955688682
    z: -0.527373958619
    w: 0.849211150285
---
header: 
  seq: 20194
  stamp: 
    secs: 1723856125
    nsecs: 350190016
  frame_id: "map"
pose: 
  position: 
    x: -0.777457773685
    y: -0.993928909302
    z: -2.14289903641
  orientation: 
    x: 0.00229082346218
    y: 0.0266585955454
    z: -0.527366656677
    w: 0.849216429178
---
header: 
  seq: 20195
  stamp: 
    secs: 1723856125
    nsecs: 380190016
  frame_id: "map"
pose: 
  position: 
    x: -0.777367770672
    y: -0.993955075741
    z: -2.14240169525
  orientation: 
    x: 0.00220262196205
    y: 0.0267126475615
    z: -0.527279907926
    w: 0.8492687861
---
header: 
  seq: 20196
  stamp: 
    secs: 1723856125
    nsecs: 420195136
  frame_id: "map"
pose: 
  position: 
    x: -0.77724802494
    y: -0.993782162666
    z: -2.14170074463
  orientation: 
    x: 0.00174662335421
    y: 0.0268479903117
    z: -0.527215265198
    w: 0.849305780496
---
header: 
  seq: 20197
  stamp: 
    secs: 1723856125
    nsecs: 450195136
  frame_id: "map"
pose: 
  position: 
    x: -0.777257859707
    y: -0.993718743324
    z: -2.14132022858
  orientation: 
    x: 0.00159066157547
    y: 0.0269099962284
    z: -0.527215602372
    w: 0.849303926035
---
header: 
  seq: 20198
  stamp: 
    secs: 1723856125
    nsecs: 490195136
  frame_id: "map"
pose: 
  position: 
    x: -0.777295529842
    y: -0.993822336197
    z: -2.14072704315
  orientation: 
    x: 0.00172367044393
    y: 0.0267873528505
    z: -0.527160021216
    w: 0.849342058396
---
header: 
  seq: 20199
  stamp: 
    secs: 1723856125
    nsecs: 520199232
  frame_id: "map"
pose: 
  position: 
    x: -0.777233242989
    y: -0.993990540504
    z: -2.14043307304
  orientation: 
    x: 0.00210747808571
    y: 0.0265456670161
    z: -0.527127462775
    w: 0.849368969159
---
header: 
  seq: 20200
  stamp: 
    secs: 1723856125
    nsecs: 550199232
  frame_id: "map"
pose: 
  position: 
    x: -0.77710711956
    y: -0.994257092476
    z: -2.14035201073
  orientation: 
    x: 0.00220178692761
    y: 0.0265230894762
    z: -0.527123269164
    w: 0.849372066952
---
header: 
  seq: 20201
  stamp: 
    secs: 1723856125
    nsecs: 590199232
  frame_id: "map"
pose: 
  position: 
    x: -0.777060747147
    y: -0.994391620159
    z: -2.1403799057
  orientation: 
    x: 0.00209444680699
    y: 0.0265698777464
    z: -0.527074789751
    w: 0.849400905933
---
header: 
  seq: 20202
  stamp: 
    secs: 1723856125
    nsecs: 621203328
  frame_id: "map"
pose: 
  position: 
    x: -0.776956439018
    y: -0.994280695915
    z: -2.14045119286
  orientation: 
    x: 0.00193026770988
    y: 0.0265180226347
    z: -0.527012412416
    w: 0.849441535495
---
header: 
  seq: 20203
  stamp: 
    secs: 1723856125
    nsecs: 651203328
  frame_id: "map"
pose: 
  position: 
    x: -0.776797354221
    y: -0.994251728058
    z: -2.14059400558
  orientation: 
    x: 0.001881989812
    y: 0.0264403789201
    z: -0.526990759472
    w: 0.849457625055
---
header: 
  seq: 20204
  stamp: 
    secs: 1723856125
    nsecs: 681203328
  frame_id: "map"
pose: 
  position: 
    x: -0.776582658291
    y: -0.99455422163
    z: -2.14067649841
  orientation: 
    x: 0.00205399373495
    y: 0.026570567901
    z: -0.526968073931
    w: 0.849467245073
---
header: 
  seq: 20205
  stamp: 
    secs: 1723856125
    nsecs: 721207424
  frame_id: "map"
pose: 
  position: 
    x: -0.775991141796
    y: -0.994908809662
    z: -2.14070177078
  orientation: 
    x: 0.00226502432254
    y: 0.026751671592
    z: -0.526939582661
    w: 0.849478709016
---
header: 
  seq: 20206
  stamp: 
    secs: 1723856125
    nsecs: 751207424
  frame_id: "map"
pose: 
  position: 
    x: -0.77574378252
    y: -0.994945466518
    z: -2.14096069336
  orientation: 
    x: 0.0021937065865
    y: 0.0268415155021
    z: -0.526899132224
    w: 0.849501120602
---
header: 
  seq: 20207
  stamp: 
    secs: 1723856125
    nsecs: 781207424
  frame_id: "map"
pose: 
  position: 
    x: -0.775821506977
    y: -0.994881927967
    z: -2.14127397537
  orientation: 
    x: 0.00169855092221
    y: 0.0270823623508
    z: -0.526850210269
    w: 0.849524923035
---
header: 
  seq: 20208
  stamp: 
    secs: 1723856125
    nsecs: 821211264
  frame_id: "map"
pose: 
  position: 
    x: -0.775725364685
    y: -0.994934976101
    z: -2.1415605545
  orientation: 
    x: 0.00164058056627
    y: 0.027163255324
    z: -0.526843171745
    w: 0.849526819643
---
header: 
  seq: 20209
  stamp: 
    secs: 1723856125
    nsecs: 851211264
  frame_id: "map"
pose: 
  position: 
    x: -0.775545418262
    y: -0.995207488537
    z: -2.14168262482
  orientation: 
    x: 0.00182749920523
    y: 0.0271551631291
    z: -0.526824964307
    w: 0.849538030705
---
header: 
  seq: 20210
  stamp: 
    secs: 1723856125
    nsecs: 881211264
  frame_id: "map"
pose: 
  position: 
    x: -0.775710523129
    y: -0.995339989662
    z: -2.14187645912
  orientation: 
    x: 0.00202329370708
    y: 0.02699728762
    z: -0.526771448346
    w: 0.849575783745
---
header: 
  seq: 20211
  stamp: 
    secs: 1723856125
    nsecs: 921215360
  frame_id: "map"
pose: 
  position: 
    x: -0.77588558197
    y: -0.995129406452
    z: -2.14228034019
  orientation: 
    x: 0.00170392991376
    y: 0.0268043959824
    z: -0.526770573799
    w: 0.849583064613
---
header: 
  seq: 20212
  stamp: 
    secs: 1723856125
    nsecs: 951215360
  frame_id: "map"
pose: 
  position: 
    x: -0.775722801685
    y: -0.994868576527
    z: -2.14274930954
  orientation: 
    x: 0.00152150518251
    y: 0.0268183808335
    z: -0.526738731855
    w: 0.849602768264
---
header: 
  seq: 20213
  stamp: 
    secs: 1723856125
    nsecs: 981215360
  frame_id: "map"
pose: 
  position: 
    x: -0.775532662868
    y: -0.994812011719
    z: -2.14315986633
  orientation: 
    x: 0.00149727337879
    y: 0.0269607370827
    z: -0.526632648237
    w: 0.849664091929
---
header: 
  seq: 20214
  stamp: 
    secs: 1723856126
    nsecs:  22219200
  frame_id: "map"
pose: 
  position: 
    x: -0.775104880333
    y: -0.995027899742
    z: -2.14355182648
  orientation: 
    x: 0.00174217159333
    y: 0.0270273778357
    z: -0.526663615634
    w: 0.849642312545
---
header: 
  seq: 20215
  stamp: 
    secs: 1723856126
    nsecs:  51219200
  frame_id: "map"
pose: 
  position: 
    x: -0.774923682213
    y: -0.995136976242
    z: -2.14382910728
  orientation: 
    x: 0.00184562893554
    y: 0.0270488595575
    z: -0.526636768092
    w: 0.84965803332
---
header: 
  seq: 20216
  stamp: 
    secs: 1723856126
    nsecs:  92219200
  frame_id: "map"
pose: 
  position: 
    x: -0.775081634521
    y: -0.994907140732
    z: -2.14392900467
  orientation: 
    x: 0.00166270766173
    y: 0.0272403419099
    z: -0.526586307777
    w: 0.849683626993
---
header: 
  seq: 20217
  stamp: 
    secs: 1723856126
    nsecs: 122223040
  frame_id: "map"
pose: 
  position: 
    x: -0.77531683445
    y: -0.994544029236
    z: -2.14404916763
  orientation: 
    x: 0.0013091706768
    y: 0.0271893271011
    z: -0.526537691387
    w: 0.849715974699
---
header: 
  seq: 20218
  stamp: 
    secs: 1723856126
    nsecs: 152223040
  frame_id: "map"
pose: 
  position: 
    x: -0.775202035904
    y: -0.994375646114
    z: -2.14401268959
  orientation: 
    x: 0.00127824147544
    y: 0.0271269326431
    z: -0.526469213295
    w: 0.849760344794
---
header: 
  seq: 20219
  stamp: 
    secs: 1723856126
    nsecs: 182223040
  frame_id: "map"
pose: 
  position: 
    x: -0.775113940239
    y: -0.994547128677
    z: -2.14386987686
  orientation: 
    x: 0.00151416636251
    y: 0.0270244420443
    z: -0.526422272243
    w: 0.849792281569
---
header: 
  seq: 20220
  stamp: 
    secs: 1723856126
    nsecs: 222226880
  frame_id: "map"
pose: 
  position: 
    x: -0.774778783321
    y: -0.9948143363
    z: -2.14398312569
  orientation: 
    x: 0.00177861676349
    y: 0.0271263900025
    z: -0.526404697007
    w: 0.84979948868
---
header: 
  seq: 20221
  stamp: 
    secs: 1723856126
    nsecs: 252226880
  frame_id: "map"
pose: 
  position: 
    x: -0.774349093437
    y: -0.995013475418
    z: -2.14482879639
  orientation: 
    x: 0.00174351634122
    y: 0.0271857933513
    z: -0.526362687136
    w: 0.849823712581
---
header: 
  seq: 20222
  stamp: 
    secs: 1723856126
    nsecs: 282226880
  frame_id: "map"
pose: 
  position: 
    x: -0.774056434631
    y: -0.995177447796
    z: -2.14563560486
  orientation: 
    x: 0.00158174356574
    y: 0.0274706849738
    z: -0.526292249215
    w: 0.849858409974
---
header: 
  seq: 20223
  stamp: 
    secs: 1723856126
    nsecs: 322234048
  frame_id: "map"
pose: 
  position: 
    x: -0.774011969566
    y: -0.995169818401
    z: -2.14652061462
  orientation: 
    x: 0.00141805969411
    y: 0.0275436978034
    z: -0.52630803321
    w: 0.849846672077
---
header: 
  seq: 20224
  stamp: 
    secs: 1723856126
    nsecs: 352234048
  frame_id: "map"
pose: 
  position: 
    x: -0.774200201035
    y: -0.995137095451
    z: -2.14686226845
  orientation: 
    x: 0.00148134318715
    y: 0.0274848739737
    z: -0.526310382897
    w: 0.849846935495
---
header: 
  seq: 20225
  stamp: 
    secs: 1723856126
    nsecs: 382234048
  frame_id: "map"
pose: 
  position: 
    x: -0.774378061295
    y: -0.995134294033
    z: -2.14712619781
  orientation: 
    x: 0.00172953807549
    y: 0.0271693231531
    z: -0.526260733909
    w: 0.849887312175
---
header: 
  seq: 20226
  stamp: 
    secs: 1723856126
    nsecs: 422239680
  frame_id: "map"
pose: 
  position: 
    x: -0.774285852909
    y: -0.99541079998
    z: -2.14706969261
  orientation: 
    x: 0.00191799507443
    y: 0.027134638931
    z: -0.526229987783
    w: 0.849907184414
---
header: 
  seq: 20227
  stamp: 
    secs: 1723856126
    nsecs: 452239680
  frame_id: "map"
pose: 
  position: 
    x: -0.774000823498
    y: -0.995810687542
    z: -2.14681220055
  orientation: 
    x: 0.00196698815165
    y: 0.0273274159819
    z: -0.526218903162
    w: 0.84990764803
---
header: 
  seq: 20228
  stamp: 
    secs: 1723856126
    nsecs: 483239680
  frame_id: "map"
pose: 
  position: 
    x: -0.773795723915
    y: -0.995800614357
    z: -2.14660811424
  orientation: 
    x: 0.00180588445739
    y: 0.0276025374381
    z: -0.526171182393
    w: 0.849928731991
---
header: 
  seq: 20229
  stamp: 
    secs: 1723856126
    nsecs: 513243776
  frame_id: "map"
pose: 
  position: 
    x: -0.77391320467
    y: -0.995504617691
    z: -2.1465075016
  orientation: 
    x: 0.00140345844528
    y: 0.0274005750084
    z: -0.526097541312
    w: 0.849981552529
---
header: 
  seq: 20230
  stamp: 
    secs: 1723856126
    nsecs: 553243776
  frame_id: "map"
pose: 
  position: 
    x: -0.774511039257
    y: -0.995095849037
    z: -2.14637470245
  orientation: 
    x: 0.00136080451749
    y: 0.0272922220463
    z: -0.526059356267
    w: 0.850008695099
---
header: 
  seq: 20231
  stamp: 
    secs: 1723856126
    nsecs: 583243776
  frame_id: "map"
pose: 
  position: 
    x: -0.774986445904
    y: -0.994988918304
    z: -2.14620566368
  orientation: 
    x: 0.00174650745037
    y: 0.0267391381729
    z: -0.52599278532
    w: 0.850066836677
---
header: 
  seq: 20232
  stamp: 
    secs: 1723856126
    nsecs: 613247872
  frame_id: "map"
pose: 
  position: 
    x: -0.775400817394
    y: -0.99495780468
    z: -2.14636611938
  orientation: 
    x: 0.00219223803225
    y: 0.0264138158689
    z: -0.526033499175
    w: 0.850050820874
---
header: 
  seq: 20233
  stamp: 
    secs: 1723856126
    nsecs: 653247872
  frame_id: "map"
pose: 
  position: 
    x: -0.775105595589
    y: -0.994880914688
    z: -2.14690065384
  orientation: 
    x: 0.00227024262922
    y: 0.0263646555213
    z: -0.525984461317
    w: 0.850082409937
---
header: 
