header: 
  seq: 25313
  stamp: 
    secs: 1723796910
    nsecs: 860077632
  frame_id: "map"
pose: 
  position: 
    x: 0.139334887266
    y: -4.41664552689
    z: -2.92250227928
  orientation: 
    x: 0.00990250610767
    y: 0.0271684156788
    z: 0.0971878088273
    w: 0.994845971222
---
header: 
  seq: 25314
  stamp: 
    secs: 1723796910
    nsecs: 890077632
  frame_id: "map"
pose: 
  position: 
    x: 0.139626249671
    y: -4.41675758362
    z: -2.92503857613
  orientation: 
    x: 0.00951816372774
    y: 0.0271483485105
    z: 0.0971898740228
    w: 0.994850059466
---
header: 
  seq: 25315
  stamp: 
    secs: 1723796910
    nsecs: 930080704
  frame_id: "map"
pose: 
  position: 
    x: 0.14025311172
    y: -4.41673564911
    z: -2.92873954773
  orientation: 
    x: 0.00888799129279
    y: 0.027035601081
    z: 0.0972986550389
    w: 0.994848247152
---
header: 
  seq: 25316
  stamp: 
    secs: 1723796910
    nsecs: 970080704
  frame_id: "map"
pose: 
  position: 
    x: 0.140321865678
    y: -4.41692352295
    z: -2.93241906166
  orientation: 
    x: 0.00851015599115
    y: 0.0269961114595
    z: 0.0972970534586
    w: 0.994852799011
---
header: 
  seq: 25317
  stamp: 
    secs: 1723796910
    nsecs: 990080704
  frame_id: "map"
pose: 
  position: 
    x: 0.140375420451
    y: -4.4169960022
    z: -2.93411540985
  orientation: 
    x: 0.00797074613593
    y: 0.0268799086469
    z: 0.0972472358837
    w: 0.994865274478
---
header: 
  seq: 25318
  stamp: 
    secs: 1723796911
    nsecs:  30084288
  frame_id: "map"
pose: 
  position: 
    x: 0.140438660979
    y: -4.41716527939
    z: -2.93743872643
  orientation: 
    x: 0.00796204610443
    y: 0.0268721872126
    z: 0.0973211193091
    w: 0.994858320248
---
header: 
  seq: 25319
  stamp: 
    secs: 1723796911
    nsecs:  60084288
  frame_id: "map"
pose: 
  position: 
    x: 0.140302985907
    y: -4.41742610931
    z: -2.93984127045
  orientation: 
    x: 0.0080371919597
    y: 0.0268769070011
    z: 0.0973123527646
    w: 0.99485857313
---
header: 
  seq: 25320
  stamp: 
    secs: 1723796911
    nsecs:  90084288
  frame_id: "map"
pose: 
  position: 
    x: 0.140266463161
    y: -4.41766214371
    z: -2.94257092476
  orientation: 
    x: 0.00817076849352
    y: 0.0269534325071
    z: 0.0972891719979
    w: 0.994857561605
---
header: 
  seq: 25321
  stamp: 
    secs: 1723796911
    nsecs: 130086592
  frame_id: "map"
pose: 
  position: 
    x: 0.140243113041
    y: -4.41797351837
    z: -2.94591093063
  orientation: 
    x: 0.00832803089766
    y: 0.0269519290499
    z: 0.097360653053
    w: 0.994849300823
---
header: 
  seq: 25322
  stamp: 
    secs: 1723796911
    nsecs: 160086592
  frame_id: "map"
pose: 
  position: 
    x: 0.140082478523
    y: -4.41831016541
    z: -2.94832515717
  orientation: 
    x: 0.00851072299797
    y: 0.0270079856756
    z: 0.0973439207542
    w: 0.994847909977
---
header: 
  seq: 25323
  stamp: 
    secs: 1723796911
    nsecs: 190086592
  frame_id: "map"
pose: 
  position: 
    x: 0.140032604337
    y: -4.41861438751
    z: -2.95065164566
  orientation: 
    x: 0.00922739196132
    y: 0.0271460126532
    z: 0.0972997930038
    w: 0.994842135859
---
header: 
  seq: 25324
  stamp: 
    secs: 1723796911
    nsecs: 230089408
  frame_id: "map"
pose: 
  position: 
    x: 0.140096053481
    y: -4.41890716553
    z: -2.95373821259
  orientation: 
    x: 0.0100486608416
    y: 0.0273290820995
    z: 0.0973652470595
    w: 0.994822706161
---
header: 
  seq: 25325
  stamp: 
    secs: 1723796911
    nsecs: 260089408
  frame_id: "map"
pose: 
  position: 
    x: 0.140025898814
    y: -4.41936159134
    z: -2.9562792778
  orientation: 
    x: 0.0103726621053
    y: 0.0273581291806
    z: 0.0973510857184
    w: 0.994820008763
---
header: 
  seq: 25326
  stamp: 
    secs: 1723796911
    nsecs: 290089408
  frame_id: "map"
pose: 
  position: 
    x: 0.139939874411
    y: -4.41976928711
    z: -2.95893502235
  orientation: 
    x: 0.0103601925651
    y: 0.0272968180284
    z: 0.0973480089985
    w: 0.994822158252
---
header: 
  seq: 25327
  stamp: 
    secs: 1723796911
    nsecs: 330094784
  frame_id: "map"
pose: 
  position: 
    x: 0.139866635203
    y: -4.4201335907
    z: -2.96299290657
  orientation: 
    x: 0.00971999642418
    y: 0.027034921463
    z: 0.0973988380978
    w: 0.994830671916
---
header: 
  seq: 25328
  stamp: 
    secs: 1723796911
    nsecs: 360094784
  frame_id: "map"
pose: 
  position: 
    x: 0.139772981405
    y: -4.42036437988
    z: -2.96628904343
  orientation: 
    x: 0.00932284601212
    y: 0.0269396228287
    z: 0.0973908301965
    w: 0.99483783688
---
header: 
  seq: 25329
  stamp: 
    secs: 1723796911
    nsecs: 390094784
  frame_id: "map"
pose: 
  position: 
    x: 0.139928013086
    y: -4.42044258118
    z: -2.96956992149
  orientation: 
    x: 0.00867905882801
    y: 0.0268254200158
    z: 0.0974488664069
    w: 0.994841166481
---
header: 
  seq: 25330
  stamp: 
    secs: 1723796911
    nsecs: 430097856
  frame_id: "map"
pose: 
  position: 
    x: 0.140275061131
    y: -4.42038965225
    z: -2.97418546677
  orientation: 
    x: 0.00829810136686
    y: 0.0268677117441
    z: 0.0974779055856
    w: 0.994840449985
---
header: 
  seq: 25331
  stamp: 
    secs: 1723796911
    nsecs: 460097856
  frame_id: "map"
pose: 
  position: 
    x: 0.140472277999
    y: -4.42069387436
    z: -2.97745466232
  orientation: 
    x: 0.00809454591799
    y: 0.0268621424332
    z: 0.0974511423368
    w: 0.99484479111
---
header: 
  seq: 25332
  stamp: 
    secs: 1723796911
    nsecs: 490097856
  frame_id: "map"
pose: 
  position: 
    x: 0.140600860119
    y: -4.4210896492
    z: -2.98046970367
  orientation: 
    x: 0.00732861980108
    y: 0.0268410156668
    z: 0.0974529125044
    w: 0.994851197431
---
header: 
  seq: 25333
  stamp: 
    secs: 1723796911
    nsecs: 530101440
  frame_id: "map"
pose: 
  position: 
    x: 0.14061717689
    y: -4.42162132263
    z: -2.98483109474
  orientation: 
    x: 0.00659965647031
    y: 0.0266114964422
    z: 0.0974783692009
    w: 0.994859879682
---
header: 
  seq: 25334
  stamp: 
    secs: 1723796911
    nsecs: 560101440
  frame_id: "map"
pose: 
  position: 
    x: 0.140503779054
    y: -4.42212057114
    z: -2.98792409897
  orientation: 
    x: 0.00661671869997
    y: 0.026596054232
    z: 0.0975197574061
    w: 0.994856255053
---
header: 
  seq: 25335
  stamp: 
    secs: 1723796911
    nsecs: 590101440
  frame_id: "map"
pose: 
  position: 
    x: 0.140557006001
    y: -4.42256307602
    z: -2.99104094505
  orientation: 
    x: 0.00702496887971
    y: 0.0265429492029
    z: 0.097597686929
    w: 0.99484719348
---
header: 
  seq: 25336
  stamp: 
    secs: 1723796911
    nsecs: 630105024
  frame_id: "map"
pose: 
  position: 
    x: 0.140768170357
    y: -4.42310428619
    z: -2.99505400658
  orientation: 
    x: 0.00745191447949
    y: 0.0266475570223
    z: 0.0976770915916
    w: 0.994833453608
---
header: 
  seq: 25337
  stamp: 
    secs: 1723796911
    nsecs: 660105024
  frame_id: "map"
pose: 
  position: 
    x: 0.140905693173
    y: -4.42354679108
    z: -2.9981341362
  orientation: 
    x: 0.00736068828444
    y: 0.0265935583483
    z: 0.0977159931328
    w: 0.994831725587
---
header: 
  seq: 25338
  stamp: 
    secs: 1723796911
    nsecs: 690105024
  frame_id: "map"
pose: 
  position: 
    x: 0.141073569655
    y: -4.423807621
    z: -3.00121569633
  orientation: 
    x: 0.00699505120271
    y: 0.0266152692437
    z: 0.0976888505624
    w: 0.994836446034
---
header: 
  seq: 25339
  stamp: 
    secs: 1723796911
    nsecs: 730108608
  frame_id: "map"
pose: 
  position: 
    x: 0.141366183758
    y: -4.42399406433
    z: -3.00520086288
  orientation: 
    x: 0.00718935212562
    y: 0.0266555840214
    z: 0.0976879654786
    w: 0.994834043664
---
header: 
  seq: 25340
  stamp: 
    secs: 1723796911
    nsecs: 760108608
  frame_id: "map"
pose: 
  position: 
    x: 0.141387104988
    y: -4.42441511154
    z: -3.00783324242
  orientation: 
    x: 0.00728955230668
    y: 0.0267381641856
    z: 0.0977150659021
    w: 0.994828522427
---
header: 
  seq: 25341
  stamp: 
    secs: 1723796911
    nsecs: 790108608
  frame_id: "map"
pose: 
  position: 
    x: 0.141427308321
    y: -4.42477178574
    z: -3.01062607765
  orientation: 
    x: 0.00752796517491
    y: 0.0268056373388
    z: 0.0977559061983
    w: 0.994820893847
---
header: 
  seq: 25342
  stamp: 
    secs: 1723796911
    nsecs: 831111936
  frame_id: "map"
pose: 
  position: 
    x: 0.141452252865
    y: -4.42532634735
    z: -3.01399230957
  orientation: 
    x: 0.00762105307529
    y: 0.0268645257058
    z: 0.0977717112665
    w: 0.994817142777
---
header: 
  seq: 25343
  stamp: 
    secs: 1723796911
    nsecs: 860111936
  frame_id: "map"
pose: 
  position: 
    x: 0.14138455689
    y: -4.42588233948
    z: -3.01632881165
  orientation: 
    x: 0.00757909786323
    y: 0.0267959929544
    z: 0.0977901715862
    w: 0.994817479952
---
header: 
  seq: 25344
  stamp: 
    secs: 1723796911
    nsecs: 890111936
  frame_id: "map"
pose: 
  position: 
    x: 0.141318723559
    y: -4.42635440826
    z: -3.01878118515
  orientation: 
    x: 0.00706458757586
    y: 0.0266622689067
    z: 0.0977514807793
    w: 0.99482860672
---
header: 
  seq: 25345
  stamp: 
    secs: 1723796911
    nsecs: 930116544
  frame_id: "map"
pose: 
  position: 
    x: 0.141293689609
    y: -4.42678833008
    z: -3.02219176292
  orientation: 
    x: 0.00669620370499
    y: 0.0264423143824
    z: 0.097799696774
    w: 0.994832315643
---
header: 
  seq: 25346
  stamp: 
    secs: 1723796911
    nsecs: 960116544
  frame_id: "map"
pose: 
  position: 
    x: 0.141168400645
    y: -4.42709684372
    z: -3.02523851395
  orientation: 
    x: 0.00669024848701
    y: 0.0264245540956
    z: 0.0978837797367
    w: 0.994824518476
---
header: 
  seq: 25347
  stamp: 
    secs: 1723796911
    nsecs: 990116544
  frame_id: "map"
pose: 
  position: 
    x: 0.141124710441
    y: -4.427318573
    z: -3.02813673019
  orientation: 
    x: 0.00639208060722
    y: 0.0263587997436
    z: 0.097906244007
    w: 0.994826077909
---
header: 
  seq: 25348
  stamp: 
    secs: 1723796912
    nsecs:  31120128
  frame_id: "map"
pose: 
  position: 
    x: 0.141129106283
    y: -4.42768001556
    z: -3.03189706802
  orientation: 
    x: 0.00569757825201
    y: 0.0262657803318
    z: 0.0979501610231
    w: 0.994828353839
---
header: 
  seq: 25349
  stamp: 
    secs: 1723796912
    nsecs:  60120128
  frame_id: "map"
pose: 
  position: 
    x: 0.140956446528
    y: -4.42815160751
    z: -3.03438091278
  orientation: 
    x: 0.00537652134075
    y: 0.0261707161394
    z: 0.0980562867877
    w: 0.994822200399
---
header: 
  seq: 25350
  stamp: 
    secs: 1723796912
    nsecs:  90120128
  frame_id: "map"
pose: 
  position: 
    x: 0.140809237957
    y: -4.42854690552
    z: -3.03664755821
  orientation: 
    x: 0.00500872884286
    y: 0.025994985513
    z: 0.0980822070995
    w: 0.99482620435
---
header: 
  seq: 25351
  stamp: 
    secs: 1723796912
    nsecs: 130123456
  frame_id: "map"
pose: 
  position: 
    x: 0.140778079629
    y: -4.42908143997
    z: -3.03994703293
  orientation: 
    x: 0.00491770943077
    y: 0.0259300299755
    z: 0.0981019739715
    w: 0.99482633079
---
header: 
  seq: 25352
  stamp: 
    secs: 1723796912
    nsecs: 160123456
  frame_id: "map"
pose: 
  position: 
    x: 0.140604257584
    y: -4.42949676514
    z: -3.04231858253
  orientation: 
    x: 0.004911039692
    y: 0.0259366575674
    z: 0.0981559219376
    w: 0.994820935994
---
header: 
  seq: 25353
  stamp: 
    secs: 1723796912
    nsecs: 190123456
  frame_id: "map"
pose: 
  position: 
    x: 0.140508159995
    y: -4.42982053757
    z: -3.04453730583
  orientation: 
    x: 0.00509238309316
    y: 0.0258995696578
    z: 0.0981238481858
    w: 0.994824181301
---
header: 
  seq: 25354
  stamp: 
    secs: 1723796912
    nsecs: 231128320
  frame_id: "map"
pose: 
  position: 
    x: 0.140606194735
    y: -4.43014812469
    z: -3.04785990715
  orientation: 
    x: 0.00546688747668
    y: 0.0260230118502
    z: 0.0981297487446
    w: 0.994818280742
---
header: 
  seq: 25355
  stamp: 
    secs: 1723796912
    nsecs: 261128320
  frame_id: "map"
pose: 
  position: 
    x: 0.140679091215
    y: -4.43055343628
    z: -3.05025315285
  orientation: 
    x: 0.00567376857532
    y: 0.0260461735191
    z: 0.098191704612
    w: 0.994810441429
---
header: 
  seq: 25356
  stamp: 
    secs: 1723796912
    nsecs: 291128320
  frame_id: "map"
pose: 
  position: 
    x: 0.140703722835
    y: -4.43088769913
    z: -3.05325627327
  orientation: 
    x: 0.00624315142528
    y: 0.0261522834786
    z: 0.0981614431747
    w: 0.994807238268
---
header: 
  seq: 25357
  stamp: 
    secs: 1723796912
    nsecs: 321131392
  frame_id: "map"
pose: 
  position: 
    x: 0.140813246369
    y: -4.431245327
    z: -3.05625724792
  orientation: 
    x: 0.0071107298139
    y: 0.0262930842457
    z: 0.0981822637179
    w: 0.994795690032
---
header: 
  seq: 25358
  stamp: 
    secs: 1723796912
    nsecs: 361131392
  frame_id: "map"
pose: 
  position: 
    x: 0.140864402056
    y: -4.43210697174
    z: -3.05958366394
  orientation: 
    x: 0.00753732704363
    y: 0.0263826331279
    z: 0.0982419858022
    w: 0.994784268236
---
header: 
  seq: 25359
  stamp: 
    secs: 1723796912
    nsecs: 391131392
  frame_id: "map"
pose: 
  position: 
    x: 0.140923991799
    y: -4.43275356293
    z: -3.06272411346
  orientation: 
    x: 0.00804174316079
    y: 0.0264253542272
    z: 0.0981856354658
    w: 0.994784731851
---
header: 
  seq: 25360
  stamp: 
    secs: 1723796912
    nsecs: 431134720
  frame_id: "map"
pose: 
  position: 
    x: 0.141238734126
    y: -4.43344163895
    z: -3.0668027401
  orientation: 
    x: 0.00817356269786
    y: 0.0264682992316
    z: 0.0981218251371
    w: 0.994788862242
---
header: 
  seq: 25361
  stamp: 
    secs: 1723796912
    nsecs: 461134720
  frame_id: "map"
pose: 
  position: 
    x: 0.14132489264
    y: -4.43394565582
    z: -3.0696439743
  orientation: 
    x: 0.00808505563308
    y: 0.0265182234908
    z: 0.0981536038609
    w: 0.994785153319
---
header: 
  seq: 25362
  stamp: 
    secs: 1723796912
    nsecs: 491134720
  frame_id: "map"
pose: 
  position: 
    x: 0.141528904438
    y: -4.43427371979
    z: -3.07326698303
  orientation: 
    x: 0.00771007643897
    y: 0.0265716143282
    z: 0.0981608952657
    w: 0.99478595411
---
header: 
  seq: 25363
  stamp: 
    secs: 1723796912
    nsecs: 521138816
  frame_id: "map"
pose: 
  position: 
    x: 0.141658484936
    y: -4.4345870018
    z: -3.07650852203
  orientation: 
    x: 0.00721115258301
    y: 0.0264995748274
    z: 0.0981144915855
    w: 0.9947961115
---
header: 
  seq: 25364
  stamp: 
    secs: 1723796912
    nsecs: 561138816
  frame_id: "map"
pose: 
  position: 
    x: 0.141395613551
    y: -4.43547153473
    z: -3.0801076889
  orientation: 
    x: 0.00696292081617
    y: 0.0264251066144
    z: 0.0981568070214
    w: 0.994795774325
---
header: 
  seq: 25365
  stamp: 
    secs: 1723796912
    nsecs: 591138816
  frame_id: "map"
pose: 
  position: 
    x: 0.141205042601
    y: -4.4361076355
    z: -3.08273744583
  orientation: 
    x: 0.00649899201536
    y: 0.0262687523432
    z: 0.0982257592655
    w: 0.994796195794
---
header: 
  seq: 25366
  stamp: 
    secs: 1723796912
    nsecs: 631143168
  frame_id: "map"
pose: 
  position: 
    x: 0.141033351421
    y: -4.43697309494
    z: -3.08594655991
  orientation: 
    x: 0.00623962623653
    y: 0.0261522446245
    z: 0.0982210809654
    w: 0.994801379856
---
header: 
  seq: 25367
  stamp: 
    secs: 1723796912
    nsecs: 661143168
  frame_id: "map"
pose: 
  position: 
    x: 0.140907883644
    y: -4.43767356873
    z: -3.08831477165
  orientation: 
    x: 0.00620306384544
    y: 0.0261620727427
    z: 0.0982358323623
    w: 0.99479986257
---
header: 
  seq: 25368
  stamp: 
    secs: 1723796912
    nsecs: 691143168
  frame_id: "map"
pose: 
  position: 
    x: 0.140919953585
    y: -4.43826055527
    z: -3.09064674377
  orientation: 
    x: 0.00640534237652
    y: 0.0261468788038
    z: 0.0982601089471
    w: 0.994796659409
---
header: 
  seq: 25369
  stamp: 
    secs: 1723796912
    nsecs: 731148544
  frame_id: "map"
pose: 
  position: 
    x: 0.141055077314
    y: -4.43891572952
    z: -3.09390544891
  orientation: 
    x: 0.00669087015302
    y: 0.0262184560064
    z: 0.0982651244221
    w: 0.994792318284
---
header: 
  seq: 25370
  stamp: 
    secs: 1723796912
    nsecs: 761148544
  frame_id: "map"
pose: 
  position: 
    x: 0.141179785132
    y: -4.43934345245
    z: -3.09645032883
  orientation: 
    x: 0.0067065863177
    y: 0.0261843559132
    z: 0.0982746496098
    w: 0.99479223399
---
header: 
  seq: 25371
  stamp: 
    secs: 1723796912
    nsecs: 791148544
  frame_id: "map"
pose: 
  position: 
    x: 0.141237869859
    y: -4.43971967697
    z: -3.09871959686
  orientation: 
    x: 0.00665827680969
    y: 0.0261752798528
    z: 0.0982986733135
    w: 0.994790379529
---
header: 
  seq: 25372
  stamp: 
    secs: 1723796912
    nsecs: 821152640
  frame_id: "map"
pose: 
  position: 
    x: 0.141366273165
    y: -4.44001483917
    z: -3.10095763206
  orientation: 
    x: 0.00663979278244
    y: 0.026141296322
    z: 0.098280170847
    w: 0.994793287661
---
header: 
  seq: 25373
  stamp: 
    secs: 1723796912
    nsecs: 861152640
  frame_id: "map"
pose: 
  position: 
    x: 0.141283288598
    y: -4.44062137604
    z: -3.10385704041
  orientation: 
    x: 0.00658917507592
    y: 0.0261319548682
    z: 0.0983310420931
    w: 0.994788862242
---
header: 
  seq: 25374
  stamp: 
    secs: 1723796912
    nsecs: 891152640
  frame_id: "map"
pose: 
  position: 
    x: 0.141332134604
    y: -4.4409737587
    z: -3.10589575768
  orientation: 
    x: 0.00616645140498
    y: 0.0260800892198
    z: 0.0984115425738
    w: 0.994784900438
---
header: 
  seq: 25375
  stamp: 
    secs: 1723796912
    nsecs: 931155712
  frame_id: "map"
pose: 
  position: 
    x: 0.141431182623
    y: -4.44133758545
    z: -3.10864758492
  orientation: 
    x: 0.00571866616424
    y: 0.0260620753933
    z: 0.0983398086376
    w: 0.994795099976
---
header: 
  seq: 25376
  stamp: 
    secs: 1723796912
    nsecs: 961155712
  frame_id: "map"
pose: 
  position: 
    x: 0.141416192055
    y: -4.44164848328
    z: -3.11047339439
  orientation: 
    x: 0.00555800040209
    y: 0.0260270454353
    z: 0.0983767714238
    w: 0.994793371955
---
header: 
  seq: 25377
  stamp: 
    secs: 1723796912
    nsecs: 991155712
  frame_id: "map"
pose: 
  position: 
    x: 0.141547724605
    y: -4.44187402725
    z: -3.11249518394
  orientation: 
    x: 0.00527325958627
    y: 0.0259876401076
    z: 0.0984378422073
    w: 0.994789873767
---
header: 
  seq: 25378
  stamp: 
    secs: 1723796913
    nsecs:  21159808
  frame_id: "map"
pose: 
  position: 
    x: 0.141670584679
    y: -4.44206666946
    z: -3.11460638046
  orientation: 
    x: 0.00490455895549
    y: 0.0259413575996
    z: 0.098406484952
    w: 0.9947961115
---
header: 
  seq: 25379
  stamp: 
    secs: 1723796913
    nsecs:  61159808
  frame_id: "map"
pose: 
  position: 
    x: 0.1414835006
    y: -4.4425535202
    z: -3.11790394783
  orientation: 
    x: 0.00471619612842
    y: 0.0259476223335
    z: 0.0984400759902
    w: 0.994793456249
---
header: 
  seq: 25380
  stamp: 
    secs: 1723796913
    nsecs:  91159808
  frame_id: "map"
pose: 
  position: 
    x: 0.141402900219
    y: -4.44287776947
    z: -3.12057042122
  orientation: 
    x: 0.00449363837777
    y: 0.0258958989307
    z: 0.098505235018
    w: 0.994789410151
---
header: 
  seq: 25381
  stamp: 
    secs: 1723796913
    nsecs: 131163392
  frame_id: "map"
pose: 
  position: 
    x: 0.141421467066
    y: -4.44319009781
    z: -3.1240568161
  orientation: 
    x: 0.00488618358809
    y: 0.0259693161067
    z: 0.0984851731181
    w: 0.994787639984
---
header: 
  seq: 25382
  stamp: 
    secs: 1723796913
    nsecs: 161163392
  frame_id: "map"
pose: 
  position: 
    x: 0.141355350614
    y: -4.44349098206
    z: -3.12664461136
  orientation: 
    x: 0.00532945384768
    y: 0.0261230954689
    z: 0.0984627088479
    w: 0.994783636033
---
header: 
  seq: 25383
  stamp: 
    secs: 1723796913
    nsecs: 191163392
  frame_id: "map"
pose: 
  position: 
    x: 0.141449451447
    y: -4.44378757477
    z: -3.12930774689
  orientation: 
    x: 0.00638136279535
    y: 0.0264429426339
    z: 0.0984965106204
    w: 0.994765597182
---
header: 
  seq: 25384
  stamp: 
    secs: 1723796913
    nsecs: 231167744
  frame_id: "map"
pose: 
  position: 
    x: 0.141667768359
    y: -4.44412899017
    z: -3.13293981552
  orientation: 
    x: 0.00721801066551
    y: 0.026760467771
    z: 0.098363073698
    w: 0.994764501364
---
header: 
  seq: 25385
  stamp: 
    secs: 1723796913
    nsecs: 261167744
  frame_id: "map"
pose: 
  position: 
    x: 0.141698464751
    y: -4.44455528259
    z: -3.13566493988
  orientation: 
    x: 0.00751726119248
    y: 0.0268924848714
    z: 0.0983110223401
    w: 0.994763869161
---
header: 
  seq: 25386
  stamp: 
    secs: 1723796913
    nsecs: 291167744
  frame_id: "map"
pose: 
  position: 
    x: 0.141701102257
    y: -4.44487953186
    z: -3.13832163811
  orientation: 
    x: 0.00802534540254
    y: 0.0270542194513
    z: 0.0982690019321
    w: 0.994759696623
---
header: 
  seq: 25387
  stamp: 
    secs: 1723796913
    nsecs: 321172352
  frame_id: "map"
pose: 
  position: 
    x: 0.141726925969
    y: -4.44510269165
    z: -3.14088559151
  orientation: 
    x: 0.00842303121129
    y: 0.0272138071761
    z: 0.0982236519231
    w: 0.994756493462
---
header: 
  seq: 25388
  stamp: 
    secs: 1723796913
    nsecs: 361172352
  frame_id: "map"
pose: 
  position: 
    x: 0.141623929143
    y: -4.44576978683
    z: -3.14353513718
  orientation: 
    x: 0.00845392089998
    y: 0.0272257966374
    z: 0.0982188471824
    w: 0.994756409169
---
header: 
  seq: 25389
  stamp: 
    secs: 1723796913
    nsecs: 391172352
  frame_id: "map"
pose: 
  position: 
    x: 0.141607299447
    y: -4.44617271423
    z: -3.14552807808
  orientation: 
    x: 0.00796860125647
    y: 0.027166162798
    z: 0.0982102913721
    w: 0.99476294193
---
header: 
  seq: 25390
  stamp: 
    secs: 1723796913
    nsecs: 431175424
  frame_id: "map"
pose: 
  position: 
    x: 0.141669586301
    y: -4.44655561447
    z: -3.14827942848
  orientation: 
    x: 0.00728437351267
    y: 0.0270470821459
    z: 0.098197520877
    w: 0.994772677852
---
header: 
  seq: 25391
  stamp: 
    secs: 1723796913
    nsecs: 461175424
  frame_id: "map"
pose: 
  position: 
    x: 0.141723677516
    y: -4.44696712494
    z: -3.15073156357
  orientation: 
    x: 0.00700398831023
    y: 0.0270133521547
    z: 0.098203927198
    w: 0.994774953782
---
header: 
  seq: 25392
  stamp: 
    secs: 1723796913
    nsecs: 492175424
  frame_id: "map"
pose: 
  position: 
    x: 0.141806617379
    y: -4.4473028183
    z: -3.15331196785
  orientation: 
    x: 0.00635562490034
    y: 0.0269093864162
    z: 0.0982243262727
    w: 0.994780095698
---
header: 
  seq: 25393
  stamp: 
    secs: 1723796913
    nsecs: 521180032
  frame_id: "map"
pose: 
  position: 
    x: 0.141915425658
    y: -4.44759273529
    z: -3.15600895882
  orientation: 
    x: 0.00564209916993
    y: 0.0267336268139
    z: 0.098246495515
    w: 0.994786923487
---
header: 
  seq: 25394
  stamp: 
    secs: 1723796913
    nsecs: 561180032
  frame_id: "map"
pose: 
  position: 
    x: 0.141723111272
    y: -4.44812202454
    z: -3.15870404243
  orientation: 
    x: 0.00526977720291
    y: 0.0266770519138
    z: 0.0982738909665
    w: 0.994787935011
---
header: 
  seq: 25395
  stamp: 
    secs: 1723796913
    nsecs: 592180032
  frame_id: "map"
pose: 
  position: 
    x: 0.1416541785
    y: -4.44848823547
    z: -3.16042947769
  orientation: 
    x: 0.00464809340667
    y: 0.0265138902679
    z: 0.0983023400893
    w: 0.994792444724
---
header: 
  seq: 25396
  stamp: 
    secs: 1723796913
    nsecs: 632183360
  frame_id: "map"
pose: 
  position: 
    x: 0.141634821892
    y: -4.44893598557
    z: -3.16254997253
  orientation: 
    x: 0.00439525577954
    y: 0.0264588293616
    z: 0.0983692692847
    w: 0.994788482921
---
header: 
  seq: 25397
  stamp: 
    secs: 1723796913
    nsecs: 662183360
  frame_id: "map"
pose: 
  position: 
    x: 0.141484677792
    y: -4.4493098259
    z: -3.16376423836
  orientation: 
    x: 0.0044454256758
    y: 0.0264699567882
    z: 0.0983650967467
    w: 0.994788440774
---
header: 
  seq: 25398
  stamp: 
    secs: 1723796913
    nsecs: 692183360
  frame_id: "map"
pose: 
  position: 
    x: 0.141449645162
    y: -4.44967508316
    z: -3.16515517235
  orientation: 
    x: 0.00468383393421
    y: 0.0265742261157
    z: 0.0983897948
    w: 0.994782118746
---
header: 
  seq: 25399
  stamp: 
    secs: 1723796913
    nsecs: 722189504
  frame_id: "map"
pose: 
  position: 
    x: 0.141481563449
    y: -4.44999837875
    z: -3.16653585434
  orientation: 
    x: 0.00510444565291
    y: 0.0267052191795
    z: 0.098368089173
    w: 0.994778704852
---
header: 
  seq: 25400
  stamp: 
    secs: 1723796913
    nsecs: 762189504
  frame_id: "map"
pose: 
  position: 
    x: 0.141518548131
    y: -4.45049238205
    z: -3.16834592819
  orientation: 
    x: 0.00525982593685
    y: 0.0267710966793
    z: 0.098336099715
    w: 0.994779168467
---
header: 
  seq: 25401
  stamp: 
    secs: 1723796913
    nsecs: 792189504
  frame_id: "map"
pose: 
  position: 
    x: 0.141661673784
    y: -4.45084142685
    z: -3.16986560822
  orientation: 
    x: 0.00564003990126
    y: 0.0268503755599
    z: 0.0984026495887
    w: 0.994768421021
---
header: 
  seq: 25402
  stamp: 
    secs: 1723796913
    nsecs: 822193088
  frame_id: "map"
pose: 
  position: 
    x: 0.14178198576
    y: -4.45116424561
    z: -3.17134523392
  orientation: 
    x: 0.00619501643156
    y: 0.0269782069514
    z: 0.0983930401073
    w: 0.994762689049
---
header: 
  seq: 25403
  stamp: 
    secs: 1723796913
    nsecs: 862193088
  frame_id: "map"
pose: 
  position: 
    x: 0.141721323133
    y: -4.4518494606
    z: -3.17422628403
  orientation: 
    x: 0.00645752412624
    y: 0.0270127818552
    z: 0.098337195533
    w: 0.994765512888
---
header: 
  seq: 25404
  stamp: 
    secs: 1723796913
    nsecs: 892193088
  frame_id: "map"
pose: 
  position: 
    x: 0.141820639372
    y: -4.45230388641
    z: -3.17658805847
  orientation: 
    x: 0.00707955168271
    y: 0.0271906250923
    z: 0.0983325172328
    w: 0.994756957078
---
header: 
  seq: 25405
  stamp: 
    secs: 1723796913
    nsecs: 932196672
  frame_id: "map"
pose: 
  position: 
    x: 0.141908913851
    y: -4.45287322998
    z: -3.1797542572
  orientation: 
    x: 0.00761224635958
    y: 0.0273201838461
    z: 0.0983466785739
    w: 0.994748021946
---
header: 
  seq: 25406
  stamp: 
    secs: 1723796913
    nsecs: 962196672
  frame_id: "map"
pose: 
  position: 
    x: 0.141776159406
    y: -4.45335960388
    z: -3.18199563026
  orientation: 
    x: 0.00792506487904
    y: 0.0274289339105
    z: 0.0982845541192
    w: 0.994748696296
---
header: 
  seq: 25407
  stamp: 
    secs: 1723796913
    nsecs: 992196672
  frame_id: "map"
pose: 
  position: 
    x: 0.141682416201
    y: -4.45382547379
    z: -3.18412089348
  orientation: 
    x: 0.00866877367989
    y: 0.02753455523
    z: 0.0982403420751
    w: 0.994744017995
---
header: 
  seq: 25408
  stamp: 
    secs: 1723796914
    nsecs:  22200000
  frame_id: "map"
pose: 
  position: 
    x: 0.141654878855
    y: -4.45425653458
    z: -3.18624043465
  orientation: 
    x: 0.00999843957887
    y: 0.0278024129402
    z: 0.0982439245573
    w: 0.994723745361
---
header: 
  seq: 25409
  stamp: 
    secs: 1723796914
    nsecs:  62200000
  frame_id: "map"
pose: 
  position: 
    x: 0.141657859087
    y: -4.45510625839
    z: -3.18885064125
  orientation: 
    x: 0.0104754576103
    y: 0.0279295699822
    z: 0.0981474925679
    w: 0.994724756886
---
header: 
  seq: 25410
  stamp: 
    secs: 1723796914
    nsecs:  92200000
  frame_id: "map"
pose: 
  position: 
    x: 0.141743198037
    y: -4.45566558838
    z: -3.19072890282
  orientation: 
    x: 0.0110409886334
    y: 0.0281134915851
    z: 0.0980812798689
    w: 0.994719994292
---
header: 
  seq: 25411
  stamp: 
    secs: 1723796914
    nsecs: 132203072
  frame_id: "map"
pose: 
  position: 
    x: 0.141930609941
    y: -4.45620393753
    z: -3.19322443008
  orientation: 
    x: 0.0112434061174
    y: 0.0281426736679
    z: 0.0981085488798
    w: 0.994714220173
---
header: 
  seq: 25412
  stamp: 
    secs: 1723796914
    nsecs: 162203072
  frame_id: "map"
pose: 
  position: 
    x: 0.141972437501
    y: -4.45653533936
    z: -3.19481801987
  orientation: 
    x: 0.0113211578333
    y: 0.0281799775801
    z: 0.0981326147303
    w: 0.994709879048
---
header: 
  seq: 25413
  stamp: 
    secs: 1723796914
    nsecs: 192203072
  frame_id: "map"
pose: 
  position: 
    x: 0.142118394375
    y: -4.45674467087
    z: -3.19640111923
  orientation: 
    x: 0.0114065618363
    y: 0.0282334474429
    z: 0.0980708274504
    w: 0.994713587971
---
header: 
  seq: 25414
  stamp: 
    secs: 1723796914
    nsecs: 222208704
  frame_id: "map"
pose: 
  position: 
    x: 0.142394661903
    y: -4.45685911179
    z: -3.19811153412
  orientation: 
    x: 0.0112287212334
    y: 0.0283737483746
    z: 0.0981059779221
    w: 0.994708024587
---
header: 
  seq: 25415
  stamp: 
    secs: 1723796914
    nsecs: 262208704
  frame_id: "map"
pose: 
  position: 
    x: 0.142359033227
    y: -4.4573931694
    z: -3.20048189163
  orientation: 
    x: 0.0110397723017
    y: 0.0283699834757
    z: 0.0981483355048
    w: 0.994706127979
---
header: 
  seq: 25416
  stamp: 
    secs: 1723796914
    nsecs: 292208704
  frame_id: "map"
pose: 
  position: 
    x: 0.142337068915
    y: -4.45772027969
    z: -3.20236778259
  orientation: 
    x: 0.0100752923815
    y: 0.0282887711084
    z: 0.0981106562223
    w: 0.994722396662
---
header: 
  seq: 25417
  stamp: 
    secs: 1723796914
    nsecs: 322211776
  frame_id: "map"
pose: 
  position: 
    x: 0.142284110188
    y: -4.45804309845
    z: -3.20440578461
  orientation: 
    x: 0.00918055100755
    y: 0.0280545749007
    z: 0.0981090967889
    w: 0.994737864555
---
header: 
  seq: 25418
  stamp: 
    secs: 1723796914
    nsecs: 362211776
  frame_id: "map"
pose: 
  position: 
    x: 0.141995072365
    y: -4.45845222473
    z: -3.20708346367
  orientation: 
    x: 0.00883939268374
    y: 0.0279129595141
    z: 0.0981960457373
    w: 0.994736305122
---
header: 
  seq: 25419
  stamp: 
    secs: 1723796914
    nsecs: 392211776
  frame_id: "map"
pose: 
  position: 
    x: 0.141817316413
    y: -4.4587225914
    z: -3.20914196968
  orientation: 
    x: 0.00822830618572
    y: 0.027739008275
    z: 0.0982363802714
    w: 0.994742416415
---
header: 
  seq: 25420
  stamp: 
    secs: 1723796914
    nsecs: 432214848
  frame_id: "map"
pose: 
  position: 
    x: 0.141768231988
    y: -4.45899581909
    z: -3.21198034286
  orientation: 
    x: 0.00819626404414
    y: 0.0277246599073
    z: 0.0982149696723
    w: 0.994745198107
---
header: 
  seq: 25421
  stamp: 
    secs: 1723796914
    nsecs: 462214848
  frame_id: "map"
pose: 
  position: 
    x: 0.141716584563
    y: -4.45920276642
    z: -3.21405649185
  orientation: 
    x: 0.00843542436039
    y: 0.0278009476787
    z: 0.0982170348679
    w: 0.994740856982
---
header: 
  seq: 25422
  stamp: 
    secs: 1723796914
    nsecs: 492214848
  frame_id: "map"
pose: 
  position: 
    x: 0.141720101237
    y: -4.45948505402
    z: -3.21621203423
  orientation: 
    x: 0.00913640679355
    y: 0.0278856588929
    z: 0.098301581446
    w: 0.994723913949
---
header: 
  seq: 25423
  stamp: 
    secs: 1723796914
    nsecs: 522220992
  frame_id: "map"
pose: 
  position: 
    x: 0.141652330756
    y: -4.45983695984
    z: -3.2181854248
  orientation: 
    x: 0.00991569741271
    y: 0.0278773974521
    z: 0.0983017921803
    w: 0.994716706837
---
header: 
  seq: 25424
  stamp: 
    secs: 1723796914
    nsecs: 562220992
  frame_id: "map"
pose: 
  position: 
    x: 0.141112655401
    y: -4.46066904068
    z: -3.22030448914
  orientation: 
    x: 0.0101581043534
    y: 0.0278047132362
    z: 0.0983041524038
    w: 0.994716032488
---
header: 
  seq: 25425
  stamp: 
    secs: 1723796914
    nsecs: 592220992
  frame_id: "map"
pose: 
  position: 
    x: 0.140782266855
    y: -4.4611530304
    z: -3.22200012207
  orientation: 
    x: 0.010615667663
    y: 0.0276805631085
    z: 0.0983565830833
    w: 0.994709626167
---
header: 
  seq: 25426
  stamp: 
    secs: 1723796914
    nsecs: 622226624
  frame_id: "map"
pose: 
  position: 
    x: 0.140575021505
    y: -4.46146678925
    z: -3.22362065315
  orientation: 
    x: 0.0110176939386
    y: 0.0275145038668
    z: 0.0983016657397
    w: 0.994715231698
---
header: 
  seq: 25427
  stamp: 
    secs: 1723796914
    nsecs: 662226624
  frame_id: "map"
pose: 
  position: 
    x: 0.140399962664
    y: -4.46186304092
    z: -3.22592735291
  orientation: 
    x: 0.0110454443456
    y: 0.0275160586904
    z: 0.0983204632342
    w: 0.994713040062
---
header: 
  seq: 25428
  stamp: 
    secs: 1723796914
    nsecs: 692226624
  frame_id: "map"
pose: 
  position: 
    x: 0.140421420336
    y: -4.46191835403
    z: -3.22761511803
  orientation: 
    x: 0.0105947871922
    y: 0.027479395542
    z: 0.0983640430755
    w: 0.994714557348
---
header: 
  seq: 25429
  stamp: 
    secs: 1723796914
    nsecs: 722229696
  frame_id: "map"
pose: 
  position: 
    x: 0.140542000532
    y: -4.46190977097
    z: -3.22936248779
  orientation: 
    x: 0.00937972845254
    y: 0.0274247804703
    z: 0.0983390078475
    w: 0.994730826032
---
header: 
  seq: 25430
  stamp: 
    secs: 1723796914
    nsecs: 762229696
  frame_id: "map"
pose: 
  position: 
    x: 0.140274897218
    y: -4.46225070953
    z: -3.23076844215
  orientation: 
    x: 0.00872120896925
    y: 0.0273507245062
    z: 0.0983921971703
    w: 0.994733607724
---
header: 
  seq: 25431
  stamp: 
    secs: 1723796914
    nsecs: 792229696
  frame_id: "map"
pose: 
  position: 
    x: 0.140066593885
    y: -4.4624505043
    z: -3.23165917397
  orientation: 
    x: 0.00771989138632
    y: 0.0271235878956
    z: 0.0984422254795
    w: 0.994743090765
---
header: 
  seq: 25432
  stamp: 
    secs: 1723796914
    nsecs: 832233024
  frame_id: "map"
pose: 
  position: 
    x: 0.139839425683
    y: -4.46281433105
    z: -3.23297357559
  orientation: 
    x: 0.00755992236425
    y: 0.0270780515185
    z: 0.0985000509557
    w: 0.994739887604
---
header: 
  seq: 25433
  stamp: 
    secs: 1723796914
    nsecs: 862233024
  frame_id: "map"
pose: 
  position: 
    x: 0.13955591619
    y: -4.46326494217
    z: -3.23394441605
  orientation: 
    x: 0.00777216862499
    y: 0.0271058579018
    z: 0.0985480562161
    w: 0.994732764787
---
header: 
  seq: 25434
  stamp: 
    secs: 1723796914
    nsecs: 892233024
  frame_id: "map"
pose: 
  position: 
    x: 0.139320537448
    y: -4.46378564835
    z: -3.23495650291
  orientation: 
    x: 0.00825500884843
    y: 0.0271538256252
    z: 0.0985735129126
    w: 0.99472509406
---
header: 
  seq: 25435
  stamp: 
    secs: 1723796914
    nsecs: 922237120
  frame_id: "map"
pose: 
  position: 
    x: 0.139149263501
    y: -4.46430397034
    z: -3.23623514175
  orientation: 
    x: 0.00907376406432
    y: 0.0272715944567
    z: 0.098547255426
    w: 0.994717296893
---
header: 
  seq: 25436
  stamp: 
    secs: 1723796914
    nsecs: 963237120
  frame_id: "map"
pose: 
  position: 
    x: 0.138766601682
    y: -4.46508169174
    z: -3.23785448074
  orientation: 
    x: 0.00939593589142
    y: 0.0273386540439
    z: 0.0985220094637
    w: 0.994714894523
---
header: 
  seq: 25437
  stamp: 
    secs: 1723796914
    nsecs: 992237120
  frame_id: "map"
pose: 
  position: 
    x: 0.138609901071
    y: -4.46555948257
    z: -3.23929142952
  orientation: 
    x: 0.0103610756733
    y: 0.0274968015319
    z: 0.0985614589139
    w: 0.994697108553
---
header: 
  seq: 25438
  stamp: 
    secs: 1723796915
    nsecs:  22240448
  frame_id: "map"
pose: 
  position: 
    x: 0.138557881117
    y: -4.46591472626
    z: -3.24092292786
  orientation: 
    x: 0.0108167832044
    y: 0.027654322744
    z: 0.0985286265189
    w: 0.994691081554
---
header: 
  seq: 25439
  stamp: 
    secs: 1723796915
    nsecs:  63240448
  frame_id: "map"
pose: 
  position: 
    x: 0.1384242028
    y: -4.46648311615
    z: -3.24277114868
  orientation: 
    x: 0.0108209445472
    y: 0.0276867659392
    z: 0.0985108826957
    w: 0.994691882344
---
header: 
  seq: 25440
  stamp: 
    secs: 1723796915
    nsecs:  92240448
  frame_id: "map"
pose: 
  position: 
    x: 0.138446122408
    y: -4.46676921844
    z: -3.24442601204
  orientation: 
    x: 0.0105518533831
    y: 0.0277108074235
    z: 0.0985272356729
    w: 0.9946924724
---
header: 
  seq: 25441
  stamp: 
    secs: 1723796915
    nsecs: 123243520
  frame_id: "map"
pose: 
  position: 
    x: 0.138433977962
    y: -4.46701145172
    z: -3.24605822563
  orientation: 
    x: 0.00999924563734
    y: 0.0276452078295
    z: 0.0985630604942
    w: 0.994696518497
---
header: 
  seq: 25442
  stamp: 
    secs: 1723796915
    nsecs: 163243520
  frame_id: "map"
pose: 
  position: 
    x: 0.138064771891
    y: -4.46755075455
    z: -3.24813628197
  orientation: 
    x: 0.00971145773609
    y: 0.0275650906217
    z: 0.0985665165358
    w: 0.994701238944
---
header: 
  seq: 25443
  stamp: 
    secs: 1723796915
    nsecs: 193243520
  frame_id: "map"
pose: 
  position: 
    x: 0.137827649713
    y: -4.46791887283
    z: -3.24981594086
  orientation: 
    x: 0.00929877686889
    y: 0.0274623840202
    z: 0.0985706469269
    w: 0.994707645265
---
header: 
  seq: 25444
  stamp: 
    secs: 1723796915
    nsecs: 223246592
  frame_id: "map"
pose: 
  position: 
    x: 0.137657374144
    y: -4.46828365326
    z: -3.25135207176
  orientation: 
    x: 0.00929100472661
    y: 0.0274220982185
    z: 0.0986508102328
    w: 0.994700901769
---
header: 
  seq: 25445
  stamp: 
    secs: 1723796915
    nsecs: 263246592
  frame_id: "map"
pose: 
  position: 
    x: 0.137188047171
    y: -4.46890306473
    z: -3.25323486328
  orientation: 
    x: 0.00936927603411
    y: 0.0274125894944
    z: 0.0986447832334
    w: 0.99470102821
---
header: 
  seq: 25446
  stamp: 
    secs: 1723796915
    nsecs: 293246592
  frame_id: "map"
pose: 
  position: 
    x: 0.136956930161
    y: -4.46931791306
    z: -3.25511598587
  orientation: 
    x: 0.00989695194329
    y: 0.027523361949
    z: 0.0986471013101
    w: 0.994692556693
---
header: 
  seq: 25447
  stamp: 
    secs: 1723796915
    nsecs: 323250176
  frame_id: "map"
pose: 
  position: 
    x: 0.136854976416
    y: -4.46965169907
    z: -3.25718998909
  orientation: 
    x: 0.0104896782204
    y: 0.0276457070062
    z: 0.0986884473685
    w: 0.994678943261
---
header: 
  seq: 25448
  stamp: 
    secs: 1723796915
    nsecs: 363250176
  frame_id: "map"
pose: 
  position: 
    x: 0.136492207646
    y: -4.47007274628
    z: -3.26012039185
  orientation: 
    x: 0.0109220568124
    y: 0.0277495495969
    z: 0.0986676689722
    w: 0.994673590611
---
header: 
  seq: 25449
  stamp: 
    secs: 1723796915
    nsecs: 393250176
  frame_id: "map"
pose: 
  position: 
    x: 0.136294424534
    y: -4.47034358978
    z: -3.26236057281
  orientation: 
    x: 0.0114662924818
    y: 0.0278644168813
    z: 0.0986382926188
    w: 0.99466705785
---
header: 
  seq: 25450
  stamp: 
    secs: 1723796915
    nsecs: 423253760
  frame_id: "map"
pose: 
  position: 
    x: 0.136136189103
    y: -4.47053813934
    z: -3.26477074623
  orientation: 
    x: 0.0118636727259
    y: 0.0280276292351
    z: 0.0986766883978
    w: 0.994654034474
---
header: 
  seq: 25451
  stamp: 
    secs: 1723796915
    nsecs: 463253760
  frame_id: "map"
pose: 
  position: 
    x: 0.135705411434
    y: -4.47089862823
    z: -3.26790595055
  orientation: 
    x: 0.012014113926
    y: 0.0280091972328
    z: 0.0986695234335
    w: 0.994653528712
---
header: 
  seq: 25452
  stamp: 
    secs: 1723796915
    nsecs: 493253760
  frame_id: "map"
pose: 
  position: 
    x: 0.135460853577
    y: -4.47114181519
    z: -3.27012205124
  orientation: 
    x: 0.0119353223683
    y: 0.028039909773
    z: 0.0986090005591
    w: 0.994659513564
---
header: 
  seq: 25453
  stamp: 
    secs: 1723796915
    nsecs: 523259648
  frame_id: "map"
pose: 
  position: 
    x: 0.135260775685
    y: -4.47129058838
    z: -3.27259278297
  orientation: 
    x: 0.0116164004584
    y: 0.0280003490288
    z: 0.098642675891
    w: 0.994661072997
---
header: 
  seq: 25454
  stamp: 
    secs: 1723796915
    nsecs: 563259648
  frame_id: "map"
pose: 
  position: 
    x: 0.134890958667
    y: -4.47170972824
    z: -3.27596735954
  orientation: 
    x: 0.0115098565181
    y: 0.0280031195256
    z: 0.0986489979183
    w: 0.994661663053
---
header: 
  seq: 25455
  stamp: 
    secs: 1723796915
    nsecs: 593259648
  frame_id: "map"
pose: 
  position: 
    x: 0.134739950299
    y: -4.4719171524
    z: -3.27839684486
  orientation: 
    x: 0.0112497413156
    y: 0.0280495238643
    z: 0.0986457104641
    w: 0.994663601808
---
header: 
  seq: 25456
  stamp: 
    secs: 1723796915
    nsecs: 623263232
  frame_id: "map"
pose: 
  position: 
    x: 0.134607434273
    y: -4.47212791443
    z: -3.2808265686
  orientation: 
    x: 0.0109844137333
    y: 0.028091125438
    z: 0.0986342043745
    w: 0.994666509941
---
header: 
  seq: 25457
  stamp: 
    secs: 1723796915
    nsecs: 665263232
  frame_id: "map"
pose: 
  position: 
    x: 0.134382769465
    y: -4.47250032425
    z: -3.28392100334
  orientation: 
    x: 0.0108090255501
    y: 0.0281050490445
    z: 0.0986465534011
    w: 0.994666889263
---
header: 
  seq: 25458
  stamp: 
    secs: 1723796915
    nsecs: 693263232
  frame_id: "map"
pose: 
  position: 
    x: 0.134211793542
    y: -4.4727101326
    z: -3.28621053696
  orientation: 
    x: 0.0104913048254
    y: 0.0281065551358
    z: 0.0986381240314
    w: 0.994671103947
---
header: 
  seq: 25459
  stamp: 
    secs: 1723796915
    nsecs: 723269632
  frame_id: "map"
pose: 
  position: 
    x: 0.134038865566
    y: -4.47287416458
    z: -3.28853940964
  orientation: 
    x: 0.0105267904962
    y: 0.0281188876988
    z: 0.0986849070332
    w: 0.994665709151
---
header: 
  seq: 25460
  stamp: 
    secs: 1723796915
    nsecs: 763269632
  frame_id: "map"
pose: 
  position: 
    x: 0.133446604013
    y: -4.47317647934
    z: -3.29138731956
  orientation: 
    x: 0.0106263196204
    y: 0.028111691783
    z: 0.0986928727876
    w: 0.994664065424
---
header: 
  seq: 25461
  stamp: 
    secs: 1723796915
    nsecs: 793269632
  frame_id: "map"
pose: 
  position: 
    x: 0.133050337434
    y: -4.47335958481
    z: -3.29335331917
  orientation: 
    x: 0.0110124071433
    y: 0.0281247533547
    z: 0.098666320273
    w: 0.994662126669
---
header: 
  seq: 25462
  stamp: 
    secs: 1723796915
    nsecs: 823273216
  frame_id: "map"
pose: 
  position: 
    x: 0.132767617702
    y: -4.4734954834
    z: -3.29514718056
  orientation: 
    x: 0.0112945045614
    y: 0.0282177181073
    z: 0.0986796386772
    w: 0.994655045998
---
header: 
  seq: 25463
  stamp: 
    secs: 1723796915
    nsecs: 863273216
  frame_id: "map"
pose: 
  position: 
    x: 0.132485389709
    y: -4.47398757935
    z: -3.29759716988
  orientation: 
    x: 0.0115617248006
    y: 0.0282820039051
    z: 0.0987268431475
    w: 0.994645436517
---
header: 
  seq: 25464
  stamp: 
    secs: 1723796915
    nsecs: 893273216
  frame_id: "map"
pose: 
  position: 
    x: 0.132352009416
    y: -4.47423171997
    z: -3.2992041111
  orientation: 
    x: 0.0118862140458
    y: 0.0283767335569
    z: 0.0986629063783
    w: 0.994645225782
---
header: 
  seq: 25465
  stamp: 
    secs: 1723796915
    nsecs: 923276544
  frame_id: "map"
pose: 
  position: 
    x: 0.132274523377
    y: -4.47439193726
    z: -3.30069565773
  orientation: 
    x: 0.0118658979478
    y: 0.0284329824775
    z: 0.0986533390437
    w: 0.994644930754
---
header: 
  seq: 25466
  stamp: 
    secs: 1723796915
    nsecs: 963276544
  frame_id: "map"
pose: 
  position: 
    x: 0.131915479898
    y: -4.47496700287
    z: -3.30193090439
  orientation: 
    x: 0.0117882970386
    y: 0.0284376956806
    z: 0.0986895431866
    w: 0.994642022622
---
header: 
  seq: 25467
  stamp: 
    secs: 1723796915
    nsecs: 993276544
  frame_id: "map"
pose: 
  position: 
    x: 0.131663873792
    y: -4.47528791428
    z: -3.30289006233
  orientation: 
    x: 0.0111126481541
    y: 0.0283027421302
    z: 0.0986618105602
    w: 0.994656436844
---
header: 
  seq: 25468
  stamp: 
    secs: 1723796916
    nsecs:  23282688
  frame_id: "map"
pose: 
  position: 
    x: 0.131468236446
    y: -4.47554111481
    z: -3.30381011963
  orientation: 
    x: 0.0100745047623
    y: 0.0280852624162
    z: 0.0986915240884
    w: 0.994670724626
---
header: 
  seq: 25469
  stamp: 
    secs: 1723796916
    nsecs:  63282688
  frame_id: "map"
pose: 
  position: 
    x: 0.131159722805
    y: -4.47599887848
    z: -3.30545306206
  orientation: 
    x: 0.00971993517954
    y: 0.0280371978868
    z: 0.0987204368265
    w: 0.994672747674
---
header: 
  seq: 25470
  stamp: 
    secs: 1723796916
    nsecs:  93282688
  frame_id: "map"
pose: 
  position: 
    x: 0.131019949913
    y: -4.47625541687
    z: -3.30672979355
  orientation: 
    x: 0.00904840944222
    y: 0.0279583095231
    z: 0.0987635530525
    w: 0.994676920213
---
header: 
  seq: 25471
  stamp: 
    secs: 1723796916
    nsecs: 123286528
  frame_id: "map"
pose: 
  position: 
    x: 0.130948930979
    y: -4.47649431229
    z: -3.30794811249
  orientation: 
    x: 0.00900527938676
    y: 0.0279647507469
    z: 0.0988114740193
    w: 0.9946724105
---
header: 
  seq: 25472
  stamp: 
    secs: 1723796916
    nsecs: 163286528
  frame_id: "map"
pose: 
  position: 
    x: 0.130923271179
    y: -4.4768652916
    z: -3.30936455727
  orientation: 
    x: 0.00912019079359
    y: 0.027998820547
    z: 0.0988276162623
    w: 0.994668828018
---
header: 
  seq: 25473
  stamp: 
    secs: 1723796916
    nsecs: 193286528
  frame_id: "map"
pose: 
  position: 
    x: 0.130864784122
    y: -4.47721147537
    z: -3.31010460854
  orientation: 
    x: 0.00952796221147
    y: 0.0280661442106
    z: 0.0988614180348
    w: 0.994659724298
---
header: 
  seq: 25474
  stamp: 
    secs: 1723796916
    nsecs: 223290880
  frame_id: "map"
pose: 
  position: 
    x: 0.130753755569
    y: -4.47755336761
    z: -3.31083846092
  orientation: 
    x: 0.0101566087988
    y: 0.0280712071008
    z: 0.0988253403325
    w: 0.9946570269
---
header: 
  seq: 25475
  stamp: 
    secs: 1723796916
    nsecs: 263290880
  frame_id: "map"
pose: 
  position: 
    x: 0.130334556103
    y: -4.47803974152
    z: -3.31139183044
  orientation: 
    x: 0.0105383314887
    y: 0.0280949608012
    z: 0.0988374786248
    w: 0.994651126341
---
header: 
  seq: 25476
  stamp: 
    secs: 1723796916
    nsecs: 293290880
  frame_id: "map"
pose: 
  position: 
    x: 0.130085274577
    y: -4.4782743454
    z: -3.31188368797
  orientation: 
    x: 0.0112802885611
    y: 0.0281948896619
    z: 0.0988837980113
    w: 0.994635574154
---
header: 
  seq: 25477
  stamp: 
    secs: 1723796916
    nsecs: 323296768
  frame_id: "map"
pose: 
  position: 
    x: 0.129927620292
    y: -4.47844076157
    z: -3.3123626709
  orientation: 
    x: 0.0119506420892
    y: 0.028296273906
    z: 0.0988903729197
    w: 0.994624194505
---
header: 
  seq: 25478
  stamp: 
    secs: 1723796916
    nsecs: 363296768
  frame_id: "map"
pose: 
  position: 
    x: 0.12969212234
    y: -4.4787735939
    z: -3.31322431564
  orientation: 
    x: 0.0121283964228
    y: 0.0283533697148
    z: 0.0989025955058
    w: 0.994619221177
---
header: 
  seq: 25479
  stamp: 
    secs: 1723796916
    nsecs: 393296768
  frame_id: "map"
pose: 
  position: 
    x: 0.129501819611
    y: -4.47896337509
    z: -3.3141438961
  orientation: 
    x: 0.0122832656762
    y: 0.0284016719789
    z: 0.0989127528963
    w: 0.994614880051
---
header: 
  seq: 25480
  stamp: 
    secs: 1723796916
    nsecs: 424299840
  frame_id: "map"
pose: 
  position: 
    x: 0.129332497716
    y: -4.47908496857
    z: -3.31512951851
  orientation: 
    x: 0.0120865953102
    y: 0.02835499171
    z: 0.0988871697592
    w: 0.994621244226
---
header: 
  seq: 25481
  stamp: 
    secs: 1723796916
    nsecs: 463299840
  frame_id: "map"
pose: 
  position: 
    x: 0.129067108035
    y: -4.47974681854
    z: -3.31652331352
  orientation: 
    x: 0.0117630207833
    y: 0.0282630588967
    z: 0.0989102240854
    w: 0.994625416764
---
header: 
  seq: 25482
  stamp: 
    secs: 1723796916
    nsecs: 493299840
  frame_id: "map"
pose: 
  position: 
    x: 0.128880500793
    y: -4.48015546799
    z: -3.3172314167
  orientation: 
    x: 0.0112570557694
    y: 0.0281467546682
    z: 0.0989784598331
    w: 0.99462773484
---
header: 
  seq: 25483
  stamp: 
    secs: 1723796916
    nsecs: 524303168
  frame_id: "map"
pose: 
  position: 
    x: 0.128674671054
    y: -4.48055744171
    z: -3.31784582138
  orientation: 
    x: 0.0109439297097
    y: 0.0280377141856
    z: 0.098971800631
    w: 0.994634984098
---
header: 
  seq: 25484
  stamp: 
    secs: 1723796916
    nsecs: 564303168
  frame_id: "map"
pose: 
  position: 
    x: 0.128394842148
    y: -4.48120117188
    z: -3.31846284866
  orientation: 
    x: 0.0108886613618
    y: 0.027978956869
    z: 0.0990002919006
    w: 0.994634478336
---
header: 
  seq: 25485
  stamp: 
    secs: 1723796916
    nsecs: 594303168
  frame_id: "map"
pose: 
  position: 
    x: 0.128234341741
    y: -4.48160600662
    z: -3.31902575493
  orientation: 
    x: 0.0109253113393
    y: 0.0279635278297
    z: 0.099074470354
    w: 0.994627144784
---
header: 
  seq: 25486
  stamp: 
    secs: 1723796916
    nsecs: 624308800
  frame_id: "map"
pose: 
  position: 
    x: 0.128096610308
    y: -4.48195028305
    z: -3.31962394714
  orientation: 
    x: 0.0110862662025
    y: 0.0280022752715
    z: 0.0990313962748
    w: 0.994628577777
---
header: 
  seq: 25487
  stamp: 
    secs: 1723796916
    nsecs: 664308800
  frame_id: "map"
pose: 
  position: 
    x: 0.128071635962
    y: -4.48270940781
    z: -3.32028007507
  orientation: 
    x: 0.0112446922548
    y: 0.028030143558
    z: 0.0990566843839
    w: 0.994623435862
---
header: 
  seq: 25488
  stamp: 
    secs: 1723796916
    nsecs: 694308800
  frame_id: "map"
pose: 
  position: 
    x: 0.128045782447
    y: -4.48315858841
    z: -3.3209400177
  orientation: 
    x: 0.0116101074071
    y: 0.0281089561891
    z: 0.0990748075288
    w: 0.994615175079
---
header: 
  seq: 25489
  stamp: 
    secs: 1723796916
    nsecs: 724314176
  frame_id: "map"
pose: 
  position: 
    x: 0.12804107368
    y: -4.48356819153
    z: -3.3219730854
  orientation: 
    x: 0.0118940606036
    y: 0.0281851688864
    z: 0.0990933099953
    w: 0.994607883675
---
header: 
  seq: 25490
  stamp: 
    secs: 1723796916
    nsecs: 764314176
  frame_id: "map"
pose: 
  position: 
    x: 0.127941071987
    y: -4.48437643051
    z: -3.32329750061
  orientation: 
    x: 0.0119820316132
    y: 0.0282021013828
    z: 0.0991179659017
    w: 0.99460379543
---
header: 
  seq: 25491
  stamp: 
    secs: 1723796916
    nsecs: 794314176
  frame_id: "map"
pose: 
  position: 
    x: 0.127866283059
    y: -4.48487901688
    z: -3.32434225082
  orientation: 
    x: 0.011878078387
    y: 0.0282021520907
    z: 0.0990915819745
    w: 0.99460767294
---
header: 
  seq: 25492
  stamp: 
    secs: 1723796916
    nsecs: 824320320
  frame_id: "map"
pose: 
  position: 
    x: 0.127805531025
    y: -4.4853219986
    z: -3.32537293434
  orientation: 
    x: 0.0113562404749
    y: 0.0280900197417
    z: 0.0991428746891
    w: 0.994611929772
---
header: 
  seq: 25493
  stamp: 
    secs: 1723796916
    nsecs: 864320320
  frame_id: "map"
pose: 
  position: 
    x: 0.127579435706
    y: -4.48578977585
    z: -3.3269739151
  orientation: 
    x: 0.0110301312101
    y: 0.0280160790229
    z: 0.0991857380341
    w: 0.994613320618
---
header: 
  seq: 25494
  stamp: 
    secs: 1723796916
    nsecs: 894320320
  frame_id: "map"
pose: 
  position: 
    x: 0.127433687449
    y: -4.48603725433
    z: -3.32809972763
  orientation: 
    x: 0.0101531191714
    y: 0.0277925867976
    z: 0.0991512197652
    w: 0.994632328847
---
header: 
  seq: 25495
  stamp: 
    secs: 1723796916
    nsecs: 924324160
  frame_id: "map"
pose: 
  position: 
    x: 0.127343639731
    y: -4.48621797562
    z: -3.32940816879
  orientation: 
    x: 0.00928741565904
    y: 0.0275346684996
    z: 0.0992434370697
    w: 0.994638819461
---
header: 
  seq: 25496
  stamp: 
    secs: 1723796916
    nsecs: 964324160
  frame_id: "map"
pose: 
  position: 
    x: 0.127117797732
    y: -4.4866733551
    z: -3.33073043823
  orientation: 
    x: 0.00895309105159
    y: 0.0274546632444
    z: 0.0992881127291
    w: 0.994639662398
---
header: 
  seq: 25497
  stamp: 
    secs: 1723796916
    nsecs: 994324160
  frame_id: "map"
pose: 
  position: 
    x: 0.126975029707
    y: -4.48702812195
    z: -3.33175230026
  orientation: 
    x: 0.00857091133182
    y: 0.0273391756112
    z: 0.0993041285315
    w: 0.994644551433
---
header: 
  seq: 25498
  stamp: 
    secs: 1723796917
    nsecs:  24328000
  frame_id: "map"
pose: 
  position: 
    x: 0.126853391528
    y: -4.48737049103
    z: -3.33300948143
  orientation: 
    x: 0.00811776553879
    y: 0.027203877642
    z: 0.0993783069849
    w: 0.994644635727
---
header: 
  seq: 25499
  stamp: 
    secs: 1723796917
    nsecs:  64328000
  frame_id: "map"
pose: 
  position: 
    x: 0.126503139734
    y: -4.48789024353
    z: -3.33434486389
  orientation: 
    x: 0.0078528429614
    y: 0.0270989247452
    z: 0.0994099592682
    w: 0.994646532335
---
header: 
  seq: 25500
  stamp: 
    secs: 1723796917
    nsecs:  94328000
  frame_id: "map"
pose: 
  position: 
    x: 0.12625131011
    y: -4.48820877075
    z: -3.33526158333
  orientation: 
    x: 0.00748945744335
    y: 0.026949844098
    z: 0.0994522325572
    w: 0.994649103292
---
header: 
  seq: 25501
  stamp: 
    secs: 1723796917
    nsecs: 124330560
  frame_id: "map"
pose: 
  position: 
    x: 0.126057952642
    y: -4.48846912384
    z: -3.33615207672
  orientation: 
    x: 0.00730712490833
    y: 0.0268984749922
    z: 0.0994970346572
    w: 0.994647375272
---
header: 
  seq: 25502
  stamp: 
    secs: 1723796917
    nsecs: 164330560
  frame_id: "map"
pose: 
  position: 
    x: 0.125808149576
    y: -4.4888343811
    z: -3.33730912209
  orientation: 
    x: 0.00728312557083
    y: 0.0269088635318
    z: 0.0995251044583
    w: 0.994644509286
---
header: 
  seq: 25503
  stamp: 
    secs: 1723796917
    nsecs: 194330560
  frame_id: "map"
pose: 
  position: 
    x: 0.125657230616
    y: -4.48906230927
    z: -3.33830428123
  orientation: 
    x: 0.00737479035653
    y: 0.0269707002026
    z: 0.0995338288559
    w: 0.994641263979
---
header: 
  seq: 25504
  stamp: 
    secs: 1723796917
    nsecs: 224335168
  frame_id: "map"
pose: 
  position: 
    x: 0.125493243337
    y: -4.48928403854
    z: -3.33924841881
  orientation: 
    x: 0.00746793489174
    y: 0.0269887153462
    z: 0.0996059421137
    w: 0.994632792462
---
header: 
  seq: 25505
  stamp: 
    secs: 1723796917
    nsecs: 264335168
  frame_id: "map"
pose: 
  position: 
    x: 0.125179648399
    y: -4.48993253708
    z: -3.34082531929
  orientation: 
    x: 0.00749839257523
    y: 0.0270311453688
    z: 0.0996137814276
    w: 0.994630769413
---
header: 
  seq: 25506
  stamp: 
    secs: 1723796917
    nsecs: 294335168
  frame_id: "map"
pose: 
  position: 
    x: 0.124987654388
    y: -4.49038696289
    z: -3.34205126762
  orientation: 
    x: 0.00761548178875
    y: 0.0270474641017
    z: 0.0996008423451
    w: 0.994630642973
---
header: 
  seq: 25507
  stamp: 
    secs: 1723796917
    nsecs: 324339776
  frame_id: "map"
pose: 
  position: 
    x: 0.124858215451
    y: -4.4908285141
    z: -3.34322094917
  orientation: 
    x: 0.00803205597108
    y: 0.0270687482602
    z: 0.0997114356756
    w: 0.994615722988
---
header: 
  seq: 25508
  stamp: 
    secs: 1723796917
    nsecs: 364339776
  frame_id: "map"
pose: 
  position: 
    x: 0.124873049557
    y: -4.49183511734
    z: -3.34459996223
  orientation: 
    x: 0.00825534075487
    y: 0.0270596932732
    z: 0.0997213823318
    w: 0.994613194178
---
header: 
  seq: 25509
  stamp: 
    secs: 1723796917
    nsecs: 394339776
  frame_id: "map"
pose: 
  position: 
    x: 0.124926589429
    y: -4.49255800247
    z: -3.34561061859
  orientation: 
    x: 0.00837943424777
    y: 0.0271692144933
    z: 0.0997612953973
    w: 0.994605144129
---
header: 
  seq: 25510
  stamp: 
    secs: 1723796917
    nsecs: 424342848
  frame_id: "map"
pose: 
  position: 
    x: 0.124865412712
    y: -4.49313735962
    z: -3.34666085243
  orientation: 
    x: 0.00826774114795
    y: 0.0271558394543
    z: 0.0997328041278
    w: 0.994609274521
---
header: 
  seq: 25511
  stamp: 
    secs: 1723796917
    nsecs: 464342848
  frame_id: "map"
pose: 
  position: 
    x: 0.124689213932
    y: -4.49392080307
    z: -3.34829545021
  orientation: 
    x: 0.00831421726806
    y: 0.0271649418565
    z: 0.0997156925073
    w: 0.994610370339
---
header: 
  seq: 25512
  stamp: 
    secs: 1723796917
    nsecs: 494342848
  frame_id: "map"
pose: 
  position: 
    x: 0.124511443079
    y: -4.49435663223
    z: -3.34946227074
  orientation: 
    x: 0.00864995313639
    y: 0.0270973126282
    z: 0.0997772269061
    w: 0.994603205374
---
header: 
  seq: 25513
  stamp: 
    secs: 1723796917
    nsecs: 524350016
  frame_id: "map"
pose: 
  position: 
    x: 0.124420844018
    y: -4.49474382401
    z: -3.3507900238
  orientation: 
    x: 0.00877424748538
    y: 0.0269906541012
    z: 0.0998460105629
    w: 0.994598063459
---
header: 
  seq: 25514
  stamp: 
    secs: 1723796917
    nsecs: 564350016
  frame_id: "map"
pose: 
  position: 
    x: 0.124338172376
    y: -4.49537944794
    z: -3.35299515724
  orientation: 
    x: 0.0086103706602
    y: 0.0269654707007
    z: 0.0998644708825
    w: 0.994598400634
---
header: 
  seq: 25515
  stamp: 
    secs: 1723796917
    nsecs: 594350016
  frame_id: "map"
pose: 
  position: 
    x: 0.124244965613
    y: -4.49554395676
    z: -3.35453510284
  orientation: 
    x: 0.00849812109027
    y: 0.0269823287815
    z: 0.0999011386407
    w: 0.994595197473
---
header: 
  seq: 25516
  stamp: 
    secs: 1723796917
    nsecs: 624355392
  frame_id: "map"
pose: 
  position: 
    x: 0.124311111867
    y: -4.49562311172
    z: -3.35627007484
  orientation: 
    x: 0.00881593006001
    y: 0.0270639402268
    z: 0.0999123075556
    w: 0.99458908618
---
header: 
  seq: 25517
  stamp: 
    secs: 1723796917
    nsecs: 664355392
  frame_id: "map"
pose: 
  position: 
    x: 0.124252907932
    y: -4.4959654808
    z: -3.35772132874
  orientation: 
    x: 0.00889320301403
    y: 0.0271600541392
    z: 0.0999688264794
    w: 0.994580024608
---
header: 
  seq: 25518
  stamp: 
    secs: 1723796917
    nsecs: 694355392
  frame_id: "map"
pose: 
  position: 
    x: 0.124106533825
    y: -4.49609947205
    z: -3.35873532295
  orientation: 
    x: 0.00813161802252
    y: 0.0269424888144
    z: 0.100143145845
    w: 0.994574966986
---
header: 
  seq: 25519
  stamp: 
    secs: 1723796917
    nsecs: 724358976
  frame_id: "map"
pose: 
  position: 
    x: 0.124000541866
    y: -4.49626016617
    z: -3.35997629166
  orientation: 
    x: 0.00638876483562
    y: 0.0265676051093
    z: 0.100235025975
    w: 0.994588538271
---
header: 
  seq: 25520
  stamp: 
    secs: 1723796917
    nsecs: 764358976
  frame_id: "map"
pose: 
  position: 
    x: 0.123680353165
    y: -4.49645471573
    z: -3.36165356636
