header: 
  seq: 11753
  stamp: 
    secs: 1723800136
    nsecs: 802330880
  frame_id: "map"
pose: 
  position: 
    x: -1.51495075226
    y: -4.30912685394
    z: -6.80869913101
  orientation: 
    x: -0.0219210217451
    y: -0.00264034398416
    z: 0.662080151787
    w: -0.749107688332
---
header: 
  seq: 11754
  stamp: 
    secs: 1723800136
    nsecs: 832330880
  frame_id: "map"
pose: 
  position: 
    x: -1.51516294479
    y: -4.30921697617
    z: -6.80939769745
  orientation: 
    x: -0.0220076664461
    y: -0.00254666866208
    z: 0.661059831902
    w: -0.750006035237
---
header: 
  seq: 11755
  stamp: 
    secs: 1723800136
    nsecs: 862333184
  frame_id: "map"
pose: 
  position: 
    x: -1.51550662518
    y: -4.30906009674
    z: -6.81012868881
  orientation: 
    x: -0.0225830874906
    y: -0.00197771979295
    z: 0.659092100912
    w: -0.751720547961
---
header: 
  seq: 11756
  stamp: 
    secs: 1723800136
    nsecs: 902333184
  frame_id: "map"
pose: 
  position: 
    x: -1.51560151577
    y: -4.30819225311
    z: -6.81125211716
  orientation: 
    x: -0.0229427838423
    y: -0.00182977974486
    z: 0.657652375104
    w: -0.752969938602
---
header: 
  seq: 11757
  stamp: 
    secs: 1723800136
    nsecs: 932333184
  frame_id: "map"
pose: 
  position: 
    x: -1.51551365852
    y: -4.30721998215
    z: -6.81197023392
  orientation: 
    x: -0.023192529603
    y: -0.00205315343216
    z: 0.654422972935
    w: -0.755770201558
---
header: 
  seq: 11758
  stamp: 
    secs: 1723800136
    nsecs: 962335232
  frame_id: "map"
pose: 
  position: 
    x: -1.5156224966
    y: -4.30564880371
    z: -6.81272411346
  orientation: 
    x: -0.0231171486473
    y: -0.00269751947689
    z: 0.651535076144
    w: -0.758261412212
---
header: 
  seq: 11759
  stamp: 
    secs: 1723800137
    nsecs:   2335232
  frame_id: "map"
pose: 
  position: 
    x: -1.51475477219
    y: -4.30439901352
    z: -6.81463813782
  orientation: 
    x: -0.023000387389
    y: -0.00286191984495
    z: 0.650472770095
    w: -0.759175951409
---
header: 
  seq: 11760
  stamp: 
    secs: 1723800137
    nsecs:  32335232
  frame_id: "map"
pose: 
  position: 
    x: -1.51456665993
    y: -4.30344200134
    z: -6.81595897675
  orientation: 
    x: -0.0228309142526
    y: -0.00305757407681
    z: 0.649306630017
    w: -0.760177803072
---
header: 
  seq: 11761
  stamp: 
    secs: 1723800137
    nsecs:  73337280
  frame_id: "map"
pose: 
  position: 
    x: -1.51461732388
    y: -4.30298519135
    z: -6.81762266159
  orientation: 
    x: -0.0227138480881
    y: -0.00285137127902
    z: 0.649155717958
    w: -0.760311097749
---
header: 
  seq: 11762
  stamp: 
    secs: 1723800137
    nsecs: 102337280
  frame_id: "map"
pose: 
  position: 
    x: -1.51443076134
    y: -4.30308771133
    z: -6.81818771362
  orientation: 
    x: -0.0229123781839
    y: -0.00270923366659
    z: 0.649317398537
    w: -0.760167540314
---
header: 
  seq: 11763
  stamp: 
    secs: 1723800137
    nsecs: 132340608
  frame_id: "map"
pose: 
  position: 
    x: -1.5141094923
    y: -4.30329847336
    z: -6.81856966019
  orientation: 
    x: -0.0238574093091
    y: -0.0029160047883
    z: 0.649490927649
    w: -0.759989459343
---
header: 
  seq: 11764
  stamp: 
    secs: 1723800137
    nsecs: 163340608
  frame_id: "map"
pose: 
  position: 
    x: -1.51384925842
    y: -4.30296421051
    z: -6.8189163208
  orientation: 
    x: -0.0241255396568
    y: -0.00302770183939
    z: 0.649361494677
    w: -0.760091159688
---
header: 
  seq: 11765
  stamp: 
    secs: 1723800137
    nsecs: 203340608
  frame_id: "map"
pose: 
  position: 
    x: -1.51321005821
    y: -4.3015370369
    z: -6.81875133514
  orientation: 
    x: -0.0238728264946
    y: -0.00322329285098
    z: 0.649391756114
    w: -0.760072362194
---
header: 
  seq: 11766
  stamp: 
    secs: 1723800137
    nsecs: 233340608
  frame_id: "map"
pose: 
  position: 
    x: -1.51318824291
    y: -4.29983568192
    z: -6.8187623024
  orientation: 
    x: -0.0232335707553
    y: -0.00374624172768
    z: 0.649470897359
    w: -0.760022302274
---
header: 
  seq: 11767
  stamp: 
    secs: 1723800137
    nsecs: 263342656
  frame_id: "map"
pose: 
  position: 
    x: -1.5136038065
    y: -4.29740953445
    z: -6.81879425049
  orientation: 
    x: -0.0228773126644
    y: -0.00349344888158
    z: 0.649765456415
    w: -0.759782449828
---
header: 
  seq: 11768
  stamp: 
    secs: 1723800137
    nsecs: 303342656
  frame_id: "map"
pose: 
  position: 
    x: -1.51363408566
    y: -4.29613399506
    z: -6.81980371475
  orientation: 
    x: -0.0231693422509
    y: -0.00303012396609
    z: 0.650078612768
    w: -0.759507562813
---
header: 
  seq: 11769
  stamp: 
    secs: 1723800137
    nsecs: 333342656
  frame_id: "map"
pose: 
  position: 
    x: -1.51383769512
    y: -4.29521131516
    z: -6.82037591934
  orientation: 
    x: -0.0243166933955
    y: -0.00236846783531
    z: 0.651015574089
    w: -0.758671163873
---
header: 
  seq: 11770
  stamp: 
    secs: 1723800137
    nsecs: 363344448
  frame_id: "map"
pose: 
  position: 
    x: -1.51381146908
    y: -4.29475307465
    z: -6.82086992264
  orientation: 
    x: -0.0253268855243
    y: -0.00217185739681
    z: 0.652280996337
    w: -0.757550895371
---
header: 
  seq: 11771
  stamp: 
    secs: 1723800137
    nsecs: 403344448
  frame_id: "map"
pose: 
  position: 
    x: -1.51305758953
    y: -4.2948346138
    z: -6.82100534439
  orientation: 
    x: -0.0253680867029
    y: -0.00236375990062
    z: 0.652901329458
    w: -0.757014350185
---
header: 
  seq: 11772
  stamp: 
    secs: 1723800137
    nsecs: 433344448
  frame_id: "map"
pose: 
  position: 
    x: -1.51242053509
    y: -4.29517698288
    z: -6.82102012634
  orientation: 
    x: -0.0243731069523
    y: -0.00348472975229
    z: 0.653804431055
    w: -0.756262892949
---
header: 
  seq: 11773
  stamp: 
    secs: 1723800137
    nsecs: 463346496
  frame_id: "map"
pose: 
  position: 
    x: -1.5117893219
    y: -4.29569721222
    z: -6.82101345062
  orientation: 
    x: -0.0236552763164
    y: -0.00563310608613
    z: 0.654200990752
    w: -0.755929722112
---
header: 
  seq: 11774
  stamp: 
    secs: 1723800137
    nsecs: 503346496
  frame_id: "map"
pose: 
  position: 
    x: -1.51045882702
    y: -4.29715776443
    z: -6.82093858719
  orientation: 
    x: -0.0235195035367
    y: -0.00658561103304
    z: 0.654189158025
    w: -0.755936497218
---
header: 
  seq: 11775
  stamp: 
    secs: 1723800137
    nsecs: 533349824
  frame_id: "map"
pose: 
  position: 
    x: -1.50913238525
    y: -4.29836130142
    z: -6.82084512711
  orientation: 
    x: -0.0236748186247
    y: -0.00811090152939
    z: 0.654278356561
    w: -0.755839712248
---
header: 
  seq: 11776
  stamp: 
    secs: 1723800137
    nsecs: 563349824
  frame_id: "map"
pose: 
  position: 
    x: -1.50807666779
    y: -4.29959726334
    z: -6.82050561905
  orientation: 
    x: -0.0238303181052
    y: -0.0102827510237
    z: 0.654503989715
    w: -0.75561306757
---
header: 
  seq: 11777
  stamp: 
    secs: 1723800137
    nsecs: 603349824
  frame_id: "map"
pose: 
  position: 
    x: -1.50651478767
    y: -4.30163526535
    z: -6.82104730606
  orientation: 
    x: -0.0235082654746
    y: -0.0111563373138
    z: 0.654636320282
    w: -0.755495994162
---
header: 
  seq: 11778
  stamp: 
    secs: 1723800137
    nsecs: 633349824
  frame_id: "map"
pose: 
  position: 
    x: -1.50654137135
    y: -4.30198192596
    z: -6.82174539566
  orientation: 
    x: -0.0220803206982
    y: -0.0115539997442
    z: 0.655270809477
    w: -0.754982887892
---
header: 
  seq: 11779
  stamp: 
    secs: 1723800137
    nsecs: 663352128
  frame_id: "map"
pose: 
  position: 
    x: -1.50692594051
    y: -4.30173826218
    z: -6.82236862183
  orientation: 
    x: -0.021884310523
    y: -0.0107507845324
    z: 0.655744150195
    w: -0.754589457597
---
header: 
  seq: 11780
  stamp: 
    secs: 1723800137
    nsecs: 703352128
  frame_id: "map"
pose: 
  position: 
    x: -1.50783085823
    y: -4.30086421967
    z: -6.8236207962
  orientation: 
    x: -0.022328245254
    y: -0.0102640207008
    z: 0.655641311885
    w: -0.754672571183
---
header: 
  seq: 11781
  stamp: 
    secs: 1723800137
    nsecs: 733352128
  frame_id: "map"
pose: 
  position: 
    x: -1.50872778893
    y: -4.29967784882
    z: -6.82464313507
  orientation: 
    x: -0.0230087568311
    y: -0.00916120296991
    z: 0.655178233924
    w: -0.75506829848
---
header: 
  seq: 11782
  stamp: 
    secs: 1723800137
    nsecs: 763354432
  frame_id: "map"
pose: 
  position: 
    x: -1.51010346413
    y: -4.29764175415
    z: -6.82557964325
  orientation: 
    x: -0.0227876333904
    y: -0.00841185571099
    z: 0.654876314974
    w: -0.755345687964
---
header: 
  seq: 11783
  stamp: 
    secs: 1723800137
    nsecs: 803354432
  frame_id: "map"
pose: 
  position: 
    x: -1.51069128513
    y: -4.29582071304
    z: -6.82674789429
  orientation: 
    x: -0.0224056393802
    y: -0.00823631803821
    z: 0.654794186572
    w: -0.75543017659
---
header: 
  seq: 11784
  stamp: 
    secs: 1723800137
    nsecs: 834354432
  frame_id: "map"
pose: 
  position: 
    x: -1.51180064678
    y: -4.29379415512
    z: -6.82760667801
  orientation: 
    x: -0.0218439173785
    y: -0.00752118019084
    z: 0.654892583658
    w: -0.75536886873
---
header: 
  seq: 11785
  stamp: 
    secs: 1723800137
    nsecs: 864356480
  frame_id: "map"
pose: 
  position: 
    x: -1.51287782192
    y: -4.29193210602
    z: -6.82833051682
  orientation: 
    x: -0.0220956288945
    y: -0.00635339111737
    z: 0.655198538168
    w: -0.75510691553
---
header: 
  seq: 11786
  stamp: 
    secs: 1723800137
    nsecs: 904356480
  frame_id: "map"
pose: 
  position: 
    x: -1.51440024376
    y: -4.28984022141
    z: -6.82878875732
  orientation: 
    x: -0.0223796301649
    y: -0.00579885712898
    z: 0.655453126206
    w: -0.754881998873
---
header: 
  seq: 11787
  stamp: 
    secs: 1723800137
    nsecs: 934356480
  frame_id: "map"
pose: 
  position: 
    x: -1.51537072659
    y: -4.28849315643
    z: -6.82912635803
  orientation: 
    x: -0.0226923874397
    y: -0.00503882169269
    z: 0.656053118205
    w: -0.754356775383
---
header: 
  seq: 11788
  stamp: 
    secs: 1723800137
    nsecs: 964358272
  frame_id: "map"
pose: 
  position: 
    x: -1.51622200012
    y: -4.28631496429
    z: -6.82959032059
  orientation: 
    x: -0.0222594240602
    y: -0.00418448334141
    z: 0.657460217085
    w: -0.75314886251
---
header: 
  seq: 11789
  stamp: 
    secs: 1723800137
    nsecs: 994358272
  frame_id: "map"
pose: 
  position: 
    x: -1.51650977135
    y: -4.28373765945
    z: -6.8304104805
  orientation: 
    x: -0.02203881165
    y: -0.00374051370755
    z: 0.658685389092
    w: -0.752086461631
---
header: 
  seq: 11790
  stamp: 
    secs: 1723800138
    nsecs:  34361600
  frame_id: "map"
pose: 
  position: 
    x: -1.51671242714
    y: -4.28092336655
    z: -6.8312830925
  orientation: 
    x: -0.0224171606164
    y: -0.00346361483974
    z: 0.662023356274
    w: -0.749139870085
---
header: 
  seq: 11791
  stamp: 
    secs: 1723800138
    nsecs:  64361600
  frame_id: "map"
pose: 
  position: 
    x: -1.51709067822
    y: -4.2787437439
    z: -6.83179807663
  orientation: 
    x: -0.0231499665544
    y: -0.00347635240761
    z: 0.665622312547
    w: -0.745921668442
---
header: 
  seq: 11792
  stamp: 
    secs: 1723800138
    nsecs: 104361600
  frame_id: "map"
pose: 
  position: 
    x: -1.51738238335
    y: -4.27765512466
    z: -6.83294916153
  orientation: 
    x: -0.0232805934673
    y: -0.00351000864178
    z: 0.667138171369
    w: -0.744561837253
---
header: 
  seq: 11793
  stamp: 
    secs: 1723800138
    nsecs: 134361600
  frame_id: "map"
pose: 
  position: 
    x: -1.518273592
    y: -4.27700901031
    z: -6.8338303566
  orientation: 
    x: -0.022936720623
    y: -0.00366409686139
    z: 0.66899720827
    w: -0.742901986357
---
header: 
  seq: 11794
  stamp: 
    secs: 1723800138
    nsecs: 164364160
  frame_id: "map"
pose: 
  position: 
    x: -1.51910638809
    y: -4.27651166916
    z: -6.8346362114
  orientation: 
    x: -0.0229137657371
    y: -0.00401191438727
    z: 0.669306373844
    w: -0.742622323578
---
header: 
  seq: 11795
  stamp: 
    secs: 1723800138
    nsecs: 204364160
  frame_id: "map"
pose: 
  position: 
    x: -1.51999843121
    y: -4.27651119232
    z: -6.83586549759
  orientation: 
    x: -0.022982018607
    y: -0.00397455779151
    z: 0.669202516106
    w: -0.742713958729
---
header: 
  seq: 11796
  stamp: 
    secs: 1723800138
    nsecs: 234364160
  frame_id: "map"
pose: 
  position: 
    x: -1.52068972588
    y: -4.27652311325
    z: -6.83666992188
  orientation: 
    x: -0.0230679125672
    y: -0.00375155223059
    z: 0.669098813786
    w: -0.742805944226
---
header: 
  seq: 11797
  stamp: 
    secs: 1723800138
    nsecs: 264364416
  frame_id: "map"
pose: 
  position: 
    x: -1.52161812782
    y: -4.2763710022
    z: -6.83733797073
  orientation: 
    x: -0.0231158651441
    y: -0.00409936646375
    z: 0.669153370247
    w: -0.742753495107
---
header: 
  seq: 11798
  stamp: 
    secs: 1723800138
    nsecs: 294364416
  frame_id: "map"
pose: 
  position: 
    x: -1.52206790447
    y: -4.27667760849
    z: -6.8377699852
  orientation: 
    x: -0.0230213086895
    y: -0.00422150276238
    z: 0.669103415695
    w: -0.742800752261
---
header: 
  seq: 11799
  stamp: 
    secs: 1723800138
    nsecs: 334366464
  frame_id: "map"
pose: 
  position: 
    x: -1.52263998985
    y: -4.27674674988
    z: -6.83837509155
  orientation: 
    x: -0.0228156044099
    y: -0.00421083829262
    z: 0.668892017639
    w: -0.742997483213
---
header: 
  seq: 11800
  stamp: 
    secs: 1723800138
    nsecs: 364366464
  frame_id: "map"
pose: 
  position: 
    x: -1.52352797985
    y: -4.27630805969
    z: -6.83904457092
  orientation: 
    x: -0.0229522188095
    y: -0.00435832526208
    z: 0.668889120043
    w: -0.742994986013
---
header: 
  seq: 11801
  stamp: 
    secs: 1723800138
    nsecs: 404366464
  frame_id: "map"
pose: 
  position: 
    x: -1.52329587936
    y: -4.27693367004
    z: -6.84012556076
  orientation: 
    x: -0.0229690472559
    y: -0.00437919717172
    z: 0.669015560589
    w: -0.742880599466
---
header: 
  seq: 11802
  stamp: 
    secs: 1723800138
    nsecs: 434366464
  frame_id: "map"
pose: 
  position: 
    x: -1.52346074581
    y: -4.27689933777
    z: -6.84083032608
  orientation: 
    x: -0.0229325184505
    y: -0.0044984075571
    z: 0.669186189471
    w: -0.742727250792
---
header: 
  seq: 11803
  stamp: 
    secs: 1723800138
    nsecs: 464372608
  frame_id: "map"
pose: 
  position: 
    x: -1.52354323864
    y: -4.27699327469
    z: -6.84157943726
  orientation: 
    x: -0.0229530123556
    y: -0.00472769958389
    z: 0.669208558911
    w: -0.742704965645
---
header: 
  seq: 11804
  stamp: 
    secs: 1723800138
    nsecs: 505372608
  frame_id: "map"
pose: 
  position: 
    x: -1.52289557457
    y: -4.27762460709
    z: -6.84337043762
  orientation: 
    x: -0.0229451954323
    y: -0.00485790305274
    z: 0.669267293178
    w: -0.742651457587
---
header: 
  seq: 11805
  stamp: 
    secs: 1723800138
    nsecs: 535372608
  frame_id: "map"
pose: 
  position: 
    x: -1.52247571945
    y: -4.27801895142
    z: -6.8445763588
  orientation: 
    x: -0.0228656287678
    y: -0.0051064917507
    z: 0.669220792033
    w: -0.742694165516
---
header: 
  seq: 11806
  stamp: 
    secs: 1723800138
    nsecs: 565374144
  frame_id: "map"
pose: 
  position: 
    x: -1.52217280865
    y: -4.27830791473
    z: -6.84545278549
  orientation: 
    x: -0.0229397354398
    y: -0.00534981670241
    z: 0.669134048551
    w: -0.742768433531
---
header: 
  seq: 11807
  stamp: 
    secs: 1723800138
    nsecs: 595374144
  frame_id: "map"
pose: 
  position: 
    x: -1.52146100998
    y: -4.27893638611
    z: -6.84595823288
  orientation: 
    x: -0.0229922135346
    y: -0.00547049103223
    z: 0.669195214165
    w: -0.742710723959
---
header: 
  seq: 11808
  stamp: 
    secs: 1723800138
    nsecs: 635377728
  frame_id: "map"
pose: 
  position: 
    x: -1.52090978622
    y: -4.2790145874
    z: -6.84646987915
  orientation: 
    x: -0.0230153554471
    y: -0.00567711793269
    z: 0.669287046879
    w: -0.742625803327
---
header: 
  seq: 11809
  stamp: 
    secs: 1723800138
    nsecs: 665377728
  frame_id: "map"
pose: 
  position: 
    x: -1.52031707764
    y: -4.27927827835
    z: -6.84688806534
  orientation: 
    x: -0.0227290742957
    y: -0.00597393052788
    z: 0.669370761057
    w: -0.742556756253
---
header: 
  seq: 11810
  stamp: 
    secs: 1723800138
    nsecs: 705377728
  frame_id: "map"
pose: 
  position: 
    x: -1.51901054382
    y: -4.28026103973
    z: -6.84759569168
  orientation: 
    x: -0.022686259683
    y: -0.00609062329761
    z: 0.669401897042
    w: -0.74252907631
---
header: 
  seq: 11811
  stamp: 
    secs: 1723800138
    nsecs: 735377728
  frame_id: "map"
pose: 
  position: 
    x: -1.51827955246
    y: -4.28068113327
    z: -6.84811925888
  orientation: 
    x: -0.0227966574258
    y: -0.00630836774645
    z: 0.669462398843
    w: -0.742469248858
---
header: 
  seq: 11812
  stamp: 
    secs: 1723800138
    nsecs: 765379776
  frame_id: "map"
pose: 
  position: 
    x: -1.51754319668
    y: -4.28110313416
    z: -6.84862327576
  orientation: 
    x: -0.0230029023705
    y: -0.00649420176261
    z: 0.669426679388
    w: -0.742493588663
---
header: 
  seq: 11813
  stamp: 
    secs: 1723800138
    nsecs: 795379776
  frame_id: "map"
pose: 
  position: 
    x: -1.51645946503
    y: -4.28188419342
    z: -6.84968662262
  orientation: 
    x: -0.0229900548257
    y: -0.0065976676659
    z: 0.669444799899
    w: -0.742476732558
---
header: 
  seq: 11814
  stamp: 
    secs: 1723800138
    nsecs: 835379776
  frame_id: "map"
pose: 
  position: 
    x: -1.51513040066
    y: -4.28270292282
    z: -6.85096263885
  orientation: 
    x: -0.0227598638856
    y: -0.00681641573657
    z: 0.669400753808
    w: -0.742521537292
---
header: 
  seq: 11815
  stamp: 
    secs: 1723800138
    nsecs: 865382080
  frame_id: "map"
pose: 
  position: 
    x: -1.51441967487
    y: -4.28274822235
    z: -6.85182762146
  orientation: 
    x: -0.0227100186518
    y: -0.00694679042699
    z: 0.669350504228
    w: -0.742567150719
---
header: 
  seq: 11816
  stamp: 
    secs: 1723800138
    nsecs: 895382080
  frame_id: "map"
pose: 
  position: 
    x: -1.51343631744
    y: -4.28321409225
    z: -6.85273504257
  orientation: 
    x: -0.0227738849567
    y: -0.00704735478317
    z: 0.669473965518
    w: -0.742452877442
---
header: 
  seq: 11817
  stamp: 
    secs: 1723800138
    nsecs: 935385408
  frame_id: "map"
pose: 
  position: 
    x: -1.51222753525
    y: -4.28368330002
    z: -6.85389184952
  orientation: 
    x: -0.0227912975321
    y: -0.00713332579305
    z: 0.669680624687
    w: -0.742265268648
---
header: 
  seq: 11818
  stamp: 
    secs: 1723800138
    nsecs: 965385408
  frame_id: "map"
pose: 
  position: 
    x: -1.51123023033
    y: -4.28419876099
    z: -6.85465097427
  orientation: 
    x: -0.0226221233749
    y: -0.0072081015463
    z: 0.669720872294
    w: -0.742233366118
---
header: 
  seq: 11819
  stamp: 
    secs: 1723800139
    nsecs:   5385408
  frame_id: "map"
pose: 
  position: 
    x: -1.50974738598
    y: -4.28527975082
    z: -6.85533618927
  orientation: 
    x: -0.022577655157
    y: -0.00726215817224
    z: 0.669742709629
    w: -0.742214394768
---
header: 
  seq: 11820
  stamp: 
    secs: 1723800139
    nsecs:  35385408
  frame_id: "map"
pose: 
  position: 
    x: -1.50872159004
    y: -4.28595590591
    z: -6.85577440262
  orientation: 
    x: -0.022668237954
    y: -0.00744160496522
    z: 0.669917163338
    w: -0.742052416527
---
header: 
  seq: 11821
  stamp: 
    secs: 1723800139
    nsecs:  65387456
  frame_id: "map"
pose: 
  position: 
    x: -1.50781607628
    y: -4.28640174866
    z: -6.85616779327
  orientation: 
    x: -0.0227504657969
    y: -0.00766152261094
    z: 0.670033227856
    w: -0.741942926917
---
header: 
  seq: 11822
  stamp: 
    secs: 1723800139
    nsecs:  95387456
  frame_id: "map"
pose: 
  position: 
    x: -1.50665330887
    y: -4.28702068329
    z: -6.85670185089
  orientation: 
    x: -0.0227708009928
    y: -0.00778253477409
    z: 0.670115833045
    w: -0.741866390874
---
header: 
  seq: 11823
  stamp: 
    secs: 1723800139
    nsecs: 136387456
  frame_id: "map"
pose: 
  position: 
    x: -1.50523018837
    y: -4.28785467148
    z: -6.85724925995
  orientation: 
    x: -0.0226598019989
    y: -0.00791735463994
    z: 0.670181136953
    w: -0.741809432042
---
header: 
  seq: 11824
  stamp: 
    secs: 1723800139
    nsecs: 166389760
  frame_id: "map"
pose: 
  position: 
    x: -1.50428569317
    y: -4.28808927536
    z: -6.85776233673
  orientation: 
    x: -0.0226002853804
    y: -0.00790427067766
    z: 0.670130618686
    w: -0.741857000029
---
header: 
  seq: 11825
  stamp: 
    secs: 1723800139
    nsecs: 196389760
  frame_id: "map"
pose: 
  position: 
    x: -1.50304806232
    y: -4.28890132904
    z: -6.8579082489
  orientation: 
    x: -0.0226464519846
    y: -0.00789034641258
    z: 0.67017698022
    w: -0.741813841657
---
header: 
  seq: 11826
  stamp: 
    secs: 1723800139
    nsecs: 236393344
  frame_id: "map"
pose: 
  position: 
    x: -1.50161910057
    y: -4.28953504562
    z: -6.85823345184
  orientation: 
    x: -0.0226848286658
    y: -0.00804265524493
    z: 0.670352632479
    w: -0.741652350738
---
header: 
  seq: 11827
  stamp: 
    secs: 1723800139
    nsecs: 266393344
  frame_id: "map"
pose: 
  position: 
    x: -1.50051140785
    y: -4.29010486603
    z: -6.8583316803
  orientation: 
    x: -0.022426120773
    y: -0.00831045632037
    z: 0.670371756612
    w: -0.741639970101
---
header: 
  seq: 11828
  stamp: 
    secs: 1723800139
    nsecs: 296393344
  frame_id: "map"
pose: 
  position: 
    x: -1.49932324886
    y: -4.29092073441
    z: -6.85837173462
  orientation: 
    x: -0.0223762175872
    y: -0.00836910497716
    z: 0.670362070739
    w: -0.741649487387
---
header: 
  seq: 11829
  stamp: 
    secs: 1723800139
    nsecs: 336393344
  frame_id: "map"
pose: 
  position: 
    x: -1.49792253971
    y: -4.29167222977
    z: -6.85837936401
  orientation: 
    x: -0.0224911362381
    y: -0.00851854979945
    z: 0.670429666382
    w: -0.741583324737
---
header: 
  seq: 11830
  stamp: 
    secs: 1723800139
    nsecs: 366395648
  frame_id: "map"
pose: 
  position: 
    x: -1.496945858
    y: -4.29212141037
    z: -6.85837364197
  orientation: 
    x: -0.0225950242684
    y: -0.00863893041842
    z: 0.670522039103
    w: -0.741495166701
---
header: 
  seq: 11831
  stamp: 
    secs: 1723800139
    nsecs: 396395648
  frame_id: "map"
pose: 
  position: 
    x: -1.49571418762
    y: -4.29288053513
    z: -6.85878944397
  orientation: 
    x: -0.0225204151269
    y: -0.00869344078152
    z: 0.670510174765
    w: -0.741507536801
---
header: 
  seq: 11832
  stamp: 
    secs: 1723800139
    nsecs: 436395648
  frame_id: "map"
pose: 
  position: 
    x: -1.49419367313
    y: -4.29376649857
    z: -6.85940933228
  orientation: 
    x: -0.0223443005691
    y: -0.00888377199813
    z: 0.670523580097
    w: -0.741498514741
---
header: 
  seq: 11833
  stamp: 
    secs: 1723800139
    nsecs: 466396928
  frame_id: "map"
pose: 
  position: 
    x: -1.49302697182
    y: -4.29430437088
    z: -6.85994672775
  orientation: 
    x: -0.0222895142759
    y: -0.00898024152456
    z: 0.670634384162
    w: -0.741398753151
---
header: 
  seq: 11834
  stamp: 
    secs: 1723800139
    nsecs: 496396928
  frame_id: "map"
pose: 
  position: 
    x: -1.49174761772
    y: -4.29505634308
    z: -6.8605017662
  orientation: 
    x: -0.0222914945192
    y: -0.00901167846374
    z: 0.670652920872
    w: -0.741381565139
---
header: 
  seq: 11835
  stamp: 
    secs: 1723800139
    nsecs: 536396928
  frame_id: "map"
pose: 
  position: 
    x: -1.49006307125
    y: -4.29577875137
    z: -6.86111688614
  orientation: 
    x: -0.0223224783797
    y: -0.00917248647151
    z: 0.670703670946
    w: -0.74133275382
---
header: 
  seq: 11836
  stamp: 
    secs: 1723800139
    nsecs: 566398208
  frame_id: "map"
pose: 
  position: 
    x: -1.48878788948
    y: -4.29653310776
    z: -6.86139631271
  orientation: 
    x: -0.0223209248733
    y: -0.00943632771882
    z: 0.670747743379
    w: -0.741289608618
---
header: 
  seq: 11837
  stamp: 
    secs: 1723800139
    nsecs: 596398208
  frame_id: "map"
pose: 
  position: 
    x: -1.48733735085
    y: -4.29760313034
    z: -6.86157369614
  orientation: 
    x: -0.0222982222099
    y: -0.00964202409589
    z: 0.670739724941
    w: -0.741294845364
---
header: 
  seq: 11838
  stamp: 
    secs: 1723800139
    nsecs: 636398208
  frame_id: "map"
pose: 
  position: 
    x: -1.48543477058
    y: -4.29892969131
    z: -6.86184072495
  orientation: 
    x: -0.022337929151
    y: -0.00991406158815
    z: 0.67072742333
    w: -0.741301246417
---
header: 
  seq: 11839
  stamp: 
    secs: 1723800139
    nsecs: 666400000
  frame_id: "map"
pose: 
  position: 
    x: -1.48394942284
    y: -4.29983234406
    z: -6.86205291748
  orientation: 
    x: -0.0224455109575
    y: -0.0103474714608
    z: 0.670787846105
    w: -0.741237451893
---
header: 
  seq: 11840
  stamp: 
    secs: 1723800139
    nsecs: 696400000
  frame_id: "map"
pose: 
  position: 
    x: -1.48253929615
    y: -4.30090808868
    z: -6.86222791672
  orientation: 
    x: -0.0224540470114
    y: -0.0106215431971
    z: 0.670828143761
    w: -0.741196817063
---
header: 
  seq: 11841
  stamp: 
    secs: 1723800139
    nsecs: 736400000
  frame_id: "map"
pose: 
  position: 
    x: -1.4806265831
    y: -4.30202198029
    z: -6.86238288879
  orientation: 
    x: -0.0223005402866
    y: -0.0110969754533
    z: 0.670877060447
    w: -0.741150176306
---
header: 
  seq: 11842
  stamp: 
    secs: 1723800139
    nsecs: 767402048
  frame_id: "map"
pose: 
  position: 
    x: -1.47936880589
    y: -4.30283927917
    z: -6.86245250702
  orientation: 
    x: -0.022306532383
    y: -0.0115464459095
    z: 0.670925076244
    w: -0.741099715992
---
header: 
  seq: 11843
  stamp: 
    secs: 1723800139
    nsecs: 797402048
  frame_id: "map"
pose: 
  position: 
    x: -1.47818946838
    y: -4.30375528336
    z: -6.86259841919
  orientation: 
    x: -0.0223511971765
    y: -0.0116310876473
    z: 0.670959246802
    w: -0.741066135491
---
header: 
  seq: 11844
  stamp: 
    secs: 1723800139
    nsecs: 837402048
  frame_id: "map"
pose: 
  position: 
    x: -1.47686672211
    y: -4.3043422699
    z: -6.86304569244
  orientation: 
    x: -0.0224804003162
    y: -0.0116175881434
    z: 0.671035506256
    w: -0.740993332078
---
header: 
  seq: 11845
  stamp: 
    secs: 1723800139
    nsecs: 867403840
  frame_id: "map"
pose: 
  position: 
    x: -1.47607970238
    y: -4.30449390411
    z: -6.86352157593
  orientation: 
    x: -0.022467957447
    y: -0.0114193731612
    z: 0.671031610306
    w: -0.7410002626
---
header: 
  seq: 11846
  stamp: 
    secs: 1723800139
    nsecs: 897403840
  frame_id: "map"
pose: 
  position: 
    x: -1.47511672974
    y: -4.30482816696
    z: -6.86400747299
  orientation: 
    x: -0.0224280990407
    y: -0.0112703293925
    z: 0.671071188831
    w: -0.740967933333
---
header: 
  seq: 11847
  stamp: 
    secs: 1723800139
    nsecs: 937403840
  frame_id: "map"
pose: 
  position: 
    x: -1.47384166718
    y: -4.30524110794
    z: -6.86458730698
  orientation: 
    x: -0.0224343604818
    y: -0.0111066363013
    z: 0.671152358393
    w: -0.740896626134
---
header: 
  seq: 11848
  stamp: 
    secs: 1723800139
    nsecs: 967405888
  frame_id: "map"
pose: 
  position: 
    x: -1.4727512598
    y: -4.30552530289
    z: -6.86495923996
  orientation: 
    x: -0.0224479409867
    y: -0.0109170953381
    z: 0.671188849661
    w: -0.740866035425
---
header: 
  seq: 11849
  stamp: 
    secs: 1723800139
    nsecs: 997405888
  frame_id: "map"
pose: 
  position: 
    x: -1.47173988819
    y: -4.30613088608
    z: -6.8652472496
  orientation: 
    x: -0.0224459238649
    y: -0.0109063314281
    z: 0.671198793683
    w: -0.740857271514
---
header: 
  seq: 11850
  stamp: 
    secs: 1723800140
    nsecs:  37407936
  frame_id: "map"
pose: 
  position: 
    x: -1.4702078104
    y: -4.3068318367
    z: -6.8655166626
  orientation: 
    x: -0.022452066768
    y: -0.0110151545909
    z: 0.671227703787
    w: -0.740829288641
---
header: 
  seq: 11851
  stamp: 
    secs: 1723800140
    nsecs:  67407936
  frame_id: "map"
pose: 
  position: 
    x: -1.46902120113
    y: -4.30732107162
    z: -6.86578130722
  orientation: 
    x: -0.0225053028475
    y: -0.0111452757417
    z: 0.671254306351
    w: -0.740801590259
---
header: 
  seq: 11852
  stamp: 
    secs: 1723800140
    nsecs:  97407936
  frame_id: "map"
pose: 
  position: 
    x: -1.46795594692
    y: -4.30800533295
    z: -6.86630344391
  orientation: 
    x: -0.0225545738305
    y: -0.0111826507767
    z: 0.67125158788
    w: -0.740801948507
---
header: 
  seq: 11853
  stamp: 
    secs: 1723800140
    nsecs: 137407936
  frame_id: "map"
pose: 
  position: 
    x: -1.46672523022
    y: -4.30876350403
    z: -6.86685085297
  orientation: 
    x: -0.0226408905763
    y: -0.0113189168063
    z: 0.671280906281
    w: -0.740770691351
---
header: 
  seq: 11854
  stamp: 
    secs: 1723800140
    nsecs: 167409984
  frame_id: "map"
pose: 
  position: 
    x: -1.46571552753
    y: -4.30904245377
    z: -6.8671836853
  orientation: 
    x: -0.0226437447082
    y: -0.011463631962
    z: 0.67129867908
    w: -0.740752328496
---
header: 
  seq: 11855
  stamp: 
    secs: 1723800140
    nsecs: 197409984
  frame_id: "map"
pose: 
  position: 
    x: -1.4648784399
    y: -4.30960226059
    z: -6.86747360229
  orientation: 
    x: -0.022638342009
    y: -0.0114959190821
    z: 0.671300183196
    w: -0.740750655793
---
header: 
  seq: 11856
  stamp: 
    secs: 1723800140
    nsecs: 237409984
  frame_id: "map"
pose: 
  position: 
    x: -1.46378731728
    y: -4.30997419357
    z: -6.86786460876
  orientation: 
    x: -0.0226031276585
    y: -0.0114170577187
    z: 0.671345988918
    w: -0.740711424979
---
header: 
  seq: 11857
  stamp: 
    secs: 1723800140
    nsecs: 267412032
  frame_id: "map"
pose: 
  position: 
    x: -1.46311819553
    y: -4.3101606369
    z: -6.86816883087
  orientation: 
    x: -0.0226433785574
    y: -0.0113192105172
    z: 0.67139608835
    w: -0.740666298875
---
header: 
  seq: 11858
  stamp: 
    secs: 1723800140
    nsecs: 297412032
  frame_id: "map"
pose: 
  position: 
    x: -1.46249234676
    y: -4.310734272
    z: -6.86814165115
  orientation: 
    x: -0.022691711773
    y: -0.0112474199462
    z: 0.671420617816
    w: -0.740643623871
---
header: 
  seq: 11859
  stamp: 
    secs: 1723800140
    nsecs: 337416640
  frame_id: "map"
pose: 
  position: 
    x: -1.46140897274
    y: -4.31125259399
    z: -6.86798429489
  orientation: 
    x: -0.0227425856534
    y: -0.0110563366717
    z: 0.671434873987
    w: -0.740631980804
---
header: 
  seq: 11860
  stamp: 
    secs: 1723800140
    nsecs: 368416640
  frame_id: "map"
pose: 
  position: 
    x: -1.4606667757
    y: -4.31169176102
    z: -6.86783456802
  orientation: 
    x: -0.0227715168307
    y: -0.0109716294088
    z: 0.67147868827
    w: -0.740592634087
---
header: 
  seq: 11861
  stamp: 
    secs: 1723800140
    nsecs: 397416640
  frame_id: "map"
pose: 
  position: 
    x: -1.45985531807
    y: -4.31221866608
    z: -6.86767244339
  orientation: 
    x: -0.0227179264543
    y: -0.0109478987574
    z: 0.671473564794
    w: -0.74059927485
---
header: 
  seq: 11862
  stamp: 
    secs: 1723800140
    nsecs: 437416640
  frame_id: "map"
pose: 
  position: 
    x: -1.45878410339
    y: -4.31285953522
    z: -6.86759710312
  orientation: 
    x: -0.0226349873833
    y: -0.0109684051749
    z: 0.671491095249
    w: -0.740585706199
---
header: 
  seq: 11863
  stamp: 
    secs: 1723800140
    nsecs: 468422528
  frame_id: "map"
pose: 
  position: 
    x: -1.457873106
    y: -4.31332540512
    z: -6.86737537384
  orientation: 
    x: -0.022715695964
    y: -0.0109582477844
    z: 0.671565790001
    w: -0.740515563306
---
header: 
  seq: 11864
  stamp: 
    secs: 1723800140
    nsecs: 498422528
  frame_id: "map"
pose: 
  position: 
    x: -1.45725238323
    y: -4.31399536133
    z: -6.86703968048
  orientation: 
    x: -0.0227458243752
    y: -0.0109845118564
    z: 0.67159830366
    w: -0.740484904108
---
header: 
  seq: 11865
  stamp: 
    secs: 1723800140
    nsecs: 528422528
  frame_id: "map"
pose: 
  position: 
    x: -1.45656216145
    y: -4.3145737648
    z: -6.8666677475
  orientation: 
    x: -0.0227341793327
    y: -0.01106263565
    z: 0.671638137701
    w: -0.74044785176
---
header: 
  seq: 11866
  stamp: 
    secs: 1723800140
    nsecs: 568421248
  frame_id: "map"
pose: 
  position: 
    x: -1.45550465584
    y: -4.31528997421
    z: -6.86619138718
  orientation: 
    x: -0.02263450928
    y: -0.0111541660926
    z: 0.671632374119
    w: -0.740454795453
---
header: 
  seq: 11867
  stamp: 
    secs: 1723800140
    nsecs: 598421248
  frame_id: "map"
pose: 
  position: 
    x: -1.45494008064
    y: -4.31594514847
    z: -6.8659491539
  orientation: 
    x: -0.0226323011802
    y: -0.0111890643417
    z: 0.671647581229
    w: -0.740440599867
---
header: 
  seq: 11868
  stamp: 
    secs: 1723800140
    nsecs: 638424064
  frame_id: "map"
pose: 
  position: 
    x: -1.45393502712
    y: -4.31655454636
    z: -6.8657746315
  orientation: 
    x: -0.0227372079789
    y: -0.0111824360912
    z: 0.671716601962
    w: -0.740374782295
---
header: 
  seq: 11869
  stamp: 
    secs: 1723800140
    nsecs: 668424064
  frame_id: "map"
pose: 
  position: 
    x: -1.4533509016
    y: -4.3170466423
    z: -6.86586713791
  orientation: 
    x: -0.0227910005285
    y: -0.0111728503174
    z: 0.671750711933
    w: -0.740342273904
---
header: 
  seq: 11870
  stamp: 
    secs: 1723800140
    nsecs: 698424064
  frame_id: "map"
pose: 
  position: 
    x: -1.45281052589
    y: -4.31764888763
    z: -6.86638021469
  orientation: 
    x: -0.0227833060945
    y: -0.0111806369476
    z: 0.671754876569
    w: -0.740338699324
---
header: 
  seq: 11871
  stamp: 
    secs: 1723800140
    nsecs: 738424064
  frame_id: "map"
pose: 
  position: 
    x: -1.45214927197
    y: -4.31827688217
    z: -6.86700201035
  orientation: 
    x: -0.0227586093583
    y: -0.0111981555486
    z: 0.671796825854
    w: -0.740301049018
---
header: 
  seq: 11872
  stamp: 
    secs: 1723800140
    nsecs: 768427392
  frame_id: "map"
pose: 
  position: 
    x: -1.45152342319
    y: -4.31873178482
    z: -6.86733198166
  orientation: 
    x: -0.0227748563099
    y: -0.0111817426439
    z: 0.671813626641
    w: -0.74028559693
---
header: 
  seq: 11873
  stamp: 
    secs: 1723800140
    nsecs: 798427392
  frame_id: "map"
pose: 
  position: 
    x: -1.45112740993
    y: -4.31934738159
    z: -6.86745738983
  orientation: 
    x: -0.0228033166279
    y: -0.0111554107417
    z: 0.671825293416
    w: -0.740274604505
---
header: 
  seq: 11874
  stamp: 
    secs: 1723800140
    nsecs: 828427392
  frame_id: "map"
pose: 
  position: 
    x: -1.45046794415
    y: -4.31985473633
    z: -6.86751174927
  orientation: 
    x: -0.0228764578737
    y: -0.011148956347
    z: 0.67183204218
    w: -0.740266338454
---
header: 
  seq: 11875
  stamp: 
    secs: 1723800140
    nsecs: 868429184
  frame_id: "map"
pose: 
  position: 
    x: -1.44955098629
    y: -4.3203587532
    z: -6.86746644974
  orientation: 
    x: -0.022867688695
    y: -0.0111413672801
    z: 0.671877779413
    w: -0.74022515308
---
header: 
  seq: 11876
  stamp: 
    secs: 1723800140
    nsecs: 898429184
  frame_id: "map"
pose: 
  position: 
    x: -1.44900178909
    y: -4.32082080841
    z: -6.86730337143
  orientation: 
    x: -0.0228190110606
    y: -0.0111642247014
    z: 0.671897080035
    w: -0.740208718444
---
header: 
  seq: 11877
  stamp: 
    secs: 1723800140
    nsecs: 938431232
  frame_id: "map"
pose: 
  position: 
    x: -1.44801175594
    y: -4.32129144669
    z: -6.86708402634
  orientation: 
    x: -0.0227036999173
    y: -0.0112103122802
    z: 0.671938771171
    w: -0.740173855097
---
header: 
  seq: 11878
  stamp: 
    secs: 1723800140
    nsecs: 968431232
  frame_id: "map"
pose: 
  position: 
    x: -1.44739723206
    y: -4.32164764404
    z: -6.86730289459
  orientation: 
    x: -0.0226443821792
    y: -0.0111786270698
    z: 0.671984397769
    w: -0.740134634821
---
header: 
  seq: 11879
  stamp: 
    secs: 1723800140
    nsecs: 998431232
  frame_id: "map"
pose: 
  position: 
    x: -1.44681274891
    y: -4.32207870483
    z: -6.86794376373
  orientation: 
    x: -0.0226708872786
    y: -0.0111137999484
    z: 0.672006053346
    w: -0.740115170879
---
header: 
  seq: 11880
  stamp: 
    secs: 1723800141
    nsecs:  38434816
  frame_id: "map"
pose: 
  position: 
    x: -1.44614684582
    y: -4.32255554199
    z: -6.86873006821
  orientation: 
    x: -0.0226973581336
    y: -0.0110601812546
    z: 0.672024002636
    w: -0.74009882317
---
header: 
  seq: 11881
  stamp: 
    secs: 1723800141
    nsecs:  68434816
  frame_id: "map"
pose: 
  position: 
    x: -1.44539487362
    y: -4.32279491425
    z: -6.8691034317
  orientation: 
    x: -0.0227376524964
    y: -0.0109797314819
    z: 0.672100406969
    w: -0.740029499507
---
header: 
  seq: 11882
  stamp: 
    secs: 1723800141
    nsecs:  98434816
  frame_id: "map"
pose: 
  position: 
    x: -1.44508802891
    y: -4.32332134247
    z: -6.86924982071
  orientation: 
    x: -0.0227267674143
    y: -0.0109248385044
    z: 0.672116530773
    w: -0.740015904514
---
header: 
  seq: 11883
  stamp: 
    secs: 1723800141
    nsecs: 128434816
  frame_id: "map"
pose: 
  position: 
    x: -1.44451916218
    y: -4.32374334335
    z: -6.869535923
  orientation: 
    x: -0.0227079218461
    y: -0.0107963755687
    z: 0.67215623047
    w: -0.739982358257
---
header: 
  seq: 11884
  stamp: 
    secs: 1723800141
    nsecs: 169436864
  frame_id: "map"
pose: 
  position: 
    x: -1.44392764568
    y: -4.32421875
    z: -6.87000370026
  orientation: 
    x: -0.0227610110701
    y: -0.0107481780132
    z: 0.67223888044
    w: -0.739906283195
---
header: 
  seq: 11885
  stamp: 
    secs: 1723800141
    nsecs: 199436864
  frame_id: "map"
pose: 
  position: 
    x: -1.44344091415
    y: -4.3245139122
    z: -6.87035131454
  orientation: 
    x: -0.0228013956536
    y: -0.0107501483784
    z: 0.672291643026
    w: -0.739857145238
---
header: 
  seq: 11886
  stamp: 
    secs: 1723800141
    nsecs: 229436864
  frame_id: "map"
pose: 
  position: 
    x: -1.44297730923
    y: -4.32475280762
    z: -6.87066507339
  orientation: 
    x: -0.022798050906
    y: -0.0106850071313
    z: 0.672336653226
    w: -0.73981719266
---
header: 
  seq: 11887
  stamp: 
    secs: 1723800141
    nsecs: 269439168
  frame_id: "map"
pose: 
  position: 
    x: -1.44219052792
    y: -4.32500839233
    z: -6.87114906311
  orientation: 
    x: -0.0228282840258
    y: -0.0106325810616
    z: 0.672399894572
    w: -0.739759598992
---
header: 
  seq: 11888
  stamp: 
    secs: 1723800141
    nsecs: 299439168
  frame_id: "map"
pose: 
  position: 
    x: -1.44188344479
    y: -4.32528495789
    z: -6.87146186829
  orientation: 
    x: -0.0228527285394
    y: -0.0106347601853
    z: 0.67244294231
    w: -0.739719754415
---
header: 
  seq: 11889
  stamp: 
    secs: 1723800141
    nsecs: 329439168
  frame_id: "map"
pose: 
  position: 
    x: -1.44143259525
    y: -4.3254942894
    z: -6.8719201088
  orientation: 
    x: -0.0228698059156
    y: -0.0106119007884
    z: 0.672504784907
    w: -0.739663306614
---
header: 
  seq: 11890
  stamp: 
    secs: 1723800141
    nsecs: 369440192
  frame_id: "map"
pose: 
  position: 
    x: -1.44047856331
    y: -4.32567930222
    z: -6.87254476547
  orientation: 
    x: -0.0228978421309
    y: -0.0105555682326
    z: 0.672507845822
    w: -0.73966049858
---
header: 
  seq: 11891
  stamp: 
    secs: 1723800141
    nsecs: 399440192
  frame_id: "map"
pose: 
  position: 
    x: -1.44031476974
    y: -4.32596302032
    z: -6.87330436707
  orientation: 
    x: -0.0229378533196
    y: -0.0105522485098
    z: 0.672532981149
    w: -0.739636290484
---
header: 
  seq: 11892
  stamp: 
    secs: 1723800141
    nsecs: 439443264
  frame_id: "map"
pose: 
  position: 
    x: -1.43969333172
    y: -4.32622098923
    z: -6.87422418594
  orientation: 
    x: -0.0229796195294
    y: -0.0105832251263
    z: 0.672592895528
    w: -0.739580169321
---
header: 
  seq: 11893
  stamp: 
    secs: 1723800141
    nsecs: 469443264
  frame_id: "map"
pose: 
  position: 
    x: -1.43933308125
    y: -4.32633495331
    z: -6.87487411499
  orientation: 
    x: -0.0229913554511
    y: -0.0106084045756
    z: 0.672590703892
    w: -0.739581433726
---
header: 
  seq: 11894
  stamp: 
    secs: 1723800141
    nsecs: 499443264
  frame_id: "map"
pose: 
  position: 
    x: -1.43905174732
    y: -4.32638406754
    z: -6.87547302246
  orientation: 
    x: -0.0230032099107
    y: -0.0106233634141
    z: 0.6725913519
    w: -0.739580195663
---
header: 
  seq: 11895
  stamp: 
    secs: 1723800141
    nsecs: 529443264
  frame_id: "map"
pose: 
  position: 
    x: -1.43881249428
    y: -4.32637405396
    z: -6.87603712082
  orientation: 
    x: -0.0230393653213
    y: -0.0105664322414
    z: 0.672645128645
    w: -0.739531055072
---
header: 
  seq: 11896
  stamp: 
    secs: 1723800141
    nsecs: 569445312
  frame_id: "map"
pose: 
  position: 
    x: -1.43829584122
    y: -4.32636833191
    z: -6.87667703629
  orientation: 
    x: -0.0230171084926
    y: -0.0105281187804
    z: 0.672656932396
    w: -0.73952152725
---
header: 
  seq: 11897
  stamp: 
    secs: 1723800141
    nsecs: 599445312
  frame_id: "map"
pose: 
  position: 
    x: -1.43824672699
    y: -4.32663583755
    z: -6.87688970566
  orientation: 
    x: -0.023004234606
    y: -0.0105155833857
    z: 0.672639623212
    w: -0.739537824909
---
header: 
  seq: 11898
  stamp: 
    secs: 1723800141
    nsecs: 629445312
  frame_id: "map"
pose: 
  position: 
    x: -1.43807113171
    y: -4.32683706284
    z: -6.8770904541
  orientation: 
    x: -0.0230739612985
    y: -0.0105268550335
    z: 0.672662587977
    w: -0.739514691558
---
header: 
  seq: 11899
  stamp: 
    secs: 1723800141
    nsecs: 670447360
  frame_id: "map"
pose: 
  position: 
    x: -1.43757224083
    y: -4.32702875137
    z: -6.87732553482
  orientation: 
    x: -0.0231339468007
    y: -0.0104260055276
    z: 0.672683988039
    w: -0.739494724488
---
header: 
  seq: 11900
  stamp: 
    secs: 1723800141
    nsecs: 699447360
  frame_id: "map"
pose: 
  position: 
    x: -1.43747186661
    y: -4.32726049423
    z: -6.87743330002
  orientation: 
    x: -0.0231262102198
    y: -0.010396286731
    z: 0.672692156625
    w: -0.739487904601
---
header: 
  seq: 11901
  stamp: 
    secs: 1723800141
    nsecs: 739449408
  frame_id: "map"
pose: 
  position: 
    x: -1.43696510792
    y: -4.32748842239
    z: -6.87754297256
  orientation: 
    x: -0.0230419573525
    y: -0.0104071645692
    z: 0.672711499394
    w: -0.739472776517
---
header: 
  seq: 11902
  stamp: 
    secs: 1723800141
    nsecs: 770449408
  frame_id: "map"
pose: 
  position: 
    x: -1.43669915199
    y: -4.32767724991
    z: -6.87785053253
  orientation: 
    x: -0.0229610426474
    y: -0.0104175070107
    z: 0.672740857308
    w: -0.739448476224
---
header: 
  seq: 11903
  stamp: 
    secs: 1723800141
    nsecs: 800449408
  frame_id: "map"
pose: 
  position: 
    x: -1.43645811081
    y: -4.32792282104
    z: -6.87806272507
  orientation: 
    x: -0.0229476544375
    y: -0.0104287694389
    z: 0.672753148383
    w: -0.739437618143
---
header: 
  seq: 11904
  stamp: 
    secs: 1723800141
    nsecs: 830449408
  frame_id: "map"
pose: 
  position: 
    x: -1.4362500906
    y: -4.32815647125
    z: -6.87826728821
  orientation: 
    x: -0.0229401911526
    y: -0.010427742768
    z: 0.672779866851
    w: -0.739413512779
---
header: 
  seq: 11905
  stamp: 
    secs: 1723800141
    nsecs: 870451712
  frame_id: "map"
pose: 
  position: 
    x: -1.43562448025
    y: -4.3283700943
    z: -6.87865877151
  orientation: 
    x: -0.022973783508
    y: -0.0104389762202
    z: 0.67280023695
    w: -0.739393732737
---
header: 
  seq: 11906
  stamp: 
    secs: 1723800141
    nsecs: 900451712
  frame_id: "map"
pose: 
  position: 
    x: -1.43549406528
    y: -4.32849693298
    z: -6.87896347046
  orientation: 
    x: -0.022970773301
    y: -0.0104247957813
    z: 0.672817722623
    w: -0.739378185818
---
header: 
  seq: 11907
  stamp: 
    secs: 1723800141
    nsecs: 930451712
  frame_id: "map"
pose: 
  position: 
    x: -1.43506646156
    y: -4.32852554321
    z: -6.87916660309
  orientation: 
    x: -0.0229248622121
    y: -0.0103830098152
    z: 0.672839678497
    w: -0.739360191748
---
header: 
  seq: 11908
  stamp: 
    secs: 1723800141
    nsecs: 970453504
  frame_id: "map"
pose: 
  position: 
    x: -1.43471515179
    y: -4.328561306
    z: -6.87938308716
  orientation: 
    x: -0.0228910650494
    y: -0.0103568794277
    z: 0.672875740395
    w: -0.739328766004
---
header: 
  seq: 11909
  stamp: 
    secs: 1723800142
    nsecs:    453504
  frame_id: "map"
pose: 
  position: 
    x: -1.4345074892
    y: -4.32867431641
    z: -6.87953186035
  orientation: 
    x: -0.0228868806576
    y: -0.0103314714635
    z: 0.67289493565
    w: -0.739311846678
---
header: 
  seq: 11910
  stamp: 
    secs: 1723800142
    nsecs:  30456576
  frame_id: "map"
pose: 
  position: 
    x: -1.43430328369
    y: -4.32874441147
    z: -6.87960290909
  orientation: 
    x: -0.0228850176352
    y: -0.0102531606433
    z: 0.672919206966
    w: -0.739290862816
---
header: 
  seq: 11911
  stamp: 
    secs: 1723800142
    nsecs:  70456576
  frame_id: "map"
pose: 
  position: 
    x: -1.43397963047
    y: -4.32886648178
    z: -6.8796043396
  orientation: 
    x: -0.0228924262609
    y: -0.0102371566947
    z: 0.672965415717
    w: -0.739248784456
---
header: 
  seq: 11912
  stamp: 
    secs: 1723800142
    nsecs: 100456576
  frame_id: "map"
pose: 
  position: 
    x: -1.43375825882
    y: -4.32913732529
    z: -6.87951803207
  orientation: 
    x: -0.022878986026
    y: -0.0102417539939
    z: 0.672980804585
    w: -0.739235081462
---
header: 
  seq: 11913
  stamp: 
    secs: 1723800142
    nsecs: 130456576
  frame_id: "map"
pose: 
  position: 
    x: -1.43353664875
    y: -4.32938718796
    z: -6.87933969498
  orientation: 
    x: -0.0229112612924
    y: -0.010259659819
    z: 0.673009258976
    w: -0.73920797577
---
header: 
  seq: 11914
  stamp: 
    secs: 1723800142
    nsecs: 170458624
  frame_id: "map"
pose: 
  position: 
    x: -1.43302237988
    y: -4.32970190048
    z: -6.87900114059
  orientation: 
    x: -0.0229940607519
    y: -0.0102401543893
    z: 0.673013953082
    w: -0.739201427203
---
header: 
  seq: 11915
  stamp: 
    secs: 1723800142
    nsecs: 200458624
  frame_id: "map"
pose: 
  position: 
    x: -1.432985425
    y: -4.32999038696
    z: -6.87823343277
  orientation: 
    x: -0.0230378025952
    y: -0.0102065172529
    z: 0.673036628086
    w: -0.739179932311
---
header: 
  seq: 11916
  stamp: 
    secs: 1723800142
    nsecs: 230460928
  frame_id: "map"
pose: 
  position: 
    x: -1.43264877796
    y: -4.33017301559
    z: -6.8774523735
  orientation: 
    x: -0.0230613495126
    y: -0.0102256308487
    z: 0.673040039347
    w: -0.739175678113
---
header: 
  seq: 11917
  stamp: 
    secs: 1723800142
    nsecs: 270460928
  frame_id: "map"
pose: 
  position: 
    x: -1.43219769001
    y: -4.33027172089
    z: -6.87627506256
  orientation: 
    x: -0.023009213861
    y: -0.0102023710567
    z: 0.673082857911
    w: -0.739138675814
---
header: 
  seq: 11918
  stamp: 
    secs: 1723800142
    nsecs: 300460928
  frame_id: "map"
pose: 
  position: 
    x: -1.43209719658
    y: -4.33039188385
    z: -6.87550878525
  orientation: 
    x: -0.0229965651967
    y: -0.0101726753092
    z: 0.673104871736
    w: -0.739119443681
---
header: 
  seq: 11919
  stamp: 
    secs: 1723800142
    nsecs: 330460928
  frame_id: "map"
pose: 
  position: 
    x: -1.43202757835
    y: -4.33050251007
    z: -6.87480020523
  orientation: 
    x: -0.0230400660127
    y: -0.0100709222801
    z: 0.673144679435
    w: -0.739083260611
---
header: 
  seq: 11920
  stamp: 
    secs: 1723800142
    nsecs: 370465792
  frame_id: "map"
pose: 
  position: 
    x: -1.43155610561
    y: -4.33057355881
    z: -6.87400054932
  orientation: 
    x: -0.0231087410096
    y: -0.00999674711948
    z: 0.673154860533
    w: -0.739072826632
---
header: 
  seq: 11921
  stamp: 
    secs: 1723800142
    nsecs: 401465792
  frame_id: "map"
pose: 
  position: 
    x: -1.43171620369
    y: -4.33068370819
    z: -6.87353658676
  orientation: 
    x: -0.0231080778553
    y: -0.00999937010226
    z: 0.673170009691
    w: -0.73905894188
---
header: 
  seq: 11922
  stamp: 
    secs: 1723800142
    nsecs: 431465792
  frame_id: "map"
pose: 
  position: 
    x: -1.43169236183
    y: -4.3307352066
    z: -6.87313652039
  orientation: 
    x: -0.0231196886535
    y: -0.00994791999548
    z: 0.673186086079
    w: -0.739044719952
---
header: 
  seq: 11923
  stamp: 
    secs: 1723800142
    nsecs: 471468096
  frame_id: "map"
pose: 
  position: 
    x: -1.43140721321
    y: -4.33079195023
    z: -6.87233781815
  orientation: 
    x: -0.0231047219125
    y: -0.0099995202504
    z: 0.673221763387
    w: -0.739011992924
---
header: 
  seq: 11924
  stamp: 
    secs: 1723800142
    nsecs: 501468096
  frame_id: "map"
pose: 
  position: 
    x: -1.43143832684
    y: -4.33092832565
    z: -6.87144613266
  orientation: 
    x: -0.0231224472965
    y: -0.010024563381
    z: 0.673234768324
    w: -0.738999240869
---
header: 
  seq: 11925
  stamp: 
    secs: 1723800142
    nsecs: 531468096
  frame_id: "map"
pose: 
  position: 
    x: -1.43114888668
    y: -4.33098506927
    z: -6.87045812607
  orientation: 
    x: -0.0231697156456
    y: -0.0100047853137
    z: 0.673278714316
    w: -0.738957992275
---
header: 
  seq: 11926
  stamp: 
    secs: 1723800142
    nsecs: 571470144
  frame_id: "map"
pose: 
  position: 
    x: -1.43092894554
    y: -4.33105134964
    z: -6.86931276321
  orientation: 
    x: -0.023168966222
    y: -0.0099929802449
    z: 0.673305388002
    w: -0.738933847399
---
header: 
  seq: 11927
  stamp: 
    secs: 1723800142
    nsecs: 601470144
  frame_id: "map"
pose: 
  position: 
    x: -1.43081843853
    y: -4.33118200302
    z: -6.86840772629
  orientation: 
    x: -0.0231571822265
    y: -0.0100113918323
    z: 0.673310216451
    w: -0.738929524713
---
header: 
  seq: 11928
  stamp: 
    secs: 1723800142
    nsecs: 631470144
  frame_id: "map"
pose: 
  position: 
    x: -1.43076097965
    y: -4.3312664032
    z: -6.86737632751
  orientation: 
    x: -0.0231293317207
    y: -0.0100430171152
    z: 0.673329706734
    w: -0.738912310359
---
header: 
  seq: 11929
  stamp: 
    secs: 1723800142
    nsecs: 661472448
  frame_id: "map"
pose: 
  position: 
    x: -1.43056559563
    y: -4.33129501343
    z: -6.86647748947
  orientation: 
    x: -0.023165815745
    y: -0.00998025979918
    z: 0.673372037975
    w: -0.73887343516
---
header: 
  seq: 11930
  stamp: 
    secs: 1723800142
    nsecs: 701472448
  frame_id: "map"
pose: 
  position: 
    x: -1.43075692654
    y: -4.33143854141
    z: -6.86593723297
  orientation: 
    x: -0.0232049681917
    y: -0.00991562168009
    z: 0.673385535503
    w: -0.738860696275
---
header: 
  seq: 11931
  stamp: 
    secs: 1723800142
    nsecs: 731472448
  frame_id: "map"
pose: 
  position: 
    x: -1.43081331253
    y: -4.33149147034
    z: -6.86582326889
  orientation: 
    x: -0.0232729536925
    y: -0.00989522787376
    z: 0.673408934907
    w: -0.738837549753
---
header: 
  seq: 11932
  stamp: 
    secs: 1723800142
    nsecs: 771474752
  frame_id: "map"
pose: 
  position: 
    x: -1.43065750599
    y: -4.33148908615
    z: -6.8658747673
  orientation: 
    x: -0.023255502263
    y: -0.00987393844691
    z: 0.673435534836
    w: -0.738814152983
---
header: 
  seq: 11933
  stamp: 
    secs: 1723800142
    nsecs: 801474752
  frame_id: "map"
pose: 
  position: 
    x: -1.43084311485
    y: -4.33151197433
    z: -6.86631393433
  orientation: 
    x: -0.0232543642981
    y: -0.00986175800769
    z: 0.673439991866
    w: -0.73881028601
---
header: 
  seq: 11934
  stamp: 
    secs: 1723800142
    nsecs: 831474752
  frame_id: "map"
pose: 
  position: 
    x: -1.43075358868
    y: -4.33146238327
    z: -6.8668513298
  orientation: 
    x: -0.0232957531619
    y: -0.00977868591073
    z: 0.673472774211
    w: -0.738780201063
---
header: 
  seq: 11935
  stamp: 
    secs: 1723800142
    nsecs: 871477056
  frame_id: "map"
pose: 
  position: 
    x: -1.43062102795
    y: -4.33133602142
    z: -6.86781978607
  orientation: 
    x: -0.0233220442343
    y: -0.00970495329198
    z: 0.673511127843
    w: -0.738745303472
---
header: 
  seq: 11936
  stamp: 
    secs: 1723800142
    nsecs: 901477056
  frame_id: "map"
pose: 
  position: 
    x: -1.43082153797
    y: -4.33139324188
    z: -6.86836433411
  orientation: 
    x: -0.0233280020865
    y: -0.00970183771792
    z: 0.673513127185
    w: -0.738743472718
---
header: 
  seq: 11937
  stamp: 
    secs: 1723800142
    nsecs: 931477056
  frame_id: "map"
pose: 
  position: 
    x: -1.43099021912
    y: -4.33142900467
    z: -6.86882400513
  orientation: 
    x: -0.0233462674769
    y: -0.00968322461594
    z: 0.673518980328
    w: -0.738737703869
---
header: 
  seq: 11938
  stamp: 
    secs: 1723800142
    nsecs: 961478336
  frame_id: "map"
pose: 
  position: 
    x: -1.43087303638
    y: -4.33140087128
    z: -6.86918354034
  orientation: 
    x: -0.0233742957897
    y: -0.00963859044483
    z: 0.673527717897
    w: -0.738729472062
---
header: 
  seq: 11939
  stamp: 
    secs: 1723800143
    nsecs:   1478336
  frame_id: "map"
pose: 
  position: 
    x: -1.43143641949
    y: -4.33159732819
    z: -6.86984157562
  orientation: 
    x: -0.023395036649
    y: -0.00961025788446
    z: 0.67353759343
    w: -0.738720186585
---
header: 
  seq: 11940
  stamp: 
    secs: 1723800143
    nsecs:  31478336
  frame_id: "map"
pose: 
  position: 
    x: -1.43152940273
    y: -4.33163928986
    z: -6.87028312683
  orientation: 
    x: -0.0233948094512
    y: -0.00963335501599
    z: 0.673564746537
    w: -0.73869514082
---
header: 
  seq: 11941
  stamp: 
    secs: 1723800143
    nsecs:  72480640
  frame_id: "map"
pose: 
  position: 
    x: -1.43176984787
    y: -4.33167266846
    z: -6.87115287781
  orientation: 
    x: -0.023364452525
    y: -0.00964000697406
    z: 0.673588991512
    w: -0.738673846125
---
header: 
  seq: 11942
  stamp: 
    secs: 1723800143
    nsecs: 101480640
  frame_id: "map"
pose: 
  position: 
    x: -1.43206393719
    y: -4.33168745041
    z: -6.87172317505
  orientation: 
    x: -0.0233544176238
    y: -0.00964137806373
    z: 0.67360636655
    w: -0.738658409841
---
header: 
  seq: 11943
  stamp: 
    secs: 1723800143
    nsecs: 131480640
  frame_id: "map"
pose: 
  position: 
    x: -1.43235707283
    y: -4.33168077469
    z: -6.87221956253
  orientation: 
    x: -0.0233573804155
    y: -0.00957858255217
    z: 0.67364293421
    w: -0.738625635398
---
header: 
  seq: 11944
  stamp: 
    secs: 1723800143
    nsecs: 162483712
  frame_id: "map"
pose: 
  position: 
    x: -1.432513237
    y: -4.33162879944
    z: -6.87268543243
  orientation: 
    x: -0.0233672309242
    y: -0.00951191809163
    z: 0.67368792597
    w: -0.738585279791
---
header: 
  seq: 11945
  stamp: 
    secs: 1723800143
    nsecs: 202483712
  frame_id: "map"
pose: 
  position: 
    x: -1.43304717541
    y: -4.33170461655
    z: -6.8731803894
  orientation: 
    x: -0.0233959823189
    y: -0.00949976465273
    z: 0.673709083688
    w: -0.738565133597
---
header: 
  seq: 11946
  stamp: 
    secs: 1723800143
    nsecs: 232483712
  frame_id: "map"
pose: 
  position: 
    x: -1.43334555626
    y: -4.33172559738
    z: -6.87353086472
  orientation: 
    x: -0.0234485677564
    y: -0.00944915484875
    z: 0.673743180489
    w: -0.738533059846
---
header: 
  seq: 11947
  stamp: 
    secs: 1723800143
    nsecs: 262485760
  frame_id: "map"
pose: 
  position: 
    x: -1.43337929249
    y: -4.33171129227
    z: -6.87376260757
  orientation: 
    x: -0.0234767936326
    y: -0.00940891712077
    z: 0.673774861748
    w: -0.73850373881
---
header: 
  seq: 11948
  stamp: 
    secs: 1723800143
    nsecs: 302485760
  frame_id: "map"
pose: 
  position: 
    x: -1.43389821053
    y: -4.33190393448
    z: -6.87444162369
  orientation: 
    x: -0.0235030458509
    y: -0.00941012094013
    z: 0.673800800499
    w: -0.738479317345
---
header: 
  seq: 11949
  stamp: 
    secs: 1723800143
    nsecs: 332485760
  frame_id: "map"
pose: 
  position: 
    x: -1.43397855759
    y: -4.33194112778
    z: -6.87483596802
  orientation: 
    x: -0.0235222812774
    y: -0.00937187465074
    z: 0.673855665159
    w: -0.738429004545
---
header: 
  seq: 11950
  stamp: 
    secs: 1723800143
    nsecs: 362487808
  frame_id: "map"
pose: 
  position: 
    x: -1.43403995037
    y: -4.33194446564
    z: -6.87515735626
  orientation: 
    x: -0.0234945124311
    y: -0.00933653912807
    z: 0.673909552539
    w: -0.738381186311
---
header: 
  seq: 11951
  stamp: 
    secs: 1723800143
    nsecs: 402487808
  frame_id: "map"
pose: 
  position: 
    x: -1.4345728159
    y: -4.33197593689
    z: -6.87469053268
  orientation: 
    x: -0.0234529233698
    y: -0.00933290988929
    z: 0.673934703671
    w: -0.738359659808
---
header: 
  seq: 11952
  stamp: 
    secs: 1723800143
    nsecs: 432487808
  frame_id: "map"
pose: 
  position: 
    x: -1.43488836288
    y: -4.33196306229
    z: -6.87433958054
  orientation: 
    x: -0.0234620389429
    y: -0.00927715882833
    z: 0.673977806726
    w: -0.738320687144
---
header: 
  seq: 11953
  stamp: 
    secs: 1723800143
    nsecs: 462489856
  frame_id: "map"
pose: 
  position: 
    x: -1.4350771904
    y: -4.33190536499
    z: -6.87400007248
  orientation: 
    x: -0.0235123965243
    y: -0.00919542555236
    z: 0.673992355291
    w: -0.738306897222
---
header: 
  seq: 11954
  stamp: 
    secs: 1723800143
    nsecs: 502489856
  frame_id: "map"
pose: 
  position: 
    x: -1.43552589417
    y: -4.33170604706
    z: -6.8742146492
  orientation: 
    x: -0.02351309524
    y: -0.0091346201623
    z: 0.674005881796
    w: -0.738295309473
---
header: 
  seq: 11955
  stamp: 
    secs: 1723800143
    nsecs: 532491904
  frame_id: "map"
pose: 
  position: 
    x: -1.43577754498
    y: -4.33149719238
    z: -6.87442207336
  orientation: 
    x: -0.0235229279681
    y: -0.00907037321865
    z: 0.674035255515
    w: -0.738268970327
---
header: 
  seq: 11956
  stamp: 
    secs: 1723800143
    nsecs: 572491904
  frame_id: "map"
pose: 
  position: 
    x: -1.43593561649
    y: -4.3311548233
    z: -6.87485647202
  orientation: 
    x: -0.0235217913203
    y: -0.00902825402901
    z: 0.674065190314
    w: -0.738242154395
---
header: 
  seq: 11957
  stamp: 
    secs: 1723800143
    nsecs: 602491904
  frame_id: "map"
pose: 
  position: 
    x: -1.43629014492
    y: -4.33099079132
    z: -6.87559890747
  orientation: 
    x: -0.0235148357732
    y: -0.00899656618437
    z: 0.674076209081
    w: -0.738232652915
---
header: 
  seq: 11958
  stamp: 
    secs: 1723800143
    nsecs: 632491904
  frame_id: "map"
pose: 
  position: 
    x: -1.43641757965
    y: -4.33075380325
    z: -6.87628412247
  orientation: 
    x: -0.0235391321143
    y: -0.00890378121446
    z: 0.674111172526
    w: -0.738201145511
---
header: 
  seq: 11959
  stamp: 
    secs: 1723800143
    nsecs: 662494976
  frame_id: "map"
pose: 
