header: 
  seq: 5221
  stamp: 
    secs: 1723704035
    nsecs: 459878400
  frame_id: "map"
pose: 
  position: 
    x: 0.104902692139
    y: -0.601342022419
    z: -0.224780425429
  orientation: 
    x: -0.0166921873759
    y: 0.0165199981344
    z: -0.464059856431
    w: -0.885492516719
---
header: 
  seq: 5222
  stamp: 
    secs: 1723704035
    nsecs: 489878400
  frame_id: "map"
pose: 
  position: 
    x: 0.104742743075
    y: -0.601615071297
    z: -0.224426671863
  orientation: 
    x: -0.0167189004107
    y: 0.0165025336987
    z: -0.464160734913
    w: -0.885439432763
---
header: 
  seq: 5223
  stamp: 
    secs: 1723704035
    nsecs: 529878400
  frame_id: "map"
pose: 
  position: 
    x: 0.104562610388
    y: -0.601743042469
    z: -0.224640160799
  orientation: 
    x: -0.0168394987506
    y: 0.0164472761448
    z: -0.464355390133
    w: -0.885336151911
---
header: 
  seq: 5224
  stamp: 
    secs: 1723704035
    nsecs: 559881728
  frame_id: "map"
pose: 
  position: 
    x: 0.104437381029
    y: -0.60188472271
    z: -0.224816635251
  orientation: 
    x: -0.0169629806409
    y: 0.016417341819
    z: -0.464546357503
    w: -0.885234198684
---
header: 
  seq: 5225
  stamp: 
    secs: 1723704035
    nsecs: 589881728
  frame_id: "map"
pose: 
  position: 
    x: 0.104311518371
    y: -0.602122783661
    z: -0.225007981062
  orientation: 
    x: -0.0170060006783
    y: 0.0163792766705
    z: -0.464641925482
    w: -0.885183896421
---
header: 
  seq: 5226
  stamp: 
    secs: 1723704035
    nsecs: 619881728
  frame_id: "map"
pose: 
  position: 
    x: 0.104232951999
    y: -0.602076411247
    z: -0.225008681417
  orientation: 
    x: -0.0171088866302
    y: 0.0163503373642
    z: -0.464855820739
    w: -0.885070142076
---
header: 
  seq: 5227
  stamp: 
    secs: 1723704035
    nsecs: 659885056
  frame_id: "map"
pose: 
  position: 
    x: 0.10412080586
    y: -0.602167487144
    z: -0.224998250604
  orientation: 
    x: -0.0171691385136
    y: 0.0163008777082
    z: -0.465046809183
    w: -0.884969516476
---
header: 
  seq: 5228
  stamp: 
    secs: 1723704035
    nsecs: 689885056
  frame_id: "map"
pose: 
  position: 
    x: 0.104032091796
    y: -0.602333307266
    z: -0.224807336926
  orientation: 
    x: -0.0172099935448
    y: 0.0162492067421
    z: -0.465163492733
    w: -0.884908382472
---
header: 
  seq: 5229
  stamp: 
    secs: 1723704035
    nsecs: 729885056
  frame_id: "map"
pose: 
  position: 
    x: 0.103998318315
    y: -0.602424323559
    z: -0.224043816328
  orientation: 
    x: -0.0173247134386
    y: 0.0161777268806
    z: -0.465349718583
    w: -0.884809484892
---
header: 
  seq: 5230
  stamp: 
    secs: 1723704035
    nsecs: 759888384
  frame_id: "map"
pose: 
  position: 
    x: 0.103965967894
    y: -0.602681577206
    z: -0.223537966609
  orientation: 
    x: -0.0174608311311
    y: 0.0160999272557
    z: -0.465560199944
    w: -0.884697458568
---
header: 
  seq: 5231
  stamp: 
    secs: 1723704035
    nsecs: 789888384
  frame_id: "map"
pose: 
  position: 
    x: 0.103918321431
    y: -0.602960884571
    z: -0.223101317883
  orientation: 
    x: -0.0175428607109
    y: 0.0160392108103
    z: -0.465668580565
    w: -0.884639907047
---
header: 
  seq: 5232
  stamp: 
    secs: 1723704035
    nsecs: 819888384
  frame_id: "map"
pose: 
  position: 
    x: 0.103862136602
    y: -0.603056490421
    z: -0.222656026483
  orientation: 
    x: -0.0176829871284
    y: 0.0159487017702
    z: -0.465871812669
    w: -0.884531758234
---
header: 
  seq: 5233
  stamp: 
    secs: 1723704035
    nsecs: 859891456
  frame_id: "map"
pose: 
  position: 
    x: 0.103780992329
    y: -0.603312551975
    z: -0.222241386771
  orientation: 
    x: -0.0176974810345
    y: 0.0159308729947
    z: -0.466083537362
    w: -0.88442034304
---
header: 
  seq: 5234
  stamp: 
    secs: 1723704035
    nsecs: 889891456
  frame_id: "map"
pose: 
  position: 
    x: 0.10369939357
    y: -0.603588700294
    z: -0.222081139684
  orientation: 
    x: -0.0176401747383
    y: 0.0159451526269
    z: -0.46617792523
    w: -0.884371473769
---
header: 
  seq: 5235
  stamp: 
    secs: 1723704035
    nsecs: 929891456
  frame_id: "map"
pose: 
  position: 
    x: 0.103580243886
    y: -0.603744149208
    z: -0.221925914288
  orientation: 
    x: -0.0174609394205
    y: 0.0160591446233
    z: -0.466406466516
    w: -0.884252429995
---
header: 
  seq: 5236
  stamp: 
    secs: 1723704035
    nsecs: 959889664
  frame_id: "map"
pose: 
  position: 
    x: 0.103488080204
    y: -0.603959202766
    z: -0.221522063017
  orientation: 
    x: -0.0172835493443
    y: 0.0161647428113
    z: -0.466597728914
    w: -0.884153047726
---
header: 
  seq: 5237
  stamp: 
    secs: 1723704035
    nsecs: 989889664
  frame_id: "map"
pose: 
  position: 
    x: 0.103411979973
    y: -0.604256510735
    z: -0.221023514867
  orientation: 
    x: -0.0171753534862
    y: 0.016233323266
    z: -0.466710513881
    w: -0.884094379313
---
header: 
  seq: 5238
  stamp: 
    secs: 1723704036
    nsecs:  29889664
  frame_id: "map"
pose: 
  position: 
    x: 0.103320576251
    y: -0.604363799095
    z: -0.221135511994
  orientation: 
    x: -0.0170567850994
    y: 0.0163388788133
    z: -0.466911659715
    w: -0.883988485356
---
header: 
  seq: 5239
  stamp: 
    secs: 1723704036
    nsecs:  59892736
  frame_id: "map"
pose: 
  position: 
    x: 0.103260040283
    y: -0.604508936405
    z: -0.221385091543
  orientation: 
    x: -0.0170355337447
    y: 0.0163309619147
    z: -0.467117230969
    w: -0.883880526204
---
header: 
  seq: 5240
  stamp: 
    secs: 1723704036
    nsecs:  89892736
  frame_id: "map"
pose: 
  position: 
    x: 0.103202626109
    y: -0.604751348495
    z: -0.221629500389
  orientation: 
    x: -0.0170673008205
    y: 0.01635777369
    z: -0.467227655712
    w: -0.88382093056
---
header: 
  seq: 5241
  stamp: 
    secs: 1723704036
    nsecs: 119892736
  frame_id: "map"
pose: 
  position: 
    x: 0.103165440261
    y: -0.604786872864
    z: -0.221916690469
  orientation: 
    x: -0.0170882719234
    y: 0.0163922414979
    z: -0.467421257261
    w: -0.883717607561
---
header: 
  seq: 5242
  stamp: 
    secs: 1723704036
    nsecs: 159895808
  frame_id: "map"
pose: 
  position: 
    x: 0.1031049788
    y: -0.60477745533
    z: -0.222441777587
  orientation: 
    x: -0.0170149089539
    y: 0.0163880252902
    z: -0.467644193016
    w: -0.883601050451
---
header: 
  seq: 5243
  stamp: 
    secs: 1723704036
    nsecs: 189895808
  frame_id: "map"
pose: 
  position: 
    x: 0.10304453969
    y: -0.60486882925
    z: -0.22289635241
  orientation: 
    x: -0.0170180656252
    y: 0.016444617045
    z: -0.467740245684
    w: -0.883549083387
---
header: 
  seq: 5244
  stamp: 
    secs: 1723704036
    nsecs: 229895808
  frame_id: "map"
pose: 
  position: 
    x: 0.103005893528
    y: -0.604817032814
    z: -0.22299939394
  orientation: 
    x: -0.0169206669131
    y: 0.0165026743082
    z: -0.467926113286
    w: -0.88345155558
---
header: 
  seq: 5245
  stamp: 
    secs: 1723704036
    nsecs: 259898880
  frame_id: "map"
pose: 
  position: 
    x: 0.102963529527
    y: -0.604898929596
    z: -0.223023325205
  orientation: 
    x: -0.0167561750228
    y: 0.0165921500765
    z: -0.468092319383
    w: -0.883364922733
---
header: 
  seq: 5246
  stamp: 
    secs: 1723704036
    nsecs: 289898880
  frame_id: "map"
pose: 
  position: 
    x: 0.102902017534
    y: -0.604996740818
    z: -0.223055064678
  orientation: 
    x: -0.016674558169
    y: 0.0166558229096
    z: -0.468191807019
    w: -0.88331247098
---
header: 
  seq: 5247
  stamp: 
    secs: 1723704036
    nsecs: 319898880
  frame_id: "map"
pose: 
  position: 
    x: 0.10271538794
    y: -0.604861438274
    z: -0.223505705595
  orientation: 
    x: -0.0165281263229
    y: 0.0167401908871
    z: -0.468373417789
    w: -0.883217429836
---
header: 
  seq: 5248
  stamp: 
    secs: 1723704036
    nsecs: 359902464
  frame_id: "map"
pose: 
  position: 
    x: 0.10249646008
    y: -0.604845106602
    z: -0.224003374577
  orientation: 
    x: -0.0164955305203
    y: 0.0167596895565
    z: -0.468564553747
    w: -0.883116319547
---
header: 
  seq: 5249
  stamp: 
    secs: 1723704036
    nsecs: 389902464
  frame_id: "map"
pose: 
  position: 
    x: 0.102357678115
    y: -0.604954481125
    z: -0.224270612001
  orientation: 
    x: -0.0165353319625
    y: 0.0167390886379
    z: -0.468664020309
    w: -0.883063130224
---
header: 
  seq: 5250
  stamp: 
    secs: 1723704036
    nsecs: 419902464
  frame_id: "map"
pose: 
  position: 
    x: 0.102390579879
    y: -0.60479849577
    z: -0.223835080862
  orientation: 
    x: -0.016641947807
    y: 0.0166249443126
    z: -0.468847907009
    w: -0.882965728857
---
header: 
  seq: 5251
  stamp: 
    secs: 1723704036
    nsecs: 459906304
  frame_id: "map"
pose: 
  position: 
    x: 0.102418720722
    y: -0.6047783494
    z: -0.223194241524
  orientation: 
    x: -0.0168207908491
    y: 0.0165328210455
    z: -0.469057735095
    w: -0.882852585642
---
header: 
  seq: 5252
  stamp: 
    secs: 1723704036
    nsecs: 489906304
  frame_id: "map"
pose: 
  position: 
    x: 0.1024210006
    y: -0.604897975922
    z: -0.22282461822
  orientation: 
    x: -0.0169233925465
    y: 0.0164758828243
    z: -0.469160151937
    w: -0.882797204683
---
header: 
  seq: 5253
  stamp: 
    secs: 1723704036
    nsecs: 529906304
  frame_id: "map"
pose: 
  position: 
    x: 0.102392271161
    y: -0.60474306345
    z: -0.222637280822
  orientation: 
    x: -0.0171081228009
    y: 0.0163725223293
    z: -0.469377376794
    w: -0.882680120738
---
header: 
  seq: 5254
  stamp: 
    secs: 1723704036
    nsecs: 559909376
  frame_id: "map"
pose: 
  position: 
    x: 0.102358654141
    y: -0.604812026024
    z: -0.222515180707
  orientation: 
    x: -0.0172219788902
    y: 0.0162529869522
    z: -0.46958813211
    w: -0.882568073341
---
header: 
  seq: 5255
  stamp: 
    secs: 1723704036
    nsecs: 589909376
  frame_id: "map"
pose: 
  position: 
    x: 0.102314181626
    y: -0.604900956154
    z: -0.222366794944
  orientation: 
    x: -0.0172475149001
    y: 0.0162056346798
    z: -0.46967927467
    w: -0.882519920567
---
header: 
  seq: 5256
  stamp: 
    secs: 1723704036
    nsecs: 630909376
  frame_id: "map"
pose: 
  position: 
    x: 0.102455385029
    y: -0.604866862297
    z: -0.222279071808
  orientation: 
    x: -0.0172675006146
    y: 0.0161866789289
    z: -0.469874646386
    w: -0.882415838924
---
header: 
  seq: 5257
  stamp: 
    secs: 1723704036
    nsecs: 660912704
  frame_id: "map"
pose: 
  position: 
    x: 0.102546334267
    y: -0.604965865612
    z: -0.22222058475
  orientation: 
    x: -0.0172291989252
    y: 0.016235243376
    z: -0.470079838318
    w: -0.882306320338
---
header: 
  seq: 5258
  stamp: 
    secs: 1723704036
    nsecs: 689912704
  frame_id: "map"
pose: 
  position: 
    x: 0.102631226182
    y: -0.605146944523
    z: -0.222178190947
  orientation: 
    x: -0.0171683006804
    y: 0.0162899855467
    z: -0.470144681244
    w: -0.88227199173
---
header: 
  seq: 5259
  stamp: 
    secs: 1723704036
    nsecs: 719912704
  frame_id: "map"
pose: 
  position: 
    x: 0.102800481021
    y: -0.605103671551
    z: -0.222267210484
  orientation: 
    x: -0.0169720323146
    y: 0.0163950323273
    z: -0.470317441176
    w: -0.882181755328
---
header: 
  seq: 5260
  stamp: 
    secs: 1723704036
    nsecs: 760915264
  frame_id: "map"
pose: 
  position: 
    x: 0.102983467281
    y: -0.605184614658
    z: -0.222376674414
  orientation: 
    x: -0.0166877544864
    y: 0.0165544316775
    z: -0.470515910686
    w: -0.882078369108
---
header: 
  seq: 5261
  stamp: 
    secs: 1723704036
    nsecs: 790915264
  frame_id: "map"
pose: 
  position: 
    x: 0.103095047176
    y: -0.605370283127
    z: -0.222473561764
  orientation: 
    x: -0.0165448200609
    y: 0.0166702577769
    z: -0.470606484263
    w: -0.882030616729
---
header: 
  seq: 5262
  stamp: 
    secs: 1723704036
    nsecs: 830915264
  frame_id: "map"
pose: 
  position: 
    x: 0.103007860482
    y: -0.605283498764
    z: -0.222694650292
  orientation: 
    x: -0.0162208479634
    y: 0.01684682654
    z: -0.470805628123
    w: -0.881926977628
---
header: 
  seq: 5263
  stamp: 
    secs: 1723704036
    nsecs: 860918336
  frame_id: "map"
pose: 
  position: 
    x: 0.102965690196
    y: -0.605272471905
    z: -0.222998917103
  orientation: 
    x: -0.0159452586114
    y: 0.0170534162327
    z: -0.470984646862
    w: -0.881832421174
---
header: 
  seq: 5264
  stamp: 
    secs: 1723704036
    nsecs: 890918336
  frame_id: "map"
pose: 
  position: 
    x: 0.102925047278
    y: -0.605352818966
    z: -0.223290026188
  orientation: 
    x: -0.0158213317302
    y: 0.0171194623199
    z: -0.471085293536
    w: -0.881779653319
---
header: 
  seq: 5265
  stamp: 
    secs: 1723704036
    nsecs: 930918336
  frame_id: "map"
pose: 
  position: 
    x: 0.102744758129
    y: -0.605282306671
    z: -0.223331004381
  orientation: 
    x: -0.0156501008151
    y: 0.017270702458
    z: -0.471276935256
    w: -0.881677362918
---
header: 
  seq: 5266
  stamp: 
    secs: 1723704036
    nsecs: 960921664
  frame_id: "map"
pose: 
  position: 
    x: 0.102609686553
    y: -0.605346858501
    z: -0.22331006825
  orientation: 
    x: -0.0154660878391
    y: 0.0174056907466
    z: -0.471515907887
    w: -0.881550079436
---
header: 
  seq: 5267
  stamp: 
    secs: 1723704036
    nsecs: 990921664
  frame_id: "map"
pose: 
  position: 
    x: 0.102472409606
    y: -0.605504691601
    z: -0.223196715117
  orientation: 
    x: -0.0153696642461
    y: 0.0174742684436
    z: -0.471608125192
    w: -0.881501189091
---
header: 
  seq: 5268
  stamp: 
    secs: 1723704037
    nsecs:  20921664
  frame_id: "map"
pose: 
  position: 
    x: 0.102735519409
    y: -0.605674445629
    z: -0.222560629249
  orientation: 
    x: -0.01517975812
    y: 0.0176431854392
    z: -0.471782908172
    w: -0.881407580941
---
header: 
  seq: 5269
  stamp: 
    secs: 1723704037
    nsecs:  60925248
  frame_id: "map"
pose: 
  position: 
    x: 0.103058055043
    y: -0.606129527092
    z: -0.221756786108
  orientation: 
    x: -0.0150182164937
    y: 0.0177158657038
    z: -0.471989722758
    w: -0.881298041282
---
header: 
  seq: 5270
  stamp: 
    secs: 1723704037
    nsecs:  90925248
  frame_id: "map"
pose: 
  position: 
    x: 0.103289760649
    y: -0.606521010399
    z: -0.221124202013
  orientation: 
    x: -0.0149962010215
    y: 0.0177175110773
    z: -0.472085206443
    w: -0.881247317549
---
header: 
  seq: 5271
  stamp: 
    secs: 1723704037
    nsecs: 120925248
  frame_id: "map"
pose: 
  position: 
    x: 0.103527188301
    y: -0.606657981873
    z: -0.220499053597
  orientation: 
    x: -0.0151056528474
    y: 0.017661912387
    z: -0.472273476416
    w: -0.881145617204
---
header: 
  seq: 5272
  stamp: 
    secs: 1723704037
    nsecs: 160929088
  frame_id: "map"
pose: 
  position: 
    x: 0.103847943246
    y: -0.607013046741
    z: -0.219750672579
  orientation: 
    x: -0.0152690990668
    y: 0.0174989403197
    z: -0.472491228109
    w: -0.881029355122
---
header: 
  seq: 5273
  stamp: 
    secs: 1723704037
    nsecs: 190929088
  frame_id: "map"
pose: 
  position: 
    x: 0.104075491428
    y: -0.607401072979
    z: -0.219327628613
  orientation: 
    x: -0.015390046281
    y: 0.0174376809455
    z: -0.472614739448
    w: -0.880962236266
---
header: 
  seq: 5274
  stamp: 
    secs: 1723704037
    nsecs: 230929088
  frame_id: "map"
pose: 
  position: 
    x: 0.10448115319
    y: -0.607268214226
    z: -0.21868249774
  orientation: 
    x: -0.015514692622
    y: 0.0173307257442
    z: -0.472809268227
    w: -0.880857817449
---
header: 
  seq: 5275
  stamp: 
    secs: 1723704037
    nsecs: 260932160
  frame_id: "map"
pose: 
  position: 
    x: 0.104743637145
    y: -0.607281804085
    z: -0.218181371689
  orientation: 
    x: -0.0155076231467
    y: 0.0172603108727
    z: -0.473020086764
    w: -0.880746044007
---
header: 
  seq: 5276
  stamp: 
    secs: 1723704037
    nsecs: 290932160
  frame_id: "map"
pose: 
  position: 
    x: 0.104981161654
    y: -0.607384264469
    z: -0.217812746763
  orientation: 
    x: -0.0154977209422
    y: 0.0172387926016
    z: -0.473124610948
    w: -0.88069049446
---
header: 
  seq: 5277
  stamp: 
    secs: 1723704037
    nsecs: 330932160
  frame_id: "map"
pose: 
  position: 
    x: 0.105179235339
    y: -0.607056319714
    z: -0.217726320028
  orientation: 
    x: -0.0154297946281
    y: 0.0172930896786
    z: -0.473295368905
    w: -0.880598972579
---
header: 
  seq: 5278
  stamp: 
    secs: 1723704037
    nsecs: 360935488
  frame_id: "map"
pose: 
  position: 
    x: 0.10531681776
    y: -0.60688829422
    z: -0.217554286122
  orientation: 
    x: -0.0153407264834
    y: 0.0173460379741
    z: -0.473483259555
    w: -0.880498410198
---
header: 
  seq: 5279
  stamp: 
    secs: 1723704037
    nsecs: 390935488
  frame_id: "map"
pose: 
  position: 
    x: 0.105462357402
    y: -0.606843471527
    z: -0.217410698533
  orientation: 
    x: -0.0153176004582
    y: 0.0173502400643
    z: -0.473562664218
    w: -0.880456094762
---
header: 
  seq: 5280
  stamp: 
    secs: 1723704037
    nsecs: 430935488
  frame_id: "map"
pose: 
  position: 
    x: 0.105668835342
    y: -0.6065954566
    z: -0.218010216951
  orientation: 
    x: -0.0153333563825
    y: 0.0172965361713
    z: -0.473762461353
    w: -0.880349357868
---
header: 
  seq: 5281
  stamp: 
    secs: 1723704037
    nsecs: 460938816
  frame_id: "map"
pose: 
  position: 
    x: 0.105829782784
    y: -0.606549263
    z: -0.218545824289
  orientation: 
    x: -0.0154962495891
    y: 0.0172050924096
    z: -0.473960382954
    w: -0.880241714817
---
header: 
  seq: 5282
  stamp: 
    secs: 1723704037
    nsecs: 490938816
  frame_id: "map"
pose: 
  position: 
    x: 0.106001600623
    y: -0.606610417366
    z: -0.2190413028
  orientation: 
    x: -0.0155950056644
    y: 0.0171134723226
    z: -0.474086570618
    w: -0.880173774098
---
header: 
  seq: 5283
  stamp: 
    secs: 1723704037
    nsecs: 520938816
  frame_id: "map"
pose: 
  position: 
    x: 0.106410913169
    y: -0.606323421001
    z: -0.219261988997
  orientation: 
    x: -0.0158962435141
    y: 0.0169549015551
    z: -0.474299960112
    w: -0.880056479418
---
header: 
  seq: 5284
  stamp: 
    secs: 1723704037
    nsecs: 560942144
  frame_id: "map"
pose: 
  position: 
    x: 0.106949873269
    y: -0.60621201992
    z: -0.219334304333
  orientation: 
    x: -0.0161868785708
    y: 0.0168008117509
    z: -0.474532589643
    w: -0.879928795541
---
header: 
  seq: 5285
  stamp: 
    secs: 1723704037
    nsecs: 590942144
  frame_id: "map"
pose: 
  position: 
    x: 0.107311330736
    y: -0.606185138226
    z: -0.219233810902
  orientation: 
    x: -0.0162884657289
    y: 0.0167409657779
    z: -0.474634563943
    w: -0.879873014187
---
header: 
  seq: 5286
  stamp: 
    secs: 1723704037
    nsecs: 620942144
  frame_id: "map"
pose: 
  position: 
    x: 0.107417218387
    y: -0.60572552681
    z: -0.219529539347
  orientation: 
    x: -0.0164112385108
    y: 0.0166144735366
    z: -0.474846351857
    w: -0.879758838374
---
header: 
  seq: 5287
  stamp: 
    secs: 1723704037
    nsecs: 660946240
  frame_id: "map"
pose: 
  position: 
    x: 0.107539400458
    y: -0.605326414108
    z: -0.219941154122
  orientation: 
    x: -0.0164420547152
    y: 0.0166072463965
    z: -0.475029227032
    w: -0.879659582546
---
header: 
  seq: 5288
  stamp: 
    secs: 1723704037
    nsecs: 690946240
  frame_id: "map"
pose: 
  position: 
    x: 0.107620082796
    y: -0.605146467686
    z: -0.220306605101
  orientation: 
    x: -0.0164169579801
    y: 0.0166454060204
    z: -0.475129768339
    w: -0.879605065597
---
header: 
  seq: 5289
  stamp: 
    secs: 1723704037
    nsecs: 730946240
  frame_id: "map"
pose: 
  position: 
    x: 0.107818894088
    y: -0.604597270489
    z: -0.2208802104
  orientation: 
    x: -0.016238865309
    y: 0.0167155421732
    z: -0.475337910551
    w: -0.879494704074
---
header: 
  seq: 5290
  stamp: 
    secs: 1723704037
    nsecs: 760949568
  frame_id: "map"
pose: 
  position: 
    x: 0.107952356339
    y: -0.604321241379
    z: -0.22123926878
  orientation: 
    x: -0.0160254573963
    y: 0.0168417271829
    z: -0.475518636237
    w: -0.879398440672
---
header: 
  seq: 5291
  stamp: 
    secs: 1723704037
    nsecs: 790949568
  frame_id: "map"
pose: 
  position: 
    x: 0.108081065118
    y: -0.604156374931
    z: -0.221615999937
  orientation: 
    x: -0.0159322288144
    y: 0.0168786976246
    z: -0.475624846295
    w: -0.879342048189
---
header: 
  seq: 5292
  stamp: 
    secs: 1723704037
    nsecs: 820949568
  frame_id: "map"
pose: 
  position: 
    x: 0.108313053846
    y: -0.603843271732
    z: -0.22153557837
  orientation: 
    x: -0.0157833621942
    y: 0.0169546791729
    z: -0.47578654268
    w: -0.879255794664
---
header: 
  seq: 5293
  stamp: 
    secs: 1723704037
    nsecs: 860952896
  frame_id: "map"
pose: 
  position: 
    x: 0.108705960214
    y: -0.603522956371
    z: -0.221003234386
  orientation: 
    x: -0.0156973234365
    y: 0.0169787673316
    z: -0.475996012517
    w: -0.879143346872
---
header: 
  seq: 5294
  stamp: 
    secs: 1723704037
    nsecs: 890952896
  frame_id: "map"
pose: 
  position: 
    x: 0.108983486891
    y: -0.603372812271
    z: -0.220536708832
  orientation: 
    x: -0.0156581117209
    y: 0.0169564025015
    z: -0.476098134331
    w: -0.879089272465
---
header: 
  seq: 5295
  stamp: 
    secs: 1723704037
    nsecs: 920952896
  frame_id: "map"
pose: 
  position: 
    x: 0.109059050679
    y: -0.602917671204
    z: -0.219812333584
  orientation: 
    x: -0.0156968956295
    y: 0.0168990107593
    z: -0.476307414507
    w: -0.878976339984
---
header: 
  seq: 5296
  stamp: 
    secs: 1723704037
    nsecs: 960955456
  frame_id: "map"
pose: 
  position: 
    x: 0.109194174409
    y: -0.602491497993
    z: -0.218815207481
  orientation: 
    x: -0.015787987605
    y: 0.0168009487487
    z: -0.476496042727
    w: -0.878874281391
---
header: 
  seq: 5297
  stamp: 
    secs: 1723704037
    nsecs: 990955456
  frame_id: "map"
pose: 
  position: 
    x: 0.109310649335
    y: -0.602289378643
    z: -0.218189507723
  orientation: 
    x: -0.0158533434141
    y: 0.016778685458
    z: -0.476600377251
    w: -0.87881698275
---
header: 
  seq: 5298
  stamp: 
    secs: 1723704038
    nsecs:  30955456
  frame_id: "map"
pose: 
  position: 
    x: 0.109529748559
    y: -0.601780951023
    z: -0.218082770705
  orientation: 
    x: -0.0159439334552
    y: 0.0167228296885
    z: -0.476787804286
    w: -0.878714692349
---
header: 
  seq: 5299
  stamp: 
    secs: 1723704038
    nsecs:  60959040
  frame_id: "map"
pose: 
  position: 
    x: 0.1096964553
    y: -0.601529359818
    z: -0.218042507768
  orientation: 
    x: -0.015939564177
    y: 0.0167154031175
    z: -0.476976558947
    w: -0.878612507315
---
header: 
  seq: 5300
  stamp: 
    secs: 1723704038
    nsecs:  90959040
  frame_id: "map"
pose: 
  position: 
    x: 0.109856814146
    y: -0.601379334927
    z: -0.217978134751
  orientation: 
    x: -0.0159189445311
    y: 0.0167449341877
    z: -0.477089575722
    w: -0.878550909696
---
header: 
  seq: 5301
  stamp: 
    secs: 1723704038
    nsecs: 120959040
  frame_id: "map"
pose: 
  position: 
    x: 0.110036715865
    y: -0.601049244404
    z: -0.217785403132
  orientation: 
    x: -0.0158015174431
    y: 0.0168201617436
    z: -0.477286907266
    w: -0.87844453105
---
header: 
  seq: 5302
  stamp: 
    secs: 1723704038
    nsecs: 160962112
  frame_id: "map"
pose: 
  position: 
    x: 0.110268943012
    y: -0.600701212883
    z: -0.217451184988
  orientation: 
    x: -0.0157497360061
    y: 0.0168909645802
    z: -0.477495513093
    w: -0.878330755632
---
header: 
  seq: 5303
  stamp: 
    secs: 1723704038
    nsecs: 191962112
  frame_id: "map"
pose: 
  position: 
    x: 0.110462456942
    y: -0.600578904152
    z: -0.217206418514
  orientation: 
    x: -0.0157257357219
    y: 0.0168742035934
    z: -0.477582103793
    w: -0.878284288732
---
header: 
  seq: 5304
  stamp: 
    secs: 1723704038
    nsecs: 221962112
  frame_id: "map"
pose: 
  position: 
    x: 0.110535003245
    y: -0.600331544876
    z: -0.21655510366
  orientation: 
    x: -0.0157624066905
    y: 0.0168712132252
    z: -0.477792269053
    w: -0.878169459643
---
header: 
  seq: 5305
  stamp: 
    secs: 1723704038
    nsecs: 261966464
  frame_id: "map"
pose: 
  position: 
    x: 0.110571280122
    y: -0.600043952465
    z: -0.215643078089
  orientation: 
    x: -0.0158013576226
    y: 0.0168325230768
    z: -0.477991265399
    w: -0.878061079022
---
header: 
  seq: 5306
  stamp: 
    secs: 1723704038
    nsecs: 291966464
  frame_id: "map"
pose: 
  position: 
    x: 0.110610403121
    y: -0.599955320358
    z: -0.215044870973
  orientation: 
    x: -0.0158125392556
    y: 0.0168162495776
    z: -0.478098655569
    w: -0.878002832078
---
header: 
  seq: 5307
  stamp: 
    secs: 1723704038
    nsecs: 321966464
  frame_id: "map"
pose: 
  position: 
    x: 0.11061963439
    y: -0.599659502506
    z: -0.214227542281
  orientation: 
    x: -0.0158666728489
    y: 0.0167927672799
    z: -0.478314089185
    w: -0.877884926269
---
header: 
  seq: 5308
  stamp: 
    secs: 1723704038
    nsecs: 361970304
  frame_id: "map"
pose: 
  position: 
    x: 0.110664397478
    y: -0.599495410919
    z: -0.21332834661
  orientation: 
    x: -0.015956481033
    y: 0.0167143334765
    z: -0.478513233044
    w: -0.87777631384
---
header: 
  seq: 5309
  stamp: 
    secs: 1723704038
    nsecs: 391970304
  frame_id: "map"
pose: 
  position: 
    x: 0.110697425902
    y: -0.599444389343
    z: -0.212879255414
  orientation: 
    x: -0.0159932699634
    y: 0.0166565843915
    z: -0.478624521798
    w: -0.877716022773
---
header: 
  seq: 5310
  stamp: 
    secs: 1723704038
    nsecs: 421970304
  frame_id: "map"
pose: 
  position: 
    x: 0.110715292394
    y: -0.599133074284
    z: -0.212615981698
  orientation: 
    x: -0.0161572107085
    y: 0.0165893048093
    z: -0.478814730525
    w: -0.877610529212
---
header: 
  seq: 5311
  stamp: 
    secs: 1723704038
    nsecs: 461971584
  frame_id: "map"
pose: 
  position: 
    x: 0.110749714077
    y: -0.598655462265
    z: -0.212407469749
  orientation: 
    x: -0.0163720929737
    y: 0.0164538509143
    z: -0.479019163814
    w: -0.877497554584
---
header: 
  seq: 5312
  stamp: 
    secs: 1723704038
    nsecs: 491971584
  frame_id: "map"
pose: 
  position: 
    x: 0.11079441011
    y: -0.598334372044
    z: -0.212234720588
  orientation: 
    x: -0.0164894101465
    y: 0.0163871178622
    z: -0.479119894782
    w: -0.877441583569
---
header: 
  seq: 5313
  stamp: 
    secs: 1723704038
    nsecs: 521971584
  frame_id: "map"
pose: 
  position: 
    x: 0.110836140811
    y: -0.59795498848
    z: -0.212290614843
  orientation: 
    x: -0.0166452765855
    y: 0.0162603907006
    z: -0.479319755137
    w: -0.877331833176
---
header: 
  seq: 5314
  stamp: 
    secs: 1723704038
    nsecs: 561975680
  frame_id: "map"
pose: 
  position: 
    x: 0.110899887979
    y: -0.597605109215
    z: -0.212389796972
  orientation: 
    x: -0.016772307969
    y: 0.0161692921397
    z: -0.479510132452
    w: -0.877227098257
---
header: 
  seq: 5315
  stamp: 
    secs: 1723704038
    nsecs: 591975680
  frame_id: "map"
pose: 
  position: 
    x: 0.110953688622
    y: -0.597458660603
    z: -0.212454915047
  orientation: 
    x: -0.0168024614872
    y: 0.0161177543642
    z: -0.479613286864
    w: -0.877171064022
---
header: 
  seq: 5316
  stamp: 
    secs: 1723704038
    nsecs: 621975680
  frame_id: "map"
pose: 
  position: 
    x: 0.110933698714
    y: -0.597185373306
    z: -0.212504804134
  orientation: 
    x: -0.0168666730135
    y: 0.0160922573524
    z: -0.479804949657
    w: -0.877065465093
---
header: 
  seq: 5317
  stamp: 
    secs: 1723704038
    nsecs: 661979264
  frame_id: "map"
pose: 
  position: 
    x: 0.110931880772
    y: -0.596905231476
    z: -0.212672054768
  orientation: 
    x: -0.0169157420703
    y: 0.0160461491117
    z: -0.480019982878
    w: -0.876947706799
---
header: 
  seq: 5318
  stamp: 
    secs: 1723704038
    nsecs: 691979264
  frame_id: "map"
pose: 
  position: 
    x: 0.110956087708
    y: -0.596809208393
    z: -0.212799996138
  orientation: 
    x: -0.0169469495067
    y: 0.0160248988683
    z: -0.480126319377
    w: -0.87688924912
---
header: 
  seq: 5319
  stamp: 
    secs: 1723704038
    nsecs: 721979264
  frame_id: "map"
pose: 
  position: 
    x: 0.11092364043
    y: -0.596591830254
    z: -0.213134154677
  orientation: 
    x: -0.0170769356559
    y: 0.0159721678924
    z: -0.480317349968
    w: -0.876783186575
---
header: 
  seq: 5320
  stamp: 
    secs: 1723704038
    nsecs: 761982592
  frame_id: "map"
pose: 
  position: 
    x: 0.110907271504
    y: -0.596467733383
    z: -0.213340207934
  orientation: 
    x: -0.0171791721801
    y: 0.0158867426925
    z: -0.480526756585
    w: -0.876667851724
---
header: 
  seq: 5321
  stamp: 
    secs: 1723704038
    nsecs: 791982592
  frame_id: "map"
pose: 
  position: 
    x: 0.110902369022
    y: -0.596477925777
    z: -0.213487774134
  orientation: 
    x: -0.017213000994
    y: 0.0158532405165
    z: -0.480622640665
    w: -0.876615294604
---
header: 
  seq: 5322
  stamp: 
    secs: 1723704038
    nsecs: 821982592
  frame_id: "map"
pose: 
  position: 
    x: 0.110739782453
    y: -0.596398353577
    z: -0.213562071323
  orientation: 
    x: -0.0172367942483
    y: 0.0158178384397
    z: -0.48081080527
    w: -0.876512266633
---
header: 
  seq: 5323
  stamp: 
    secs: 1723704038
    nsecs: 861986176
  frame_id: "map"
pose: 
  position: 
    x: 0.110438615084
    y: -0.59630382061
    z: -0.21367046237
  orientation: 
    x: -0.0171795157345
    y: 0.015805848608
    z: -0.481007567833
    w: -0.876405698327
---
header: 
  seq: 5324
  stamp: 
    secs: 1723704038
    nsecs: 891986176
  frame_id: "map"
pose: 
  position: 
    x: 0.110262662172
    y: -0.596247732639
    z: -0.213769331574
  orientation: 
    x: -0.0171720834423
    y: 0.0158092479736
    z: -0.4811283607
    w: -0.876339359187
---
header: 
  seq: 5325
  stamp: 
    secs: 1723704038
    nsecs: 921986176
  frame_id: "map"
pose: 
  position: 
    x: 0.110085979104
    y: -0.595953345299
    z: -0.213594406843
  orientation: 
    x: -0.0171588364903
    y: 0.0157979891674
    z: -0.481321835809
    w: -0.876233718111
---
header: 
  seq: 5326
  stamp: 
    secs: 1723704038
    nsecs: 961990016
  frame_id: "map"
pose: 
  position: 
    x: 0.109900608659
    y: -0.595720291138
    z: -0.213261157274
  orientation: 
    x: -0.0172185912549
    y: 0.0157566262338
    z: -0.481524309269
    w: -0.876121944669
---
header: 
  seq: 5327
  stamp: 
    secs: 1723704038
    nsecs: 991990016
  frame_id: "map"
pose: 
  position: 
    x: 0.109799332917
    y: -0.595652163029
    z: -0.212957903743
  orientation: 
    x: -0.0172564536128
    y: 0.0157332597576
    z: -0.481622216398
    w: -0.876067870262
---
header: 
  seq: 5328
  stamp: 
    secs: 1723704039
    nsecs:  21990016
  frame_id: "map"
pose: 
  position: 
    x: 0.109723865986
    y: -0.595313131809
    z: -0.213446825743
  orientation: 
    x: -0.0173362333165
    y: 0.015650774753
    z: -0.481818093876
    w: -0.875959995404
---
header: 
  seq: 5329
  stamp: 
    secs: 1723704039
    nsecs:  61993344
  frame_id: "map"
pose: 
  position: 
    x: 0.109655857086
    y: -0.595003604889
    z: -0.214049786329
  orientation: 
    x: -0.0173196645013
    y: 0.0156313422571
    z: -0.482013592033
    w: -0.875853089922
---
header: 
  seq: 5330
  stamp: 
    secs: 1723704039
    nsecs:  91993344
  frame_id: "map"
pose: 
  position: 
    x: 0.109609156847
    y: -0.594887077808
    z: -0.214471057057
  orientation: 
    x: -0.0172675755241
    y: 0.0156878592876
    z: -0.482098960475
    w: -0.875806159407
---
header: 
  seq: 5331
  stamp: 
    secs: 1723704039
    nsecs: 121993344
  frame_id: "map"
pose: 
  position: 
    x: 0.109299704432
    y: -0.594564914703
    z: -0.215314418077
  orientation: 
    x: -0.0170181825786
    y: 0.0158562222826
    z: -0.482280149777
    w: -0.875708252278
---
header: 
  seq: 5332
  stamp: 
    secs: 1723704039
    nsecs: 161996928
  frame_id: "map"
pose: 
  position: 
    x: 0.10889172554
    y: -0.594318985939
    z: -0.216339156032
  orientation: 
    x: -0.0166230862081
    y: 0.0161553660842
    z: -0.482427031544
    w: -0.875629395524
---
header: 
  seq: 5333
  stamp: 
    secs: 1723704039
    nsecs: 191996928
  frame_id: "map"
pose: 
  position: 
    x: 0.108604364097
    y: -0.594185709953
    z: -0.216910347342
  orientation: 
    x: -0.0164047534372
    y: 0.0162866998572
    z: -0.482519501729
    w: -0.875580252299
---
header: 
  seq: 5334
  stamp: 
    secs: 1723704039
    nsecs: 221996928
  frame_id: "map"
pose: 
  position: 
    x: 0.108450978994
    y: -0.593863844872
    z: -0.217080816627
  orientation: 
    x: -0.0161169763144
    y: 0.0164642577028
    z: -0.482682483592
    w: -0.875492376119
---
header: 
  seq: 5335
  stamp: 
    secs: 1723704039
    nsecs: 261997952
  frame_id: "map"
pose: 
  position: 
    x: 0.108332045376
    y: -0.593603134155
    z: -0.217268303037
  orientation: 
    x: -0.0161305100009
    y: 0.0164596696849
    z: -0.482876316949
    w: -0.875385280977
---
header: 
  seq: 5336
  stamp: 
    secs: 1723704039
    nsecs: 291997952
  frame_id: "map"
pose: 
  position: 
    x: 0.108315110207
    y: -0.593528091908
    z: -0.217353329062
  orientation: 
    x: -0.0162237741134
    y: 0.0163982343456
    z: -0.482963560925
    w: -0.875336559221
---
header: 
  seq: 5337
  stamp: 
    secs: 1723704039
    nsecs: 321997952
  frame_id: "map"
pose: 
  position: 
    x: 0.108265399933
    y: -0.593300700188
    z: -0.217808648944
  orientation: 
    x: -0.0166844075883
    y: 0.0160412557762
    z: -0.483178509853
    w: -0.875215850646
---
header: 
  seq: 5338
  stamp: 
    secs: 1723704039
    nsecs: 362001792
  frame_id: "map"
pose: 
  position: 
    x: 0.108249001205
    y: -0.593162000179
    z: -0.218466594815
  orientation: 
    x: -0.0172220664766
    y: 0.015693062777
    z: -0.483400729111
    w: -0.875089136146
---
header: 
  seq: 5339
  stamp: 
    secs: 1723704039
    nsecs: 393001792
  frame_id: "map"
pose: 
  position: 
    x: 0.108282186091
    y: -0.593132078648
    z: -0.218943580985
  orientation: 
    x: -0.0174794647714
    y: 0.0155465923533
    z: -0.483511491029
    w: -0.875025410111
---
header: 
  seq: 5340
  stamp: 
    secs: 1723704039
    nsecs: 422001792
  frame_id: "map"
pose: 
  position: 
    x: 0.108331851661
    y: -0.592961132526
    z: -0.2193428725
  orientation: 
    x: -0.0178304214143
    y: 0.0153132201494
    z: -0.48372732504
    w: -0.874903142104
---
header: 
  seq: 5341
  stamp: 
    secs: 1723704039
    nsecs: 462005632
  frame_id: "map"
pose: 
  position: 
    x: 0.108375638723
    y: -0.592824220657
    z: -0.219892024994
  orientation: 
    x: -0.0179854709443
    y: 0.0152290747895
    z: -0.483910031629
    w: -0.874800430234
---
header: 
  seq: 5342
  stamp: 
    secs: 1723704039
    nsecs: 493005632
  frame_id: "map"
pose: 
  position: 
    x: 0.108349278569
    y: -0.592699289322
    z: -0.220431029797
  orientation: 
    x: -0.0179336339426
    y: 0.0152295426854
    z: -0.48400543102
    w: -0.874748610684
---
header: 
  seq: 5343
  stamp: 
    secs: 1723704039
    nsecs: 522005632
  frame_id: "map"
pose: 
  position: 
    x: 0.108220659196
    y: -0.592480480671
    z: -0.221199482679
  orientation: 
    x: -0.0176489279473
    y: 0.0154498219544
    z: -0.484188011168
    w: -0.87464956559
---
header: 
  seq: 5344
  stamp: 
    secs: 1723704039
    nsecs: 562009728
  frame_id: "map"
pose: 
  position: 
    x: 0.108046285808
    y: -0.592328190804
    z: -0.222197860479
  orientation: 
    x: -0.0172151720095
    y: 0.0156873158237
    z: -0.484363763526
    w: -0.874556673936
---
header: 
  seq: 5345
  stamp: 
    secs: 1723704039
    nsecs: 592009728
  frame_id: "map"
pose: 
  position: 
    x: 0.107938319445
    y: -0.592292249203
    z: -0.222927585244
  orientation: 
    x: -0.0170423364271
    y: 0.0158105840781
    z: -0.48444890016
    w: -0.874510733871
---
header: 
  seq: 5346
  stamp: 
    secs: 1723704039
    nsecs: 623009728
  frame_id: "map"
pose: 
  position: 
    x: 0.107893846929
    y: -0.592144906521
    z: -0.223529696465
  orientation: 
    x: -0.0167668813358
    y: 0.0159508505186
    z: -0.484658180337
    w: -0.874397464215
---
header: 
  seq: 5347
  stamp: 
    secs: 1723704039
    nsecs: 653013568
  frame_id: "map"
pose: 
  position: 
    x: 0.107904985547
    y: -0.592141807079
    z: -0.224065959454
  orientation: 
    x: -0.0166706498321
    y: 0.0159674060394
    z: -0.484863414416
    w: -0.874285206084
---
header: 
  seq: 5348
  stamp: 
    secs: 1723704039
    nsecs: 693013568
  frame_id: "map"
pose: 
  position: 
    x: 0.107929319143
    y: -0.592234075069
    z: -0.224595353007
  orientation: 
    x: -0.01667114337
    y: 0.015990875619
    z: -0.484968149334
    w: -0.874226748406
---
header: 
  seq: 5349
  stamp: 
    secs: 1723704039
    nsecs: 723013568
  frame_id: "map"
pose: 
  position: 
    x: 0.10799806565
    y: -0.592120528221
    z: -0.224515318871
  orientation: 
    x: -0.0168175714411
    y: 0.0159643658687
    z: -0.485179283972
    w: -0.874107241017
---
header: 
  seq: 5350
  stamp: 
    secs: 1723704039
    nsecs: 763017152
  frame_id: "map"
pose: 
  position: 
    x: 0.10813523829
    y: -0.592080831528
    z: -0.224470734596
  orientation: 
    x: -0.016971411801
    y: 0.0158862396879
    z: -0.485357396553
    w: -0.87400676293
---
header: 
  seq: 5351
  stamp: 
    secs: 1723704039
    nsecs: 793017152
  frame_id: "map"
pose: 
  position: 
    x: 0.108254775405
    y: -0.592105567455
    z: -0.224387854338
  orientation: 
    x: -0.0170285145246
    y: 0.0158333648201
    z: -0.485444998778
    w: -0.873957935806
---
header: 
  seq: 5352
  stamp: 
    secs: 1723704039
    nsecs: 823017152
  frame_id: "map"
pose: 
  position: 
    x: 0.10819812119
    y: -0.592000186443
    z: -0.224638074636
  orientation: 
    x: -0.017164086901
    y: 0.0157464404436
    z: -0.485649010598
    w: -0.873843528185
---
header: 
  seq: 5353
  stamp: 
    secs: 1723704039
    nsecs: 863020992
  frame_id: "map"
pose: 
  position: 
    x: 0.108120076358
    y: -0.591982901096
    z: -0.224898993969
  orientation: 
    x: -0.0171506768769
    y: 0.0157397279817
    z: -0.485833192326
    w: -0.873741617106
---
header: 
  seq: 5354
  stamp: 
    secs: 1723704039
    nsecs: 893020992
  frame_id: "map"
pose: 
  position: 
    x: 0.108052678406
    y: -0.591994404793
    z: -0.224850058556
  orientation: 
    x: -0.017078624946
    y: 0.0158259965714
    z: -0.485930593693
    w: -0.873687205524
---
header: 
  seq: 5355
  stamp: 
    secs: 1723704039
    nsecs: 923020992
  frame_id: "map"
pose: 
  position: 
    x: 0.107945986092
    y: -0.591866075993
    z: -0.224706381559
  orientation: 
    x: -0.0167868095512
    y: 0.0160448531373
    z: -0.48607119558
    w: -0.873610666847
---
header: 
  seq: 5356
  stamp: 
    secs: 1723704039
    nsecs: 963024576
  frame_id: "map"
pose: 
  position: 
    x: 0.107826650143
    y: -0.591824948788
    z: -0.224375501275
  orientation: 
    x: -0.0165773105529
    y: 0.0161653985776
    z: -0.486247137599
    w: -0.873514466666
---
header: 
  seq: 5357
  stamp: 
    secs: 1723704039
    nsecs: 993024576
  frame_id: "map"
pose: 
  position: 
    x: 0.107774324715
    y: -0.591894865036
    z: -0.224229097366
  orientation: 
    x: -0.0165118349607
    y: 0.0161710335475
    z: -0.486360112226
    w: -0.873452742606
---
header: 
  seq: 5358
  stamp: 
    secs: 1723704040
    nsecs:  23024576
  frame_id: "map"
pose: 
  position: 
    x: 0.107697747648
    y: -0.591780424118
    z: -0.224363431334
  orientation: 
    x: -0.0165880652021
    y: 0.0160682112788
    z: -0.48652389488
    w: -0.873362042588
---
header: 
  seq: 5359
  stamp: 
    secs: 1723704040
    nsecs:  53025600
  frame_id: "map"
pose: 
  position: 
    x: 0.107677258551
    y: -0.591757178307
    z: -0.224210947752
  orientation: 
    x: -0.0170281218263
    y: 0.0158175072742
    z: -0.486762825364
    w: -0.873225023184
---
header: 
  seq: 5360
  stamp: 
    secs: 1723704040
    nsecs:  93025600
  frame_id: "map"
pose: 
  position: 
    x: 0.107684515417
    y: -0.591834545135
    z: -0.224068254232
  orientation: 
    x: -0.0172941963626
    y: 0.0156253635784
    z: -0.486876853663
    w: -0.873159632348
---
header: 
  seq: 5361
  stamp: 
    secs: 1723704040
    nsecs: 123025600
  frame_id: "map"
pose: 
  position: 
    x: 0.107680715621
    y: -0.591752946377
    z: -0.223416805267
  orientation: 
    x: -0.017890659139
    y: 0.0152283001766
    z: -0.487078442039
    w: -0.873042169081
---
header: 
  seq: 5362
  stamp: 
    secs: 1723704040
    nsecs: 163028416
  frame_id: "map"
pose: 
  position: 
    x: 0.107700034976
    y: -0.591760337353
    z: -0.22252355516
  orientation: 
    x: -0.0182699551747
    y: 0.0149391983967
    z: -0.487282243125
    w: -0.872925611972
---
header: 
  seq: 5363
  stamp: 
    secs: 1723704040
    nsecs: 193028416
  frame_id: "map"
pose: 
  position: 
    x: 0.107681013644
    y: -0.591793477535
    z: -0.221915856004
  orientation: 
    x: -0.0183055858899
    y: 0.0149069420635
    z: -0.487371931619
    w: -0.872875372928
---
header: 
  seq: 5364
  stamp: 
    secs: 1723704040
    nsecs: 223028416
  frame_id: "map"
pose: 
  position: 
    x: 0.107536993921
    y: -0.591680109501
    z: -0.221114233136
  orientation: 
    x: -0.0180343478707
    y: 0.0150903407821
    z: -0.487541024775
    w: -0.872783408505
---
header: 
  seq: 5365
  stamp: 
    secs: 1723704040
    nsecs: 263032256
  frame_id: "map"
pose: 
  position: 
    x: 0.107263289392
    y: -0.591669082642
    z: -0.220168426633
  orientation: 
    x: -0.0175854531471
    y: 0.0155128147
    z: -0.487696567719
    w: -0.872698250797
---
header: 
  seq: 5366
  stamp: 
    secs: 1723704040
    nsecs: 293032256
  frame_id: "map"
pose: 
  position: 
    x: 0.107034698129
    y: -0.59168356657
    z: -0.2195327878
  orientation: 
    x: -0.017184035202
    y: 0.0158444559032
    z: -0.487802377382
    w: -0.872641162891
---
header: 
  seq: 5367
  stamp: 
    secs: 1723704040
    nsecs: 323032256
  frame_id: "map"
pose: 
  position: 
    x: 0.106918036938
    y: -0.59143435955
    z: -0.219051033258
  orientation: 
    x: -0.0165681042242
    y: 0.016287508411
    z: -0.487986221936
    w: -0.872542117797
---
header: 
  seq: 5368
  stamp: 
    secs: 1723704040
    nsecs: 353040192
  frame_id: "map"
pose: 
  position: 
    x: 0.106888189912
    y: -0.59119451046
    z: -0.218643307686
  orientation: 
    x: -0.015844977594
    y: 0.0166806858034
    z: -0.48817038259
    w: -0.872445201119
---
header: 
  seq: 5369
  stamp: 
    secs: 1723704040
    nsecs: 393040192
  frame_id: "map"
pose: 
  position: 
    x: 0.1069727391
    y: -0.590873301029
    z: -0.218251615763
  orientation: 
    x: -0.0156590314194
    y: 0.0167344410218
    z: -0.488225826769
    w: -0.872416393748
---
header: 
  seq: 5370
  stamp: 
    secs: 1723704040
    nsecs: 423040192
  frame_id: "map"
pose: 
  position: 
    x: 0.106887988746
    y: -0.590718746185
    z: -0.217994496226
  orientation: 
    x: -0.0155188404646
    y: 0.0167663066734
    z: -0.488470994987
    w: -0.872280975924
---
header: 
  seq: 5371
  stamp: 
    secs: 1723704040
    nsecs: 463044800
  frame_id: "map"
pose: 
  position: 
    x: 0.106701232493
    y: -0.590936243534
    z: -0.21777535975
  orientation: 
    x: -0.015793527446
    y: 0.0167735952794
    z: -0.488688219844
    w: -0.872154366791
---
header: 
  seq: 5372
  stamp: 
    secs: 1723704040
    nsecs: 493044800
  frame_id: "map"
pose: 
  position: 
    x: 0.106703139842
    y: -0.591088294983
    z: -0.217577129602
  orientation: 
    x: -0.0159605607162
    y: 0.0167618204625
    z: -0.48876357841
    w: -0.872109269663
---
header: 
  seq: 5373
  stamp: 
    secs: 1723704040
    nsecs: 523044800
  frame_id: "map"
pose: 
  position: 
    x: 0.106723703444
    y: -0.591088056564
    z: -0.217281207442
  orientation: 
    x: -0.0162012909408
    y: 0.0166388748744
    z: -0.488913010061
    w: -0.872023479753
---
header: 
  seq: 5374
  stamp: 
    secs: 1723704040
    nsecs: 563048896
  frame_id: "map"
pose: 
  position: 
    x: 0.106639228761
    y: -0.591041147709
    z: -0.216914087534
  orientation: 
    x: -0.016511374458
    y: 0.0163394097288
    z: -0.489126547069
    w: -0.871903424455
---
header: 
  seq: 5375
  stamp: 
    secs: 1723704040
    nsecs: 593048896
  frame_id: "map"
pose: 
  position: 
    x: 0.10638397187
    y: -0.590904414654
    z: -0.216644138098
  orientation: 
    x: -0.0168589779621
    y: 0.0161399128846
    z: -0.489267043588
    w: -0.871821764936
---
header: 
  seq: 5376
  stamp: 
    secs: 1723704040
    nsecs: 623048896
  frame_id: "map"
pose: 
  position: 
    x: 0.106220826507
    y: -0.590611934662
    z: -0.216309189796
  orientation: 
    x: -0.0172464263672
    y: 0.0158685974864
    z: -0.489470760381
    w: -0.871704786358
---
header: 
  seq: 5377
  stamp: 
    secs: 1723704040
    nsecs: 653048384
  frame_id: "map"
pose: 
  position: 
    x: 0.106228530407
    y: -0.59041595459
    z: -0.216028794646
  orientation: 
    x: -0.0172463460248
    y: 0.0158047753039
    z: -0.489644953306
    w: -0.87160805934
---
header: 
  seq: 5378
  stamp: 
    secs: 1723704040
    nsecs: 693048384
  frame_id: "map"
pose: 
  position: 
    x: 0.106368646026
    y: -0.590451419353
    z: -0.215554893017
  orientation: 
    x: -0.0171021645783
    y: 0.0158607829091
    z: -0.489706508778
    w: -0.871575248019
---
header: 
  seq: 5379
  stamp: 
    secs: 1723704040
    nsecs: 723048384
  frame_id: "map"
pose: 
  position: 
    x: 0.106343820691
    y: -0.590524613857
    z: -0.215071499348
  orientation: 
    x: -0.0167295137712
    y: 0.0163295127258
    z: -0.489877140294
    w: -0.871478036313
---
header: 
  seq: 5380
  stamp: 
    secs: 1723704040
    nsecs: 763052992
  frame_id: "map"
pose: 
  position: 
    x: 0.106258243322
    y: -0.590594649315
    z: -0.214181154966
  orientation: 
    x: -0.0164959710969
    y: 0.0166753108969
    z: -0.490055737565
    w: -0.871375556251
---
header: 
  seq: 5381
  stamp: 
    secs: 1723704040
    nsecs: 793052992
  frame_id: "map"
pose: 
  position: 
    x: 0.106300495565
    y: -0.590487539768
    z: -0.213511988521
  orientation: 
    x: -0.0164369057872
    y: 0.0166919975504
    z: -0.490156405312
    w: -0.87131973275
---
header: 
  seq: 5382
  stamp: 
    secs: 1723704040
    nsecs: 823052992
  frame_id: "map"
pose: 
  position: 
    x: 0.106275640428
    y: -0.590049564838
    z: -0.212439134717
  orientation: 
    x: -0.0164270433783
    y: 0.0165118382586
    z: -0.490363114531
    w: -0.87120692671
---
header: 
  seq: 5383
  stamp: 
    secs: 1723704040
    nsecs: 863056832
  frame_id: "map"
pose: 
  position: 
    x: 0.106324650347
    y: -0.589678406715
    z: -0.211033880711
  orientation: 
    x: -0.0165005792621
    y: 0.0162824196215
    z: -0.490533303505
    w: -0.871114119349
---
header: 
  seq: 5384
  stamp: 
    secs: 1723704040
    nsecs: 893056832
  frame_id: "map"
pose: 
  position: 
    x: 0.106284685433
    y: -0.58969438076
    z: -0.210014611483
  orientation: 
    x: -0.0166283407553
    y: 0.0161860180177
    z: -0.490659596537
    w: -0.87104236434
---
header: 
  seq: 5385
  stamp: 
    secs: 1723704040
    nsecs: 923056832
  frame_id: "map"
pose: 
  position: 
    x: 0.106142856181
    y: -0.589832782745
    z: -0.209743231535
  orientation: 
    x: -0.016811024953
    y: 0.0161723716584
    z: -0.490839732167
    w: -0.870937671568
---
header: 
  seq: 5386
  stamp: 
    secs: 1723704040
    nsecs: 953060672
  frame_id: "map"
pose: 
  position: 
    x: 0.106087312102
    y: -0.590010821819
    z: -0.209428876638
  orientation: 
    x: -0.0167324506739
    y: 0.016389635411
    z: -0.490975887561
    w: -0.870858245832
---
header: 
  seq: 5387
  stamp: 
    secs: 1723704040
    nsecs: 993060672
  frame_id: "map"
pose: 
  position: 
    x: 0.106138467789
    y: -0.590222775936
    z: -0.208924487233
  orientation: 
    x: -0.0166307350327
    y: 0.0164734570808
    z: -0.491037316593
    w: -0.870824043664
---
header: 
  seq: 5388
  stamp: 
    secs: 1723704041
    nsecs:  23060672
  frame_id: "map"
pose: 
  position: 
    x: 0.106125056744
    y: -0.589997053146
    z: -0.2089972049
  orientation: 
    x: -0.0164439503304
    y: 0.0166454824836
    z: -0.491223036681
    w: -0.8707195827
---
header: 
  seq: 5389
  stamp: 
    secs: 1723704041
    nsecs:  64064256
  frame_id: "map"
pose: 
  position: 
    x: 0.105979204178
    y: -0.589743316174
    z: -0.209132269025
  orientation: 
    x: -0.0165055390489
    y: 0.0166135914883
    z: -0.491421063649
    w: -0.870607198129
---
header: 
  seq: 5390
  stamp: 
    secs: 1723704041
    nsecs:  93064256
  frame_id: "map"
pose: 
  position: 
    x: 0.105880081654
    y: -0.5896692276
    z: -0.209281474352
  orientation: 
    x: -0.0165782722562
    y: 0.0165597506057
    z: -0.491512669824
    w: -0.870555125697
---
header: 
  seq: 5391
  stamp: 
    secs: 1723704041
    nsecs: 123064256
  frame_id: "map"
pose: 
  position: 
    x: 0.105943627656
    y: -0.5894780159
    z: -0.208927974105
  orientation: 
    x: -0.0166521699259
    y: 0.0164990369971
    z: -0.491739356649
    w: -0.870426893911
---
header: 
  seq: 5392
  stamp: 
    secs: 1723704041
    nsecs: 164067840
  frame_id: "map"
pose: 
  position: 
    x: 0.106081418693
    y: -0.589511632919
    z: -0.208481505513
  orientation: 
    x: -0.0166788013526
    y: 0.0165913018301
    z: -0.491917132056
    w: -0.870324224188
---
header: 
  seq: 5393
  stamp: 
    secs: 1723704041
    nsecs: 194067840
  frame_id: "map"
pose: 
  position: 
    x: 0.106200657785
    y: -0.589652001858
    z: -0.208345010877
  orientation: 
    x: -0.016655221697
    y: 0.0166886463731
    z: -0.492034511029
    w: -0.870256409909
---
header: 
  seq: 5394
  stamp: 
    secs: 1723704041
    nsecs: 224067840
  frame_id: "map"
pose: 
  position: 
    x: 0.106426693499
    y: -0.589703142643
    z: -0.208459958434
  orientation: 
    x: -0.0165793697239
    y: 0.0167350166257
    z: -0.492164281175
    w: -0.870183538008
---
header: 
  seq: 5395
  stamp: 
    secs: 1723704041
    nsecs: 254071936
  frame_id: "map"
pose: 
  position: 
    x: 0.106694608927
    y: -0.589533746243
    z: -0.208498939872
  orientation: 
    x: -0.0165661003704
    y: 0.0165600397145
    z: -0.492362813905
    w: -0.870074862359
---
header: 
  seq: 5396
  stamp: 
    secs: 1723704041
    nsecs: 294071936
  frame_id: "map"
pose: 
  position: 
    x: 0.106922745705
    y: -0.589278876781
    z: -0.208560585976
  orientation: 
    x: -0.0166254244012
    y: 0.0163945899191
    z: -0.492478570225
    w: -0.870011368131
---
header: 
  seq: 5397
  stamp: 
    secs: 1723704041
    nsecs: 334071936
  frame_id: "map"
pose: 
  position: 
    x: 0.106848850846
    y: -0.589203119278
    z: -0.209229230881
  orientation: 
    x: -0.0168539333054
    y: 0.0160943971281
    z: -0.49268833509
    w: -0.869893736277
---
header: 
  seq: 5398
  stamp: 
    secs: 1723704041
    nsecs: 364076032
  frame_id: "map"
pose: 
  position: 
    x: 0.106863945723
    y: -0.589423000813
    z: -0.209865793586
  orientation: 
    x: -0.0170326455743
    y: 0.0159622360534
    z: -0.492878796698
    w: -0.869784786674
---
header: 
  seq: 5399
  stamp: 
    secs: 1723704041
    nsecs: 394076032
  frame_id: "map"
pose: 
  position: 
    x: 0.107045464218
    y: -0.589753031731
    z: -0.210515871644
  orientation: 
    x: -0.0170635689722
    y: 0.0160284295312
    z: -0.49298810455
    w: -0.869720997419
---
header: 
  seq: 5400
  stamp: 
    secs: 1723704041
    nsecs: 424076032
  frame_id: "map"
pose: 
  position: 
    x: 0.107345670462
    y: -0.590033650398
    z: -0.211172416806
  orientation: 
    x: -0.0169774020865
    y: 0.0161472417852
    z: -0.493112880295
    w: -0.869649748171
---
header: 
  seq: 5401
  stamp: 
    secs: 1723704041
    nsecs: 454079360
  frame_id: "map"
pose: 
  position: 
    x: 0.107580460608
    y: -0.590333461761
    z: -0.21175698936
  orientation: 
    x: -0.0170093078271
    y: 0.016185178641
    z: -0.493273354421
    w: -0.869557467646
---
header: 
  seq: 5402
  stamp: 
    secs: 1723704041
    nsecs: 494079360
  frame_id: "map"
pose: 
  position: 
    x: 0.107812717557
    y: -0.590718865395
    z: -0.212414860725
  orientation: 
    x: -0.0171487942628
    y: 0.0161328334488
    z: -0.493362136757
    w: -0.869505268775
---
header: 
  seq: 5403
  stamp: 
    secs: 1723704041
    nsecs: 524079360
  frame_id: "map"
pose: 
  position: 
    x: 0.107807338238
    y: -0.590704679489
    z: -0.212781682611
  orientation: 
    x: -0.0173499390271
    y: 0.0158973390029
    z: -0.493594913801
    w: -0.869373559873
---
header: 
  seq: 5404
  stamp: 
    secs: 1723704041
    nsecs: 554082944
  frame_id: "map"
pose: 
  position: 
    x: 0.107850439847
    y: -0.59077423811
    z: -0.213056772947
  orientation: 
    x: -0.0174128023688
    y: 0.0157534457108
    z: -0.493756673406
    w: -0.869283028442
---
header: 
  seq: 5405
  stamp: 
    secs: 1723704041
    nsecs: 594082944
  frame_id: "map"
pose: 
  position: 
    x: 0.107905305922
    y: -0.591092050076
    z: -0.213412955403
  orientation: 
    x: -0.0174049048561
    y: 0.0157765134548
    z: -0.493828554856
    w: -0.869241914192
---
header: 
  seq: 5406
  stamp: 
    secs: 1723704041
    nsecs: 624082944
  frame_id: "map"
pose: 
  position: 
    x: 0.107931703329
    y: -0.591510295868
    z: -0.213731244206
  orientation: 
    x: -0.0173222339774
    y: 0.0159089544932
    z: -0.494030648995
    w: -0.869126305386
---
header: 
  seq: 5407
  stamp: 
    secs: 1723704041
    nsecs: 664085760
  frame_id: "map"
pose: 
  position: 
    x: 0.107994914055
    y: -0.592099070549
    z: -0.21401540935
  orientation: 
    x: -0.0172384778173
    y: 0.0160098196396
    z: -0.494184295331
    w: -0.869038913896
---
header: 
  seq: 5408
  stamp: 
    secs: 1723704041
    nsecs: 694085760
  frame_id: "map"
pose: 
  position: 
    x: 0.108096934855
    y: -0.592504739761
    z: -0.214129790664
  orientation: 
    x: -0.0172103542625
    y: 0.016056195414
    z: -0.494290189288
    w: -0.868978369948
---
header: 
  seq: 5409
  stamp: 
    secs: 1723704041
    nsecs: 724085760
  frame_id: "map"
pose: 
  position: 
    x: 0.108192510903
    y: -0.592638194561
    z: -0.214067444205
  orientation: 
    x: -0.0171782168789
    y: 0.0160440074838
    z: -0.494470135257
    w: -0.868876732823
---
header: 
  seq: 5410
  stamp: 
    secs: 1723704041
    nsecs: 754089856
  frame_id: "map"
pose: 
  position: 
    x: 0.108246728778
    y: -0.592812538147
    z: -0.214060172439
  orientation: 
    x: -0.0172118799867
    y: 0.0159557984516
    z: -0.494657204045
    w: -0.868771260334
---
header: 
  seq: 5411
  stamp: 
    secs: 1723704041
    nsecs: 794089856
  frame_id: "map"
pose: 
  position: 
    x: 0.108351126313
    y: -0.593230187893
    z: -0.214352324605
  orientation: 
    x: -0.017277730692
    y: 0.0158884251914
    z: -0.494779682786
    w: -0.868701465153
---
header: 
  seq: 5412
  stamp: 
    secs: 1723704041
    nsecs: 824089856
  frame_id: "map"
pose: 
  position: 
    x: 0.108420737088
    y: -0.593522846699
    z: -0.214299544692
  orientation: 
    x: -0.017421074511
    y: 0.0158422588341
    z: -0.494946626453
    w: -0.868604316667
---
header: 
  seq: 5413
  stamp: 
    secs: 1723704041
    nsecs: 854092928
  frame_id: "map"
pose: 
  position: 
    x: 0.108483038843
    y: -0.593816876411
    z: -0.214134708047
  orientation: 
    x: -0.0174591468623
    y: 0.0158230577342
    z: -0.495162228657
    w: -0.868481016062
---
header: 
  seq: 5414
  stamp: 
    secs: 1723704041
    nsecs: 894092928
  frame_id: "map"
pose: 
  position: 
    x: 0.10853061825
    y: -0.594270408154
    z: -0.213974192739
  orientation: 
    x: -0.0174457793143
    y: 0.0158047071446
    z: -0.495235353439
    w: -0.868439922885
---
header: 
  seq: 5415
  stamp: 
    secs: 1723704041
    nsecs: 924092928
  frame_id: "map"
pose: 
  position: 
    x: 0.108423143625
    y: -0.594438374043
    z: -0.213567137718
  orientation: 
    x: -0.0173545324574
    y: 0.0158660429099
    z: -0.495422190418
    w: -0.868334007854
---
header: 
  seq: 5416
  stamp: 
    secs: 1723704041
    nsecs: 964097536
  frame_id: "map"
pose: 
  position: 
    x: 0.108307145536
    y: -0.594712197781
    z: -0.21313880384
  orientation: 
    x: -0.017171643123
    y: 0.0160408031709
    z: -0.495556491351
    w: -0.868257869573
---
header: 
  seq: 5417
  stamp: 
    secs: 1723704041
    nsecs: 994097536
  frame_id: "map"
pose: 
  position: 
    x: 0.108253002167
    y: -0.595042586327
    z: -0.212652608752
  orientation: 
    x: -0.0169735184849
    y: 0.0161771378949
    z: -0.495661099829
    w: -0.868199454041
---
header: 
  seq: 5418
  stamp: 
    secs: 1723704042
    nsecs:  24097536
  frame_id: "map"
pose: 
  position: 
    x: 0.108377970755
    y: -0.595117092133
    z: -0.212152078748
  orientation: 
    x: -0.0167054651869
    y: 0.0162979906903
    z: -0.495779132078
    w: -0.868135032583
---
header: 
  seq: 5419
  stamp: 
    secs: 1723704042
    nsecs:  54101632
  frame_id: "map"
pose: 
  position: 
    x: 0.108520023525
    y: -0.59528696537
    z: -0.211441248655
  orientation: 
    x: -0.016572570401
    y: 0.0163668775842
    z: -0.495961375051
    w: -0.868032194272
---
header: 
  seq: 5420
  stamp: 
    secs: 1723704042
    nsecs:  94101632
  frame_id: "map"
pose: 
  position: 
    x: 0.108761310577
    y: -0.595615684986
    z: -0.210657089949
  orientation: 
    x: -0.016580662668
    y: 0.0163718640112
    z: -0.496042486661
    w: -0.867985558784
---
header: 
  seq: 5421
  stamp: 
    secs: 1723704042
    nsecs: 124101632
  frame_id: "map"
pose: 
  position: 
    x: 0.108868300915
    y: -0.595674753189
    z: -0.210313379765
  orientation: 
    x: -0.0167136700341
    y: 0.0162566162733
    z: -0.496230166578
    w: -0.86787795788
---
header: 
  seq: 5422
  stamp: 
    secs: 1723704042
    nsecs: 154106496
  frame_id: "map"
pose: 
  position: 
    x: 0.108943596482
    y: -0.595690727234
    z: -0.209982544184
  orientation: 
    x: -0.0169457815369
    y: 0.016094260439
    z: -0.496434789527
    w: -0.867759483089
---
header: 
  seq: 5423
  stamp: 
    secs: 1723704042
    nsecs: 194106496
  frame_id: "map"
pose: 
  position: 
    x: 0.109053634107
    y: -0.595840513706
    z: -0.209500178695
  orientation: 
    x: -0.0170599302257
    y: 0.016010470652
    z: -0.496538365408
    w: -0.867699402756
---
header: 
  seq: 5424
  stamp: 
    secs: 1723704042
    nsecs: 224106496
  frame_id: "map"
pose: 
  position: 
    x: 0.109130293131
    y: -0.59579706192
    z: -0.209118440747
  orientation: 
    x: -0.0172070549134
    y: 0.0159333334405
    z: -0.496697111512
    w: -0.867607164378
---
header: 
  seq: 5425
  stamp: 
    secs: 1723704042
    nsecs: 254110592
  frame_id: "map"
pose: 
  position: 
    x: 0.109190769494
    y: -0.595753014088
    z: -0.208690047264
  orientation: 
    x: -0.0171334558557
    y: 0.0159493915132
    z: -0.496882620866
    w: -0.867502071212
---
header: 
  seq: 5426
  stamp: 
    secs: 1723704042
    nsecs: 294110592
  frame_id: "map"
pose: 
  position: 
    x: 0.109252862632
    y: -0.595769822598
    z: -0.208160087466
  orientation: 
    x: -0.0170686533063
    y: 0.0159946221199
    z: -0.496949824016
    w: -0.867463949387
---
header: 
