header: 
  seq: 1398
  stamp: 
    secs: 1723801970
    nsecs: 590874570
  frame_id: "map"
pose: 
  position: 
    x: 0.000344292580849
    y: -0.000605216016993
    z: -0.2614389956
  orientation: 
    x: -0.00862430677908
    y: -0.0275671314511
    z: 0.640212246266
    w: -0.767654927952
---
header: 
  seq: 1399
  stamp: 
    secs: 1723801970
    nsecs: 622138021
  frame_id: "map"
pose: 
  position: 
    x: 2.97534788842e-05
    y: -0.000666860723868
    z: -0.263894945383
  orientation: 
    x: -0.00858931501664
    y: -0.0275006704808
    z: 0.640226512974
    w: -0.767645718866
---
header: 
  seq: 1400
  stamp: 
    secs: 1723801970
    nsecs: 660006906
  frame_id: "map"
pose: 
  position: 
    x: -0.000428748258855
    y: -0.000682151759975
    z: -0.267062246799
  orientation: 
    x: -0.00850898378193
    y: -0.0274629167827
    z: 0.640241496179
    w: -0.767635456108
---
header: 
  seq: 1401
  stamp: 
    secs: 1723801970
    nsecs: 690001741
  frame_id: "map"
pose: 
  position: 
    x: -0.000646484782919
    y: -0.000785823503975
    z: -0.269326120615
  orientation: 
    x: -0.00847410265497
    y: -0.027502552601
    z: 0.640282162619
    w: -0.767600521639
---
header: 
  seq: 1402
  stamp: 
    secs: 1723801970
    nsecs: 724102155
  frame_id: "map"
pose: 
  position: 
    x: -0.00070768740261
    y: -0.000897233025171
    z: -0.271368741989
  orientation: 
    x: -0.00866630611362
    y: -0.0276484353561
    z: 0.640322771108
    w: -0.767559323095
---
header: 
  seq: 1403
  stamp: 
    secs: 1723801970
    nsecs: 757585765
  frame_id: "map"
pose: 
  position: 
    x: -0.000790440884884
    y: -0.000843221496325
    z: -0.273268997669
  orientation: 
    x: -0.00873658861769
    y: -0.0276909299161
    z: 0.640326938377
    w: -0.767553469951
---
header: 
  seq: 1404
  stamp: 
    secs: 1723801970
    nsecs: 790474877
  frame_id: "map"
pose: 
  position: 
    x: -0.00105238647666
    y: -0.000490510370582
    z: -0.275656193495
  orientation: 
    x: -0.00865412501585
    y: -0.0276513783915
    z: 0.640357642356
    w: -0.767530268111
---
header: 
  seq: 1405
  stamp: 
    secs: 1723801970
    nsecs: 824106144
  frame_id: "map"
pose: 
  position: 
    x: -0.00127432949375
    y: -0.000285568326944
    z: -0.276797264814
  orientation: 
    x: -0.00854164034553
    y: -0.0276049167594
    z: 0.64040448331
    w: -0.767494132457
---
header: 
  seq: 1406
  stamp: 
    secs: 1723801970
    nsecs: 857575929
  frame_id: "map"
pose: 
  position: 
    x: -0.0014182041632
    y: -0.000177391339093
    z: -0.277932673693
  orientation: 
    x: -0.0085684016187
    y: -0.0276159375017
    z: 0.640405858351
    w: -0.767492251654
---
header: 
  seq: 1407
  stamp: 
    secs: 1723801970
    nsecs: 889465816
  frame_id: "map"
pose: 
  position: 
    x: -0.00154488172848
    y: -0.000140654185088
    z: -0.279274433851
  orientation: 
    x: -0.00868804466783
    y: -0.0276394751995
    z: 0.640404140867
    w: -0.767491440327
---
header: 
  seq: 1408
  stamp: 
    secs: 1723801970
    nsecs: 922155941
  frame_id: "map"
pose: 
  position: 
    x: -0.00169703154825
    y: -8.65343827172e-05
    z: -0.27998110652
  orientation: 
    x: -0.00870753231691
    y: -0.0276140237714
    z: 0.640427321634
    w: -0.76747281142
---
header: 
  seq: 1409
  stamp: 
    secs: 1723801970
    nsecs: 959360244
  frame_id: "map"
pose: 
  position: 
    x: -0.00191150512546
    y: 1.79894159373e-05
    z: -0.280764698982
  orientation: 
    x: -0.00866339863961
    y: -0.0275909911772
    z: 0.640415351929
    w: -0.767484191069
---
header: 
  seq: 1410
  stamp: 
    secs: 1723801970
    nsecs: 991771409
  frame_id: "map"
pose: 
  position: 
    x: -0.00208292389289
    y: -9.15432174224e-05
    z: -0.282010734081
  orientation: 
    x: -0.00865353561852
    y: -0.0275110260932
    z: 0.640371482328
    w: -0.767523677398
---
header: 
  seq: 1411
  stamp: 
    secs: 1723801971
    nsecs:  24253136
  frame_id: "map"
pose: 
  position: 
    x: -0.00213800300844
    y: -0.000412843044614
    z: -0.283308804035
  orientation: 
    x: -0.00878083424754
    y: -0.0275277406114
    z: 0.640309505387
    w: -0.767573431752
---
header: 
  seq: 1412
  stamp: 
    secs: 1723801971
    nsecs:  57542012
  frame_id: "map"
pose: 
  position: 
    x: -0.00222634128295
    y: -0.000722803699318
    z: -0.284720718861
  orientation: 
    x: -0.00881532090634
    y: -0.0276027198549
    z: 0.640268723043
    w: -0.76760426744
---
header: 
  seq: 1413
  stamp: 
    secs: 1723801971
    nsecs:  90315339
  frame_id: "map"
pose: 
  position: 
    x: -0.0025746866595
    y: -0.00102212151978
    z: -0.286517649889
  orientation: 
    x: -0.00866812830627
    y: -0.0276909042329
    z: 0.640233588376
    w: -0.767632152849
---
header: 
  seq: 1414
  stamp: 
    secs: 1723801971
    nsecs: 122064639
  frame_id: "map"
pose: 
  position: 
    x: -0.0029274483677
    y: -0.00123355630785
    z: -0.287846654654
  orientation: 
    x: -0.00849537956948
    y: -0.0276729437485
    z: 0.640206682882
    w: -0.767657119588
---
header: 
  seq: 1415
  stamp: 
    secs: 1723801971
    nsecs: 159330478
  frame_id: "map"
pose: 
  position: 
    x: -0.00326399854384
    y: -0.00156694836915
    z: -0.289166390896
  orientation: 
    x: -0.00849652741256
    y: -0.0276464919912
    z: 0.640186194245
    w: -0.767675248002
---
header: 
  seq: 1416
  stamp: 
    secs: 1723801971
    nsecs: 190598855
  frame_id: "map"
pose: 
  position: 
    x: -0.00374887068756
    y: -0.00218581454828
    z: -0.290533334017
  orientation: 
    x: -0.00870828635037
    y: -0.0276412341719
    z: 0.640171495532
    w: -0.767685226268
---
header: 
  seq: 1417
  stamp: 
    secs: 1723801971
    nsecs: 222102413
  frame_id: "map"
pose: 
  position: 
    x: -0.00411288347095
    y: -0.00255930167623
    z: -0.291258841753
  orientation: 
    x: -0.00885618161743
    y: -0.0276404340403
    z: 0.640164910087
    w: -0.767689114315
---
header: 
  seq: 1418
  stamp: 
    secs: 1723801971
    nsecs: 259619530
  frame_id: "map"
pose: 
  position: 
    x: -0.00450653024018
    y: -0.00277999928221
    z: -0.292142629623
  orientation: 
    x: -0.00879329061691
    y: -0.0276331531722
    z: 0.640148736233
    w: -0.767703602294
---
header: 
  seq: 1419
  stamp: 
    secs: 1723801971
    nsecs: 289532086
  frame_id: "map"
pose: 
  position: 
    x: -0.00488594314083
    y: -0.0029270707164
    z: -0.292925149202
  orientation: 
    x: -0.00854938351186
    y: -0.0276325110913
    z: 0.640131861689
    w: -0.767720476838
---
header: 
  seq: 1420
  stamp: 
    secs: 1723801971
    nsecs: 324160014
  frame_id: "map"
pose: 
  position: 
    x: -0.0051578450948
    y: -0.00314643606544
    z: -0.293700754642
  orientation: 
    x: -0.00854326760901
    y: -0.0277362180219
    z: 0.640127773445
    w: -0.76772018181
---
header: 
  seq: 1421
  stamp: 
    secs: 1723801971
    nsecs: 360084369
  frame_id: "map"
pose: 
  position: 
    x: -0.00531740905717
    y: -0.00333489920013
    z: -0.29428294301
  orientation: 
    x: -0.00862038975634
    y: -0.0277769200238
    z: 0.640115361198
    w: -0.767728210785
---
header: 
  seq: 1422
  stamp: 
    secs: 1723801971
    nsecs: 390733638
  frame_id: "map"
pose: 
  position: 
    x: -0.00570751540363
    y: -0.00334182055667
    z: -0.295490652323
  orientation: 
    x: -0.00874300745101
    y: -0.0276536780289
    z: 0.640088002625
    w: -0.767754052072
---
header: 
  seq: 1423
  stamp: 
    secs: 1723801971
    nsecs: 423162529
  frame_id: "map"
pose: 
  position: 
    x: -0.00607067253441
    y: -0.00324815628119
    z: -0.296748846769
  orientation: 
    x: -0.0086888876048
    y: -0.027612864733
    z: 0.640139643051
    w: -0.767713116945
---
header: 
  seq: 1424
  stamp: 
    secs: 1723801971
    nsecs: 456173309
  frame_id: "map"
pose: 
  position: 
    x: -0.00634843064472
    y: -0.00324240326881
    z: -0.297953933477
  orientation: 
    x: -0.00868259718766
    y: -0.0275938775778
    z: 0.64015605398
    w: -0.767700162057
---
header: 
  seq: 1425
  stamp: 
    secs: 1723801971
    nsecs: 490051115
  frame_id: "map"
pose: 
  position: 
    x: -0.00660379463807
    y: -0.00330804428086
    z: -0.299205720425
  orientation: 
    x: -0.00867002689009
    y: -0.0276858946848
    z: 0.640153382923
    w: -0.767699208485
---
header: 
  seq: 1426
  stamp: 
    secs: 1723801971
    nsecs: 522229496
  frame_id: "map"
pose: 
  position: 
    x: -0.00716661987826
    y: -0.00341676129028
    z: -0.301017343998
  orientation: 
    x: -0.00861012765727
    y: -0.0277344037318
    z: 0.640190640738
    w: -0.767667008293
---
header: 
  seq: 1427
  stamp: 
    secs: 1723801971
    nsecs: 559744181
  frame_id: "map"
pose: 
  position: 
    x: -0.00760945212096
    y: -0.00343161472119
    z: -0.302393257618
  orientation: 
    x: -0.00856811844457
    y: -0.0277056325808
    z: 0.640215407279
    w: -0.767647973722
---
header: 
  seq: 1428
  stamp: 
    secs: 1723801971
    nsecs: 597230065
  frame_id: "map"
pose: 
  position: 
    x: -0.00789303984493
    y: -0.00346224568784
    z: -0.304077774286
  orientation: 
    x: -0.00865980232806
    y: -0.0275931176174
    z: 0.64020248927
    w: -0.767661650375
---
header: 
  seq: 1429
  stamp: 
    secs: 1723801971
    nsecs: 624287449
  frame_id: "map"
pose: 
  position: 
    x: -0.00798680540174
    y: -0.00353520666249
    z: -0.30526342988
  orientation: 
    x: -0.00878870319587
    y: -0.0275030050211
    z: 0.640204438562
    w: -0.767661892719
---
header: 
  seq: 1430
  stamp: 
    secs: 1723801971
    nsecs: 657726766
  frame_id: "map"
pose: 
  position: 
    x: -0.00807579793036
    y: -0.00363590451889
    z: -0.306456446648
  orientation: 
    x: -0.00883190700832
    y: -0.0275333184834
    z: 0.640221639745
    w: -0.767645871648
---
header: 
  seq: 1431
  stamp: 
    secs: 1723801971
    nsecs: 691673471
  frame_id: "map"
pose: 
  position: 
    x: -0.0081272572279
    y: -0.00378156057559
    z: -0.307961672544
  orientation: 
    x: -0.00874136174828
    y: -0.0275965973666
    z: 0.640215459963
    w: -0.767649859794
---
header: 
  seq: 1432
  stamp: 
    secs: 1723801971
    nsecs: 724216129
  frame_id: "map"
pose: 
  position: 
    x: -0.00831179972738
    y: -0.00409638136625
    z: -0.30904468894
  orientation: 
    x: -0.0085810404049
    y: -0.0277096352143
    z: 0.640206198193
    w: -0.767655244054
---
header: 
  seq: 1433
  stamp: 
    secs: 1723801971
    nsecs: 757531566
  frame_id: "map"
pose: 
  position: 
    x: -0.00858714990318
    y: -0.00443680072203
    z: -0.310141503811
  orientation: 
    x: -0.00850103251554
    y: -0.0277605275339
    z: 0.6402201488
    w: -0.76764272644
---
header: 
  seq: 1434
  stamp: 
    secs: 1723801971
    nsecs: 790259835
  frame_id: "map"
pose: 
  position: 
    x: -0.00880050286651
    y: -0.00474543636665
    z: -0.311021864414
  orientation: 
    x: -0.00849702197948
    y: -0.0278186282816
    z: 0.640228978565
    w: -0.767633222325
---
header: 
  seq: 1435
  stamp: 
    secs: 1723801971
    nsecs: 824146473
  frame_id: "map"
pose: 
  position: 
    x: -0.00885460618883
    y: -0.00507361674681
    z: -0.311789005995
  orientation: 
    x: -0.00868646942936
    y: -0.0276698894191
    z: 0.640213020714
    w: -0.767649854525
---
header: 
  seq: 1436
  stamp: 
    secs: 1723801971
    nsecs: 857560636
  frame_id: "map"
pose: 
  position: 
    x: -0.00896792858839
    y: -0.0053271651268
    z: -0.312360286713
  orientation: 
    x: -0.00878034758315
    y: -0.0276330860007
    z: 0.640217245936
    w: -0.767646556534
---
header: 
  seq: 1437
  stamp: 
    secs: 1723801971
    nsecs: 891044179
  frame_id: "map"
pose: 
  position: 
    x: -0.00900647975504
    y: -0.0055787935853
    z: -0.312927484512
  orientation: 
    x: -0.0088905569822
    y: -0.027530384009
    z: 0.640215465231
    w: -0.767650528875
---
header: 
  seq: 1438
  stamp: 
    secs: 1723801971
    nsecs: 926432343
  frame_id: "map"
pose: 
  position: 
    x: -0.00870499387383
    y: -0.0059025962837
    z: -0.313618570566
  orientation: 
    x: -0.00882528797747
    y: -0.0275972229839
    z: 0.640199033229
    w: -0.767662493312
---
header: 
  seq: 1439
  stamp: 
    secs: 1723801971
    nsecs: 957647981
  frame_id: "map"
pose: 
  position: 
    x: -0.00850686151534
    y: -0.0061601116322
    z: -0.314134955406
  orientation: 
    x: -0.00874185038831
    y: -0.0276706638674
    z: 0.640199860361
    w: -0.767660148893
---
header: 
  seq: 1440
  stamp: 
    secs: 1723801971
    nsecs: 990696075
  frame_id: "map"
pose: 
  position: 
    x: -0.00848298054188
    y: -0.00628466205671
    z: -0.314818501472
  orientation: 
    x: -0.00856863935327
    y: -0.0278271109935
    z: 0.640219047713
    w: -0.767640540072
---
header: 
  seq: 1441
  stamp: 
    secs: 1723801972
    nsecs:  23502362
  frame_id: "map"
pose: 
  position: 
    x: -0.00873167440295
    y: -0.00611801026389
    z: -0.316041618586
  orientation: 
    x: -0.00855224883901
    y: -0.0278009911426
    z: 0.640241480374
    w: -0.767622827859
---
header: 
  seq: 1442
  stamp: 
    secs: 1723801972
    nsecs:  56701566
  frame_id: "map"
pose: 
  position: 
    x: -0.00889273826033
    y: -0.00604248186573
    z: -0.317014694214
  orientation: 
    x: -0.00861170421283
    y: -0.0277377557233
    z: 0.640248982513
    w: -0.767618191705
---
header: 
  seq: 1443
  stamp: 
    secs: 1723801972
    nsecs:  96087043
  frame_id: "map"
pose: 
  position: 
    x: -0.00913810357451
    y: -0.00605982448906
    z: -0.318321347237
  orientation: 
    x: -0.00876390767806
    y: -0.027666410987
    z: 0.640270282476
    w: -0.767601359308
---
header: 
  seq: 1444
  stamp: 
    secs: 1723801972
    nsecs: 124192516
  frame_id: "map"
pose: 
  position: 
    x: -0.00915451906621
    y: -0.00612109340727
    z: -0.319198995829
  orientation: 
    x: -0.0087529310582
    y: -0.0276581949857
    z: 0.640319388823
    w: -0.767560766624
---
header: 
  seq: 1445
  stamp: 
    secs: 1723801972
    nsecs: 161067418
  frame_id: "map"
pose: 
  position: 
    x: -0.00912693142891
    y: -0.00617190124467
    z: -0.320077270269
  orientation: 
    x: -0.00869628371816
    y: -0.0276514666365
    z: 0.640348638736
    w: -0.767537332977
---
header: 
  seq: 1446
  stamp: 
    secs: 1723801972
    nsecs: 192279885
  frame_id: "map"
pose: 
  position: 
    x: -0.0090764965862
    y: -0.00631514331326
    z: -0.321125000715
  orientation: 
    x: -0.00868051026011
    y: -0.0276682331796
    z: 0.640375997309
    w: -0.767514020501
---
header: 
  seq: 1447
  stamp: 
    secs: 1723801972
    nsecs: 224373970
  frame_id: "map"
pose: 
  position: 
    x: -0.00905940961093
    y: -0.00643337797374
    z: -0.321343749762
  orientation: 
    x: -0.0087660123863
    y: -0.0276710892872
    z: 0.640426036155
    w: -0.767471146619
---
header: 
  seq: 1448
  stamp: 
    secs: 1723801972
    nsecs: 257628569
  frame_id: "map"
pose: 
  position: 
    x: -0.00904379598796
    y: -0.00650386977941
    z: -0.321664959192
  orientation: 
    x: -0.00881323200316
    y: -0.0276553639029
    z: 0.640443321631
    w: -0.767456811422
---
header: 
  seq: 1449
  stamp: 
    secs: 1723801972
    nsecs: 290621649
  frame_id: "map"
pose: 
  position: 
    x: -0.00902196206152
    y: -0.00655744131655
    z: -0.322026371956
  orientation: 
    x: -0.00884927085136
    y: -0.0275828970067
    z: 0.640443980176
    w: -0.767458428808
---
header: 
  seq: 1450
  stamp: 
    secs: 1723801972
    nsecs: 323282615
  frame_id: "map"
pose: 
  position: 
    x: -0.00920506473631
    y: -0.00679681822658
    z: -0.321753829718
  orientation: 
    x: -0.00882783720326
    y: -0.027606656634
    z: 0.640433469805
    w: -0.767466663248
---
header: 
  seq: 1451
  stamp: 
    secs: 1723801972
    nsecs: 356185194
  frame_id: "map"
pose: 
  position: 
    x: -0.00933694094419
    y: -0.00705061946064
    z: -0.321664988995
  orientation: 
    x: -0.00882174764219
    y: -0.0276621185939
    z: 0.640429376293
    w: -0.767468143656
---
header: 
  seq: 1452
  stamp: 
    secs: 1723801972
    nsecs: 391115376
  frame_id: "map"
pose: 
  position: 
    x: -0.00941755715758
    y: -0.00724417436868
    z: -0.321577310562
  orientation: 
    x: -0.00883809074125
    y: -0.027749143275
    z: 0.640401691081
    w: -0.767487820966
---
header: 
  seq: 1453
  stamp: 
    secs: 1723801972
    nsecs: 422414376
  frame_id: "map"
pose: 
  position: 
    x: -0.00946301128715
    y: -0.00744639104232
    z: -0.321420490742
  orientation: 
    x: -0.00883434296445
    y: -0.0276999809518
    z: 0.640375612719
    w: -0.767511454812
---
header: 
  seq: 1454
  stamp: 
    secs: 1723801972
    nsecs: 460735024
  frame_id: "map"
pose: 
  position: 
    x: -0.00952724833041
    y: -0.00761646777391
    z: -0.321315705776
  orientation: 
    x: -0.00888166136298
    y: -0.0277092842101
    z: 0.640372198824
    w: -0.76751335142
---
header: 
  seq: 1455
  stamp: 
    secs: 1723801972
    nsecs: 492071114
  frame_id: "map"
pose: 
  position: 
    x: -0.00957189127803
    y: -0.00780102610588
    z: -0.321345567703
  orientation: 
    x: -0.00891324647468
    y: -0.0276792137508
    z: 0.640353538307
    w: -0.767529736007
---
header: 
  seq: 1456
  stamp: 
    secs: 1723801972
    nsecs: 525331761
  frame_id: "map"
pose: 
  position: 
    x: -0.00917646475136
    y: -0.00772205088288
    z: -0.320763796568
  orientation: 
    x: -0.008928010384
    y: -0.0277650280271
    z: 0.640320047368
    w: -0.767554376108
---
header: 
  seq: 1457
  stamp: 
    secs: 1723801972
    nsecs: 560718994
  frame_id: "map"
pose: 
  position: 
    x: -0.00882770586759
    y: -0.00768769113347
    z: -0.320410132408
  orientation: 
    x: -0.00893191818711
    y: -0.0278415811919
    z: 0.640308620303
    w: -0.767561082726
---
header: 
  seq: 1458
  stamp: 
    secs: 1723801972
    nsecs: 598262318
  frame_id: "map"
pose: 
  position: 
    x: -0.0086486665532
    y: -0.00745706865564
    z: -0.319817095995
  orientation: 
    x: -0.00884717470419
    y: -0.0279188725852
    z: 0.640287815565
    w: -0.767576576961
---
header: 
  seq: 1459
  stamp: 
    secs: 1723801972
    nsecs: 623875617
  frame_id: "map"
pose: 
  position: 
    x: -0.00885309185833
    y: -0.00717065064237
    z: -0.319299250841
  orientation: 
    x: -0.00872527548158
    y: -0.0279420981329
    z: 0.640276362159
    w: -0.767586765961
---
header: 
  seq: 1460
  stamp: 
    secs: 1723801972
    nsecs: 656284856
  frame_id: "map"
pose: 
  position: 
    x: -0.00904125813395
    y: -0.00689761666581
    z: -0.318345993757
  orientation: 
    x: -0.00869409339913
    y: -0.0278689009108
    z: 0.640284902164
    w: -0.767582609229
---
header: 
  seq: 1461
  stamp: 
    secs: 1723801972
    nsecs: 690243080
  frame_id: "map"
pose: 
  position: 
    x: -0.00905625801533
    y: -0.0067504462786
    z: -0.317682027817
  orientation: 
    x: -0.00882717075622
    y: -0.0276821521764
    z: 0.640262021694
    w: -0.767606922692
---
header: 
  seq: 1462
  stamp: 
    secs: 1723801972
    nsecs: 722430002
  frame_id: "map"
pose: 
  position: 
    x: -0.00900996755809
    y: -0.00669409101829
    z: -0.317347466946
  orientation: 
    x: -0.00900262611093
    y: -0.0277136615554
    z: 0.640213215643
    w: -0.767644433387
---
header: 
  seq: 1463
  stamp: 
    secs: 1723801972
    nsecs: 759845670
  frame_id: "map"
pose: 
  position: 
    x: -0.00907588936388
    y: -0.00653617223725
    z: -0.316992849112
  orientation: 
    x: -0.00895318785763
    y: -0.0277610899309
    z: 0.640230522193
    w: -0.767628897005
---
header: 
  seq: 1464
  stamp: 
    secs: 1723801972
    nsecs: 791845478
  frame_id: "map"
pose: 
  position: 
    x: -0.00908039230853
    y: -0.00626494921744
    z: -0.317016422749
  orientation: 
    x: -0.00871052079188
    y: -0.0278358518547
    z: 0.640268375331
    w: -0.767597365894
---
header: 
  seq: 1465
  stamp: 
    secs: 1723801972
    nsecs: 824386276
  frame_id: "map"
pose: 
  position: 
    x: -0.00894648209214
    y: -0.0058142687194
    z: -0.317629605532
  orientation: 
    x: -0.00863235353442
    y: -0.0278977899413
    z: 0.640256869242
    w: -0.767605668823
---
header: 
  seq: 1466
  stamp: 
    secs: 1723801972
    nsecs: 858165994
  frame_id: "map"
pose: 
  position: 
    x: -0.00889946147799
    y: -0.0055318204686
    z: -0.318091034889
  orientation: 
    x: -0.00869342695209
    y: -0.0279145591187
    z: 0.640275582442
    w: -0.767588641496
---
header: 
  seq: 1467
  stamp: 
    secs: 1723801972
    nsecs: 890698888
  frame_id: "map"
pose: 
  position: 
    x: -0.00891964230686
    y: -0.00522011704743
    z: -0.318342655897
  orientation: 
    x: -0.00877487441975
    y: -0.0278130602878
    z: 0.640307145164
    w: -0.76756517097
---
header: 
  seq: 1468
  stamp: 
    secs: 1723801972
    nsecs: 923571641
  frame_id: "map"
pose: 
  position: 
    x: -0.00901358667761
    y: -0.00494732987136
    z: -0.31856444478
  orientation: 
    x: -0.00871454054756
    y: -0.0276888252079
    z: 0.640294053299
    w: -0.767581213114
---
header: 
  seq: 1469
  stamp: 
    secs: 1723801972
    nsecs: 956250943
  frame_id: "map"
pose: 
  position: 
    x: -0.00907297246158
    y: -0.00491239363328
    z: -0.318844765425
  orientation: 
    x: -0.00868939929388
    y: -0.0277149806201
    z: 0.640302993699
    w: -0.767573115651
---
header: 
  seq: 1470
  stamp: 
    secs: 1723801972
    nsecs: 990100777
  frame_id: "map"
pose: 
  position: 
    x: -0.00894958153367
    y: -0.00488374521956
    z: -0.318922907114
  orientation: 
    x: -0.00870688891892
    y: -0.0278602278797
    z: 0.640312903477
    w: -0.76755949695
---
header: 
  seq: 1471
  stamp: 
    secs: 1723801973
    nsecs:  22290481
  frame_id: "map"
pose: 
  position: 
    x: -0.00858734361827
    y: -0.00462773861364
    z: -0.31843906641
  orientation: 
    x: -0.00865109768675
    y: -0.0279662133742
    z: 0.640284385865
    w: -0.767579922367
---
header: 
  seq: 1472
  stamp: 
    secs: 1723801973
    nsecs:  59502487
  frame_id: "map"
pose: 
  position: 
    x: -0.00837513059378
    y: -0.00424133939669
    z: -0.317835897207
  orientation: 
    x: -0.00856023171554
    y: -0.0279776667803
    z: 0.640282410232
    w: -0.767582235175
---
header: 
  seq: 1473
  stamp: 
    secs: 1723801973
    nsecs:  91734849
  frame_id: "map"
pose: 
  position: 
    x: -0.00829630997032
    y: -0.00387312262319
    z: -0.317241042852
  orientation: 
    x: -0.00848525444767
    y: -0.0280067830087
    z: 0.640294875162
    w: -0.767571540412
---
header: 
  seq: 1474
  stamp: 
    secs: 1723801973
    nsecs: 122449621
  frame_id: "map"
pose: 
  position: 
    x: -0.00804144702852
    y: -0.00342276622541
    z: -0.31712320447
  orientation: 
    x: -0.00847680598018
    y: -0.0277705426788
    z: 0.640265182708
    w: -0.767605026084
---
header: 
  seq: 1475
  stamp: 
    secs: 1723801973
    nsecs: 159683067
  frame_id: "map"
pose: 
  position: 
    x: -0.0076186475344
    y: -0.00301276776008
    z: -0.317104965448
  orientation: 
    x: -0.0085512129485
    y: -0.0277111452569
    z: 0.640232034211
    w: -0.767634044189
---
header: 
  seq: 1476
  stamp: 
    secs: 1723801973
    nsecs: 192052301
  frame_id: "map"
pose: 
  position: 
    x: -0.0073530911468
    y: -0.0028641410172
    z: -0.317459225655
  orientation: 
    x: -0.0086589034148
    y: -0.0277438275037
    z: 0.640202294341
    w: -0.767656450507
---
header: 
  seq: 1477
  stamp: 
    secs: 1723801973
    nsecs: 224980159
  frame_id: "map"
pose: 
  position: 
    x: -0.00702269515023
    y: -0.00267641223036
    z: -0.318416714668
  orientation: 
    x: -0.00855223171686
    y: -0.0278425334473
    z: 0.640195392795
    w: -0.767659896012
---
header: 
  seq: 1478
  stamp: 
    secs: 1723801973
    nsecs: 259149271
  frame_id: "map"
pose: 
  position: 
    x: -0.00677729444578
    y: -0.00257537444122
    z: -0.319121867418
  orientation: 
    x: -0.00844715237953
    y: -0.0279202726508
    z: 0.640169467215
    w: -0.767679752446
---
header: 
  seq: 1479
  stamp: 
    secs: 1723801973
    nsecs: 290863524
  frame_id: "map"
pose: 
  position: 
    x: -0.00666723446921
    y: -0.0025070910342
    z: -0.31998449564
  orientation: 
    x: -0.0084469581089
    y: -0.0280050556464
    z: 0.640155811636
    w: -0.767688097522
---
header: 
  seq: 1480
  stamp: 
    secs: 1723801973
    nsecs: 323244182
  frame_id: "map"
pose: 
  position: 
    x: -0.00674302875996
    y: -0.00238176109269
    z: -0.321034103632
  orientation: 
    x: -0.00858312403972
    y: -0.0278373638729
    z: 0.640160136956
    w: -0.767688998411
---
header: 
  seq: 1481
  stamp: 
    secs: 1723801973
    nsecs: 356525052
  frame_id: "map"
pose: 
  position: 
    x: -0.00681379623711
    y: -0.00222572800703
    z: -0.322363764048
  orientation: 
    x: -0.00861134333044
    y: -0.027747249301
    z: 0.640141349998
    w: -0.767707616781
---
header: 
  seq: 1482
  stamp: 
    secs: 1723801973
    nsecs: 390355361
  frame_id: "map"
pose: 
  position: 
    x: -0.00682505778968
    y: -0.0023019418586
    z: -0.323405832052
  orientation: 
    x: -0.00874495871838
    y: -0.0277467415632
    z: 0.640103164953
    w: -0.767738046806
---
header: 
  seq: 1483
  stamp: 
    secs: 1723801973
    nsecs: 422219158
  frame_id: "map"
pose: 
  position: 
    x: -0.00698249367997
    y: -0.00220737839118
    z: -0.324524283409
  orientation: 
    x: -0.00880009535731
    y: -0.0279337780816
    z: 0.64011785313
    w: -0.767718385301
---
header: 
  seq: 1484
  stamp: 
    secs: 1723801973
    nsecs: 459574660
  frame_id: "map"
pose: 
  position: 
    x: -0.00731237977743
    y: -0.00183835253119
    z: -0.326024770737
  orientation: 
    x: -0.00875106606015
    y: -0.0279590918739
    z: 0.640112352966
    w: -0.767722536766
---
header: 
  seq: 1485
  stamp: 
    secs: 1723801973
    nsecs: 491735594
  frame_id: "map"
pose: 
  position: 
    x: -0.00768543872982
    y: -0.00147313636262
    z: -0.327148109674
  orientation: 
    x: -0.00857153629056
    y: -0.0278129397742
    z: 0.640119059584
    w: -0.767724259518
---
header: 
  seq: 1486
  stamp: 
    secs: 1723801973
    nsecs: 522249746
  frame_id: "map"
pose: 
  position: 
    x: -0.00788280088454
    y: -0.00141935306601
    z: -0.328243583441
  orientation: 
    x: -0.00877731696133
    y: -0.0276015087915
    z: 0.640153646341
    w: -0.767700715235
---
header: 
  seq: 1487
  stamp: 
    secs: 1723801973
    nsecs: 556287843
  frame_id: "map"
pose: 
  position: 
    x: -0.00802332069725
    y: -0.00152284605429
    z: -0.32974845171
  orientation: 
    x: -0.00892613089797
    y: -0.0275787982256
    z: 0.640151765538
    w: -0.76770150022
---
header: 
  seq: 1488
  stamp: 
    secs: 1723801973
    nsecs: 591138818
  frame_id: "map"
pose: 
  position: 
    x: -0.00811634492129
    y: -0.00154065922834
    z: -0.331190675497
  orientation: 
    x: -0.00906607226447
    y: -0.0276145986807
    z: 0.640168113247
    w: -0.767684815336
---
header: 
  seq: 1489
  stamp: 
    secs: 1723801973
    nsecs: 624278175
  frame_id: "map"
pose: 
  position: 
    x: -0.00816268287599
    y: -0.00155388959683
    z: -0.333136200905
  orientation: 
    x: -0.00895095736738
    y: -0.0275508423527
    z: 0.640196957496
    w: -0.76766448475
---
header: 
  seq: 1490
  stamp: 
    secs: 1723801973
    nsecs: 657911161
  frame_id: "map"
pose: 
  position: 
    x: -0.00814311206341
    y: -0.00170488853473
    z: -0.335474133492
  orientation: 
    x: -0.00889980031291
    y: -0.0275965413903
    z: 0.640193554138
    w: -0.767666202234
---
header: 
  seq: 1491
  stamp: 
    secs: 1723801973
    nsecs: 690680258
  frame_id: "map"
pose: 
  position: 
    x: -0.00802420545369
    y: -0.00193356361706
    z: -0.336711913347
  orientation: 
    x: -0.00887097450271
    y: -0.027723353355
    z: 0.640197205109
    w: -0.767659010928
---
header: 
  seq: 1492
  stamp: 
    secs: 1723801973
    nsecs: 723386599
  frame_id: "map"
pose: 
  position: 
    x: -0.00792237743735
    y: -0.00214093667455
    z: -0.337779402733
  orientation: 
    x: -0.00894002289437
    y: -0.0278477669005
    z: 0.640264450406
    w: -0.767597581896
---
header: 
  seq: 1493
  stamp: 
    secs: 1723801973
    nsecs: 756277366
  frame_id: "map"
pose: 
  position: 
    x: -0.00769282504916
    y: -0.00219988520257
    z: -0.339138299227
  orientation: 
    x: -0.00894193135635
    y: -0.0277970550221
    z: 0.640344028924
    w: -0.767533007656
---
header: 
  seq: 1494
  stamp: 
    secs: 1723801973
    nsecs: 790268164
  frame_id: "map"
pose: 
  position: 
    x: -0.00758600560948
    y: -0.00213132752106
    z: -0.339950352907
  orientation: 
    x: -0.00884738017008
    y: -0.0277503352405
    z: 0.640445118141
    w: -0.767451474578
---
header: 
  seq: 1495
  stamp: 
    secs: 1723801973
    nsecs: 822812320
  frame_id: "map"
pose: 
  position: 
    x: -0.00754676805809
    y: -0.00209910003468
    z: -0.340735375881
  orientation: 
    x: -0.00895626326048
    y: -0.0279708455763
    z: 0.640407686471
    w: -0.767473396207
---
header: 
  seq: 1496
  stamp: 
    secs: 1723801973
    nsecs: 856048131
  frame_id: "map"
pose: 
  position: 
    x: -0.00707169855013
    y: -0.00237384787761
    z: -0.341812521219
  orientation: 
    x: -0.00919636990518
    y: -0.0282741698596
    z: 0.640577385488
    w: -0.767317858531
---
header: 
  seq: 1497
  stamp: 
    secs: 1723801973
    nsecs: 891815671
  frame_id: "map"
pose: 
  position: 
    x: -0.00676016695797
    y: -0.00227278261445
    z: -0.342546015978
  orientation: 
    x: -0.00974330758267
    y: -0.0287903732649
    z: 0.640551649568
    w: -0.767313417307
---
header: 
  seq: 1498
  stamp: 
    secs: 1723801973
    nsecs: 924430774
  frame_id: "map"
pose: 
  position: 
    x: -0.00680386275053
    y: -0.00180650688708
    z: -0.343402713537
  orientation: 
    x: -0.010289065807
    y: -0.0289891391196
    z: 0.640028912743
    w: -0.767734833109
---
header: 
  seq: 1499
  stamp: 
    secs: 1723801973
    nsecs: 957708348
  frame_id: "map"
pose: 
  position: 
    x: -0.0069769974798
    y: -0.00134094455279
    z: -0.344419598579
  orientation: 
    x: -0.0103477177565
    y: -0.0286069416191
    z: 0.639875972367
    w: -0.76787580378
---
header: 
  seq: 1500
  stamp: 
    secs: 1723801973
    nsecs: 991524704
  frame_id: "map"
pose: 
  position: 
    x: -0.00698457984254
    y: -0.000928803405259
    z: -0.345021575689
  orientation: 
    x: -0.010848011385
    y: -0.0277686328997
    z: 0.639889643751
    w: -0.76788843203
---
header: 
  seq: 1501
  stamp: 
    secs: 1723801974
    nsecs:  23403157
  frame_id: "map"
pose: 
  position: 
    x: -0.0067534102127
    y: -0.00069911807077
    z: -0.345083832741
  orientation: 
    x: -0.0119087079506
    y: -0.0270634370988
    z: 0.640048616395
    w: -0.7677653685
---
header: 
  seq: 1502
  stamp: 
    secs: 1723801974
    nsecs:  57796246
  frame_id: "map"
pose: 
  position: 
    x: -0.00644795782864
    y: -0.00103506247979
    z: -0.344717383385
  orientation: 
    x: -0.0128360420093
    y: -0.0270333172486
    z: 0.640099303248
    w: -0.767709118263
---
header: 
  seq: 1503
  stamp: 
    secs: 1723801974
    nsecs:  91389899
  frame_id: "map"
pose: 
  position: 
    x: -0.00616682972759
    y: -0.00169966067187
    z: -0.343904167414
  orientation: 
    x: -0.0156723266922
    y: -0.027786408333
    z: 0.640027005598
    w: -0.767689872958
---
header: 
  seq: 1504
  stamp: 
    secs: 1723801974
    nsecs: 123426663
  frame_id: "map"
pose: 
  position: 
    x: -0.00579974101856
    y: -0.00220361212268
    z: -0.3427554667
  orientation: 
    x: -0.0196238594628
    y: -0.0295482681023
    z: 0.63998139744
    w: -0.767571361288
---
header: 
  seq: 1505
  stamp: 
    secs: 1723801974
    nsecs: 157014459
  frame_id: "map"
pose: 
  position: 
    x: -0.00552521552891
    y: -0.00246165622957
    z: -0.341242700815
  orientation: 
    x: -0.0216935594843
    y: -0.0305759873931
    z: 0.640015536387
    w: -0.767446775204
---
header: 
  seq: 1506
  stamp: 
    secs: 1723801974
    nsecs: 189875558
  frame_id: "map"
pose: 
  position: 
    x: -0.00549014983699
    y: -0.00197834754363
    z: -0.340678483248
  orientation: 
    x: -0.0249203916827
    y: -0.0321481744902
    z: 0.640179124111
    w: -0.767148148977
---
header: 
  seq: 1507
  stamp: 
    secs: 1723801974
    nsecs: 222346651
  frame_id: "map"
pose: 
  position: 
    x: -0.00545617286116
    y: -0.000843370333314
    z: -0.340561270714
  orientation: 
    x: -0.0264099620664
    y: -0.0326044292718
    z: 0.640454664402
    w: -0.766849006452
---
header: 
  seq: 1508
  stamp: 
    secs: 1723801974
    nsecs: 259589535
  frame_id: "map"
pose: 
  position: 
    x: -0.00520815700293
    y: 0.00162896164693
    z: -0.340975552797
  orientation: 
    x: -0.0267030822025
    y: -0.0327113090698
    z: 0.640594360131
    w: -0.766717655798
---
header: 
  seq: 1509
  stamp: 
    secs: 1723801974
    nsecs: 292178170
  frame_id: "map"
pose: 
  position: 
    x: -0.00473266234621
    y: 0.004001326859
    z: -0.341047674417
  orientation: 
    x: -0.0266396854398
    y: -0.0331568723814
    z: 0.640964472681
    w: -0.766391207383
---
header: 
  seq: 1510
  stamp: 
    secs: 1723801974
    nsecs: 322958383
  frame_id: "map"
pose: 
  position: 
    x: -0.00408875849098
    y: 0.00596898235381
    z: -0.341055512428
  orientation: 
    x: -0.026155129708
    y: -0.034448698313
    z: 0.641425848964
    w: -0.765964897279
---
header: 
  seq: 1511
  stamp: 
    secs: 1723801974
    nsecs: 359635219
  frame_id: "map"
pose: 
  position: 
    x: -0.00305588357151
    y: 0.00815633125603
    z: -0.340846270323
  orientation: 
    x: -0.0257324880258
    y: -0.0353972641759
    z: 0.641638938161
    w: -0.765757371465
---
header: 
  seq: 1512
  stamp: 
    secs: 1723801974
    nsecs: 392174572
  frame_id: "map"
pose: 
  position: 
    x: -0.00210440391675
    y: 0.00961784645915
    z: -0.340329766273
  orientation: 
    x: -0.0246405359501
    y: -0.0378530197808
    z: 0.642032868949
    w: -0.765345570413
---
header: 
  seq: 1513
  stamp: 
    secs: 1723801974
    nsecs: 424690787
  frame_id: "map"
pose: 
  position: 
    x: -0.00105425727088
    y: 0.0108839543536
    z: -0.339548289776
  orientation: 
    x: -0.023438174607
    y: -0.04112769425
    z: 0.642287140886
    w: -0.765001019927
---
header: 
  seq: 1514
  stamp: 
    secs: 1723801974
    nsecs: 458387069
  frame_id: "map"
pose: 
  position: 
    x: 0.000544929062016
    y: 0.0119116157293
    z: -0.338021248579
  orientation: 
    x: -0.0229966745151
    y: -0.0430951736758
    z: 0.642342574529
    w: -0.764859438126
---
header: 
  seq: 1515
  stamp: 
    secs: 1723801974
    nsecs: 490899348
  frame_id: "map"
pose: 
  position: 
    x: 0.00190995424055
    y: 0.0123600885272
    z: -0.336344659328
  orientation: 
    x: -0.0225452132789
    y: -0.0474019335858
    z: 0.642456323605
    w: -0.76452247934
---
header: 
  seq: 1516
  stamp: 
    secs: 1723801974
    nsecs: 523395563
  frame_id: "map"
pose: 
  position: 
    x: 0.00294064311311
    y: 0.0126039665192
    z: -0.335149228573
  orientation: 
    x: -0.0219988781696
    y: -0.0519645156467
    z: 0.642678743061
    w: -0.764054933813
---
header: 
  seq: 1517
  stamp: 
    secs: 1723801974
    nsecs: 556389469
  frame_id: "map"
pose: 
  position: 
    x: 0.00347467744723
    y: 0.0124799720943
    z: -0.333989441395
  orientation: 
    x: -0.0214501143482
    y: -0.053842338189
    z: 0.642803286998
    w: -0.76383564376
---
header: 
  seq: 1518
  stamp: 
    secs: 1723801974
    nsecs: 592011621
  frame_id: "map"
pose: 
  position: 
    x: 0.00396853499115
    y: 0.0123224118724
    z: -0.333548992872
  orientation: 
    x: -0.0199897602916
    y: -0.0571416593449
    z: 0.643150587567
    w: -0.763343105152
---
header: 
  seq: 1519
  stamp: 
    secs: 1723801974
    nsecs: 622349856
  frame_id: "map"
pose: 
  position: 
    x: 0.00458025885746
    y: 0.0125992717221
    z: -0.333404481411
  orientation: 
    x: -0.0193126566823
    y: -0.0595305097913
    z: 0.643610267438
    w: -0.762790280745
---
header: 
  seq: 1520
  stamp: 
    secs: 1723801974
    nsecs: 659637287
  frame_id: "map"
pose: 
  position: 
    x: 0.00596457906067
    y: 0.0132211446762
    z: -0.332391679287
  orientation: 
    x: -0.0195433118962
    y: -0.0606001164641
    z: 0.644011547583
    w: -0.762361352268
---
header: 
  seq: 1521
  stamp: 
    secs: 1723801974
    nsecs: 692012886
  frame_id: "map"
pose: 
  position: 
    x: 0.00739655364305
    y: 0.0134095801041
    z: -0.332168579102
  orientation: 
    x: -0.0214069006576
    y: -0.0623024619197
    z: 0.645279993867
    w: -0.761100492416
---
header: 
  seq: 1522
  stamp: 
    secs: 1723801974
    nsecs: 724378981
  frame_id: "map"
pose: 
  position: 
    x: 0.00903768930584
    y: 0.0135237015784
    z: -0.332164943218
  orientation: 
    x: -0.0243554467642
    y: -0.0631748806105
    z: 0.646831234969
    w: -0.759621743894
---
header: 
  seq: 1523
  stamp: 
    secs: 1723801974
    nsecs: 758556635
  frame_id: "map"
pose: 
  position: 
    x: 0.0113644022495
    y: 0.0140891009942
    z: -0.332046836615
  orientation: 
    x: -0.0262177158024
    y: -0.063172978734
    z: 0.647644663877
    w: -0.758866477637
---
header: 
  seq: 1524
  stamp: 
    secs: 1723801974
    nsecs: 790825156
  frame_id: "map"
pose: 
  position: 
    x: 0.0126055628061
    y: 0.0147683853284
    z: -0.33219692111
  orientation: 
    x: -0.0305657993803
    y: -0.0622174635801
    z: 0.649475227948
    w: -0.757216386371
---
header: 
  seq: 1525
  stamp: 
    secs: 1723801974
    nsecs: 823380606
  frame_id: "map"
pose: 
  position: 
    x: 0.0134151428938
    y: 0.015740506351
    z: -0.332335233688
  orientation: 
    x: -0.0350656168811
    y: -0.059864764593
    z: 0.651695444902
    w: -0.755301059719
---
header: 
  seq: 1526
  stamp: 
    secs: 1723801974
    nsecs: 856556890
  frame_id: "map"
pose: 
  position: 
    x: 0.0137967141345
    y: 0.0167264994234
    z: -0.332470327616
  orientation: 
    x: -0.0371997785318
    y: -0.0583951744497
    z: 0.652840432531
    w: -0.754324659485
---
header: 
  seq: 1527
  stamp: 
    secs: 1723801974
    nsecs: 889919490
  frame_id: "map"
pose: 
  position: 
    x: 0.0133967632428
    y: 0.0168396010995
    z: -0.332052558661
  orientation: 
    x: -0.041228834174
    y: -0.0556641679846
    z: 0.654926690995
    w: -0.752511006837
---
header: 
  seq: 1528
  stamp: 
    secs: 1723801974
    nsecs: 922872146
  frame_id: "map"
pose: 
  position: 
    x: 0.0130011932924
    y: 0.0165264513344
    z: -0.331155210733
  orientation: 
    x: -0.0455620142312
    y: -0.0535879516652
    z: 0.656568663725
    w: -0.75097945885
---
header: 
  seq: 1529
  stamp: 
    secs: 1723801974
    nsecs: 959239652
  frame_id: "map"
pose: 
  position: 
    x: 0.0129677895457
    y: 0.0166990458965
    z: -0.329652816057
  orientation: 
    x: -0.0478345131985
    y: -0.0525134663301
    z: 0.657196056443
    w: -0.750364963067
---
header: 
  seq: 1530
  stamp: 
    secs: 1723801974
    nsecs: 991908676
  frame_id: "map"
pose: 
  position: 
    x: 0.0126913422719
    y: 0.0170720070601
    z: -0.328376591206
  orientation: 
    x: -0.0519298389978
    y: -0.0503901178157
    z: 0.658246888012
    w: -0.749316491722
---
header: 
  seq: 1531
  stamp: 
    secs: 1723801975
    nsecs:  24896885
  frame_id: "map"
pose: 
  position: 
    x: 0.011709057726
    y: 0.0174251496792
    z: -0.327069342136
  orientation: 
    x: -0.0546924503309
    y: -0.0491043742012
    z: 0.658916717339
    w: -0.748616316664
---
header: 
  seq: 1532
  stamp: 
    secs: 1723801975
    nsecs:  57390344
  frame_id: "map"
pose: 
  position: 
    x: 0.0106418402866
    y: 0.0177198108286
    z: -0.325645744801
  orientation: 
    x: -0.0554321564983
    y: -0.0488958763758
    z: 0.659252116691
    w: -0.748280158669
---
header: 
  seq: 1533
  stamp: 
    secs: 1723801975
    nsecs:  91257545
  frame_id: "map"
pose: 
  position: 
    x: 0.009407537058
    y: 0.0181015897542
    z: -0.323250770569
  orientation: 
    x: -0.0562625458907
    y: -0.049119895766
    z: 0.660282119814
    w: -0.747294746912
---
header: 
  seq: 1534
  stamp: 
    secs: 1723801975
    nsecs: 123852674
  frame_id: "map"
pose: 
  position: 
    x: 0.00837916135788
    y: 0.0180616118014
    z: -0.32093578577
  orientation: 
    x: -0.0560985808206
    y: -0.050107262742
    z: 0.66174074585
    w: -0.745950085954
---
header: 
  seq: 1535
  stamp: 
    secs: 1723801975
    nsecs: 156386487
  frame_id: "map"
pose: 
  position: 
    x: 0.00755101349205
    y: 0.0180047526956
    z: -0.318068087101
  orientation: 
    x: -0.0555640295421
    y: -0.050510210486
    z: 0.662686660742
    w: -0.745122772294
---
header: 
  seq: 1536
  stamp: 
    secs: 1723801975
    nsecs: 189973576
  frame_id: "map"
pose: 
  position: 
    x: 0.00657474249601
    y: 0.0177879277617
    z: -0.313210129738
  orientation: 
    x: -0.0536170825462
    y: -0.0504186724702
    z: 0.66428127095
    w: -0.743850501183
---
header: 
  seq: 1537
  stamp: 
    secs: 1723801975
    nsecs: 222894036
  frame_id: "map"
pose: 
  position: 
    x: 0.00594549160451
    y: 0.0178003907204
    z: -0.30885258317
  orientation: 
    x: -0.0493319302635
    y: -0.0482468221939
    z: 0.665292460774
    w: -0.743387304684
---
header: 
  seq: 1538
  stamp: 
    secs: 1723801975
    nsecs: 260122868
  frame_id: "map"
pose: 
  position: 
    x: 0.00530401989818
    y: 0.018280223012
    z: -0.300951957703
  orientation: 
    x: -0.0462703326135
    y: -0.046530200018
    z: 0.665370666885
    w: -0.743623514062
---
header: 
  seq: 1539
  stamp: 
    secs: 1723801975
    nsecs: 291920319
  frame_id: "map"
pose: 
  position: 
    x: 0.00524456193671
    y: 0.0191503576934
    z: -0.293813914061
  orientation: 
    x: -0.0382166520884
    y: -0.0420587327862
    z: 0.664886041348
    w: -0.744779960365
---
header: 
  seq: 1540
  stamp: 
    secs: 1723801975
    nsecs: 325052823
  frame_id: "map"
pose: 
  position: 
    x: 0.00567600922659
    y: 0.0204957593232
    z: -0.285983264446
  orientation: 
    x: -0.0293540919735
    y: -0.0375620853539
    z: 0.663832620382
    w: -0.746360385524
---
header: 
  seq: 1541
  stamp: 
    secs: 1723801975
    nsecs: 356518256
  frame_id: "map"
pose: 
  position: 
    x: 0.00678175175563
    y: 0.0221726484597
    z: -0.277820646763
  orientation: 
    x: -0.0225484269761
    y: -0.0345420081428
    z: 0.662558255099
    w: -0.747873639144
---
header: 
  seq: 1542
  stamp: 
    secs: 1723801975
    nsecs: 389965465
  frame_id: "map"
pose: 
  position: 
    x: 0.00897282548249
    y: 0.0241184625775
    z: -0.266947895288
  orientation: 
    x: -0.0114891209271
    y: -0.0308379079953
    z: 0.659779468596
    w: -0.750738320925
---
header: 
  seq: 1543
  stamp: 
    secs: 1723801975
    nsecs: 422924775
  frame_id: "map"
pose: 
  position: 
    x: 0.010833742097
    y: 0.0244291760027
    z: -0.258650273085
  orientation: 
    x: -0.00245343390627
    y: -0.0293665252939
    z: 0.656245818865
    w: -0.75397154792
---
header: 
  seq: 1544
  stamp: 
    secs: 1723801975
    nsecs: 459273620
  frame_id: "map"
pose: 
  position: 
    x: 0.0126042123884
    y: 0.023725066334
    z: -0.250581294298
  orientation: 
    x: 0.00117625005331
    y: -0.0294036724725
    z: 0.654608403264
    w: -0.755395278999
---
header: 
  seq: 1545
  stamp: 
    secs: 1723801975
    nsecs: 491869837
  frame_id: "map"
pose: 
  position: 
    x: 0.0160726159811
    y: 0.0237330421805
    z: -0.239539027214
  orientation: 
    x: 0.00587121404825
    y: -0.028930811174
    z: 0.651556391912
    w: -0.758025568984
---
header: 
  seq: 1546
  stamp: 
    secs: 1723801975
    nsecs: 524908224
  frame_id: "map"
pose: 
  position: 
    x: 0.0195662695915
    y: 0.0252629891038
    z: -0.231161355972
  orientation: 
    x: 0.00839746453786
    y: -0.0263789512055
    z: 0.648758947526
    w: -0.760490390442
---
header: 
  seq: 1547
  stamp: 
    secs: 1723801975
    nsecs: 557407635
  frame_id: "map"
pose: 
  position: 
    x: 0.0235351677984
    y: 0.027775561437
    z: -0.223171710968
  orientation: 
    x: 0.0093553557203
    y: -0.0228367812256
    z: 0.646049574248
    w: -0.762896390705
---
header: 
  seq: 1548
  stamp: 
    secs: 1723801975
    nsecs: 591739246
  frame_id: "map"
pose: 
  position: 
    x: 0.0303799919784
    y: 0.031690068543
    z: -0.213170826435
  orientation: 
    x: 0.0107995632534
    y: -0.016809385774
    z: 0.641073011353
    w: -0.767219846035
---
header: 
  seq: 1549
  stamp: 
    secs: 1723801975
    nsecs: 623896783
  frame_id: "map"
pose: 
  position: 
    x: 0.0372270941734
    y: 0.0344361774623
    z: -0.206185549498
  orientation: 
    x: 0.0127811083667
    y: -0.00967508023138
    z: 0.63328702383
    w: -0.773751037584
---
header: 
  seq: 1550
  stamp: 
    secs: 1723801975
    nsecs: 656451653
  frame_id: "map"
pose: 
  position: 
    x: 0.0452292822301
    y: 0.0369003675878
    z: -0.200163796544
  orientation: 
    x: 0.0136214057259
    y: -0.0080000790254
    z: 0.63049257187
    w: -0.776034585447
---
header: 
  seq: 1551
  stamp: 
    secs: 1723801975
    nsecs: 690437325
  frame_id: "map"
pose: 
  position: 
    x: 0.0576834082603
    y: 0.039770629257
    z: -0.19283400476
  orientation: 
    x: 0.0177802723445
    y: -0.00498496065447
    z: 0.62130005445
    w: -0.783355108443
---
header: 
  seq: 1552
  stamp: 
    secs: 1723801975
    nsecs: 722911775
  frame_id: "map"
pose: 
  position: 
    x: 0.0685170888901
    y: 0.0420333184302
    z: -0.188228443265
  orientation: 
    x: 0.023846968086
    y: -0.00407349356712
    z: 0.611611473892
    w: -0.790788326844
---
header: 
  seq: 1553
  stamp: 
    secs: 1723801975
    nsecs: 759382708
  frame_id: "map"
pose: 
  position: 
    x: 0.0805023610592
    y: 0.0447414629161
    z: -0.184334740043
  orientation: 
    x: 0.0275809622029
    y: -0.00423476650732
    z: 0.606072081982
    w: -0.794920098307
---
header: 
  seq: 1554
  stamp: 
    secs: 1723801975
    nsecs: 791967660
  frame_id: "map"
pose: 
  position: 
    x: 0.0993065387011
    y: 0.0498583912849
    z: -0.179431036115
  orientation: 
    x: 0.0349816735298
    y: -0.00545539587502
    z: 0.595148767349
    w: -0.802835308068
---
header: 
  seq: 1555
  stamp: 
    secs: 1723801975
    nsecs: 824909817
  frame_id: "map"
pose: 
  position: 
    x: 0.11555390805
    y: 0.0549801029265
    z: -0.175543770194
  orientation: 
    x: 0.044654107894
    y: -0.00839625676723
    z: 0.580800673564
    w: -0.812776864548
---
header: 
  seq: 1556
  stamp: 
    secs: 1723801975
    nsecs: 857713950
  frame_id: "map"
pose: 
  position: 
    x: 0.132956579328
    y: 0.0607553124428
    z: -0.171754136682
  orientation: 
    x: 0.0499741886777
    y: -0.0100621689065
    z: 0.572812412778
    w: -0.818099842927
---
header: 
  seq: 1557
  stamp: 
    secs: 1723801975
    nsecs: 890983773
  frame_id: "map"
pose: 
  position: 
    x: 0.158859744668
    y: 0.069135479629
    z: -0.166462942958
  orientation: 
    x: 0.0614414860984
    y: -0.0131599688575
    z: 0.555472851589
    w: -0.829157332052
---
header: 
  seq: 1558
  stamp: 
    secs: 1723801975
    nsecs: 924000590
  frame_id: "map"
pose: 
  position: 
    x: 0.180344089866
    y: 0.0759592205286
    z: -0.162544772029
  orientation: 
    x: 0.0743703084678
    y: -0.0164211260421
    z: 0.534559954143
    w: -0.841691773189
---
header: 
  seq: 1559
  stamp: 
    secs: 1723801975
    nsecs: 956733455
  frame_id: "map"
pose: 
  position: 
    x: 0.203065797687
    y: 0.0836453214288
    z: -0.158355370164
  orientation: 
    x: 0.0785634167666
    y: -0.0172328822469
    z: 0.527283300748
    w: -0.845874257848
---
header: 
  seq: 1560
  stamp: 
    secs: 1723801975
    nsecs: 989935338
  frame_id: "map"
pose: 
  position: 
    x: 0.227720394731
    y: 0.092228487134
    z: -0.15433087945
  orientation: 
    x: 0.0908887436805
    y: -0.0178418963054
    z: 0.504152783647
    w: -0.858633194173
---
header: 
  seq: 1561
  stamp: 
    secs: 1723801976
    nsecs:  22898422
  frame_id: "map"
pose: 
  position: 
    x: 0.264187842607
    y: 0.105171367526
    z: -0.149011746049
  orientation: 
    x: 0.0998201034219
    y: -0.0167138148316
    z: 0.4849973571
    w: -0.868639298552
---
header: 
  seq: 1562
  stamp: 
    secs: 1723801976
    nsecs:  59378088
  frame_id: "map"
pose: 
  position: 
    x: 0.292823165655
    y: 0.116435773671
    z: -0.145296722651
  orientation: 
    x: 0.105645648726
    y: -0.0152308700642
    z: 0.470710355172
    w: -0.875807529179
---
header: 
  seq: 1563
  stamp: 
    secs: 1723801976
    nsecs:  91945693
  frame_id: "map"
pose: 
  position: 
    x: 0.333767205477
    y: 0.133760377765
    z: -0.140729308128
  orientation: 
    x: 0.112791868162
    y: -0.0123353394246
    z: 0.450189096778
    w: -0.885695053399
---
header: 
  seq: 1564
  stamp: 
    secs: 1723801976
    nsecs: 125040239
  frame_id: "map"
pose: 
  position: 
    x: 0.366218477488
    y: 0.148597598076
    z: -0.137486413121
  orientation: 
    x: 0.119399319165
    y: -0.00782280806348
    z: 0.426146195238
    w: -0.896706233674
---
header: 
  seq: 1565
  stamp: 
    secs: 1723801976
    nsecs: 157507134
  frame_id: "map"
pose: 
  position: 
    x: 0.399233430624
    y: 0.164976999164
    z: -0.13463370502
  orientation: 
    x: 0.122033686857
    y: -0.00508386350286
    z: 0.413797126477
    w: -0.902138498832
---
header: 
  seq: 1566
  stamp: 
    secs: 1723801976
    nsecs: 190999559
  frame_id: "map"
pose: 
  position: 
    x: 0.432721227407
    y: 0.18283200264
    z: -0.132403612137
  orientation: 
    x: 0.125715672422
    y: 0.00124200440534
    z: 0.388650862589
    w: -0.912767533631
---
header: 
  seq: 1567
  stamp: 
    secs: 1723801976
    nsecs: 224990636
  frame_id: "map"
pose: 
  position: 
    x: 0.48051148653
    y: 0.208358824253
    z: -0.128614872694
  orientation: 
    x: 0.127117998171
    y: 0.00757394145973
    z: 0.363021342936
    w: -0.923038067337
---
header: 
  seq: 1568
  stamp: 
    secs: 1723801976
    nsecs: 257631589
  frame_id: "map"
pose: 
  position: 
    x: 0.516157746315
    y: 0.228943362832
    z: -0.126200795174
  orientation: 
    x: 0.127007936944
    y: 0.010443146124
    z: 0.349866890048
    w: -0.928091053005
---
header: 
  seq: 1569
  stamp: 
    secs: 1723801976
    nsecs: 291011175
  frame_id: "map"
pose: 
  position: 
    x: 0.552178740501
    y: 0.250475138426
    z: -0.123798809946
  orientation: 
    x: 0.125517271401
    y: 0.0157685848258
    z: 0.32195562431
    w: -0.938265070428
---
header: 
  seq: 1570
  stamp: 
    secs: 1723801976
    nsecs: 324367080
  frame_id: "map"
pose: 
  position: 
    x: 0.60153990984
    y: 0.28062698245
    z: -0.120853811502
  orientation: 
    x: 0.122605103293
    y: 0.0201591379391
    z: 0.292400104645
    w: -0.948189768169
---
header: 
  seq: 1571
  stamp: 
    secs: 1723801976
    nsecs: 357142249
  frame_id: "map"
pose: 
  position: 
    x: 0.637764275074
    y: 0.304006814957
    z: -0.119190312922
  orientation: 
    x: 0.120686747336
    y: 0.02175627169
    z: 0.277262790048
    w: -0.952935945853
---
header: 
  seq: 1572
  stamp: 
    secs: 1723801976
    nsecs: 389978892
  frame_id: "map"
pose: 
  position: 
    x: 0.673897087574
    y: 0.327578186989
    z: -0.118024468422
  orientation: 
    x: 0.116540155987
    y: 0.0241458136081
    z: 0.245720510091
    w: -0.962006622002
---
header: 
  seq: 1573
  stamp: 
    secs: 1723801976
    nsecs: 422952216
  frame_id: "map"
pose: 
  position: 
    x: 0.722832560539
    y: 0.359136044979
    z: -0.11768848449
  orientation: 
    x: 0.111894480097
    y: 0.0260659476351
    z: 0.211528247034
    w: -0.970595770407
---
header: 
  seq: 1574
  stamp: 
    secs: 1723801976
    nsecs: 459391912
  frame_id: "map"
pose: 
  position: 
    x: 0.758856296539
    y: 0.382806926966
    z: -0.117421373725
  orientation: 
    x: 0.109189993219
    y: 0.0264271329559
    z: 0.193505706701
    w: -0.974646040402
---
header: 
  seq: 1575
  stamp: 
    secs: 1723801976
    nsecs: 493320169
  frame_id: "map"
pose: 
  position: 
    x: 0.807157993317
    y: 0.415815651417
    z: -0.117625206709
  orientation: 
    x: 0.103208636285
    y: 0.0252189751041
    z: 0.156374080282
    w: -0.981967032282
---
header: 
  seq: 1576
  stamp: 
    secs: 1723801976
    nsecs: 524491407
  frame_id: "map"
pose: 
  position: 
    x: 0.843610525131
    y: 0.441697567701
    z: -0.118788473308
  orientation: 
    x: 0.0977480537136
    y: 0.0226058336179
    z: 0.117960135997
    w: -0.98793717552
---
header: 
  seq: 1577
  stamp: 
    secs: 1723801976
    nsecs: 557670022
  frame_id: "map"
pose: 
  position: 
    x: 0.879500567913
    y: 0.468090981245
    z: -0.120710432529
  orientation: 
    x: 0.0954753771039
    y: 0.0214277896894
    z: 0.0984429841228
    w: -0.990320369069
---
header: 
  seq: 1578
  stamp: 
    secs: 1723801976
    nsecs: 591543812
  frame_id: "map"
pose: 
  position: 
    x: 0.915114343166
    y: 0.495701402426
    z: -0.123463444412
  orientation: 
    x: 0.0916957056814
    y: 0.0199736654638
    z: 0.05890161164
    w: -0.993842876227
---
header: 
  seq: 1579
  stamp: 
    secs: 1723801976
    nsecs: 626048743
  frame_id: "map"
pose: 
  position: 
    x: 0.962430417538
    y: 0.535070598125
    z: -0.128682389855
  orientation: 
    x: 0.0891765595699
    y: 0.0193063307038
    z: 0.019031156564
    w: -0.995646887784
---
header: 
  seq: 1580
  stamp: 
    secs: 1723801976
    nsecs: 657797069
  frame_id: "map"
pose: 
  position: 
    x: 0.997048676014
    y: 0.565622329712
    z: -0.133332133293
  orientation: 
    x: 0.0883573143969
    y: 0.0192048147508
    z: -0.00103698106076
    w: -0.995903224917
---
header: 
  seq: 1581
  stamp: 
    secs: 1723801976
    nsecs: 691055784
  frame_id: "map"
pose: 
  position: 
    x: 1.03140723705
    y: 0.597795307636
    z: -0.138530522585
  orientation: 
    x: 0.0872694726267
    y: 0.0196047883431
    z: -0.0412059622647
    w: -0.995139102553
---
header: 
  seq: 1582
  stamp: 
    secs: 1723801976
    nsecs: 723983121
  frame_id: "map"
pose: 
  position: 
    x: 1.07719266415
    y: 0.644130468369
    z: -0.145972505212
  orientation: 
    x: 0.0863612159438
    y: 0.0210317884375
    z: -0.0810731298865
    w: -0.992736942922
---
header: 
  seq: 1583
  stamp: 
    secs: 1723801976
    nsecs: 756639755
  frame_id: "map"
pose: 
  position: 
    x: 1.11074781418
    y: 0.680174171925
    z: -0.151697024703
  orientation: 
    x: 0.0857170645846
    y: 0.0221002637308
    z: -0.100921893165
    w: -0.990948441406
---
header: 
  seq: 1584
  stamp: 
    secs: 1723801976
    nsecs: 790275356
  frame_id: "map"
pose: 
  position: 
    x: 1.14347934723
    y: 0.717868208885
    z: -0.157442778349
  orientation: 
    x: 0.0834290175461
    y: 0.0247551780122
    z: -0.140232174477
    w: -0.986286831373
---
header: 
  seq: 1585
  stamp: 
    secs: 1723801976
    nsecs: 823507638
  frame_id: "map"
pose: 
  position: 
    x: 1.18576490879
    y: 0.771001696587
    z: -0.164820581675
  orientation: 
    x: 0.0791325809798
    y: 0.0280563905079
    z: -0.179756856808
    w: -0.980121716814
---
header: 
  seq: 1586
  stamp: 
    secs: 1723801976
    nsecs: 859454218
  frame_id: "map"
pose: 
  position: 
    x: 1.21637833118
    y: 0.81166946888
    z: -0.170095920563
  orientation: 
    x: 0.0759094797653
    y: 0.0298582999906
    z: -0.199394590816
    w: -0.976518329853
---
header: 
  seq: 1587
  stamp: 
    secs: 1723801976
    nsecs: 890025741
  frame_id: "map"
pose: 
  position: 
    x: 1.24557864666
    y: 0.853879094124
    z: -0.174691572785
  orientation: 
    x: 0.0673969727702
    y: 0.0323983562073
    z: -0.238161978573
    w: -0.968342304857
---
header: 
  seq: 1588
  stamp: 
    secs: 1723801976
    nsecs: 923646558
  frame_id: "map"
pose: 
  position: 
    x: 1.28158044815
    y: 0.912882745266
    z: -0.178217798471
  orientation: 
    x: 0.0575805476494
    y: 0.0299405759073
    z: -0.275627281591
    w: -0.959071304737
---
header: 
  seq: 1589
  stamp: 
    secs: 1723801976
    nsecs: 959425288
  frame_id: "map"
pose: 
  position: 
    x: 1.30643212795
    y: 0.957642912865
    z: -0.179590821266
  orientation: 
    x: 0.0522620513237
    y: 0.0272082971342
    z: -0.294100919643
    w: -0.953956531789
---
header: 
  seq: 1590
  stamp: 
    secs: 1723801976
    nsecs: 990230553
  frame_id: "map"
pose: 
  position: 
    x: 1.32855439186
    y: 1.00300621986
    z: -0.181107878685
  orientation: 
    x: 0.0403063437102
    y: 0.0225304981018
    z: -0.33080850662
    w: -0.942567483944
---
header: 
  seq: 1591
  stamp: 
    secs: 1723801977
    nsecs:  24067507
  frame_id: "map"
pose: 
  position: 
    x: 1.35279452801
    y: 1.06436192989
    z: -0.183055713773
  orientation: 
    x: 0.0280617546822
    y: 0.0197906865674
    z: -0.366884691658
    w: -0.929632447549
---
header: 
  seq: 1592
  stamp: 
    secs: 1723801977
    nsecs:  57555033
  frame_id: "map"
pose: 
  position: 
    x: 1.36846160889
    y: 1.10959804058
    z: -0.183510258794
  orientation: 
    x: 0.0226578273532
    y: 0.018036448463
    z: -0.384581352558
    w: -0.922636702899
---
header: 
  seq: 1593
  stamp: 
    secs: 1723801977
    nsecs:  92093210
  frame_id: "map"
pose: 
  position: 
    x: 1.38253951073
    y: 1.15432298183
    z: -0.182721436024
  orientation: 
    x: 0.0142724879368
    y: 0.013191805204
    z: -0.41814733452
    w: -0.908171335507
---
header: 
  seq: 1594
  stamp: 
    secs: 1723801977
    nsecs: 125084740
  frame_id: "map"
pose: 
  position: 
    x: 1.39987146854
    y: 1.2148052454
    z: -0.18255725503
  orientation: 
    x: 0.00910608446153
    y: 0.00975987489555
    z: -0.448452836281
    w: -0.893706895347
---
header: 
  seq: 1595
  stamp: 
    secs: 1723801977
    nsecs: 157594994
  frame_id: "map"
pose: 
  position: 
    x: 1.41223168373
    y: 1.25988233089
    z: -0.183357283473
  orientation: 
    x: 0.00740605920222
    y: 0.00927411981006
    z: -0.461930049735
    w: -0.886837043333
---
header: 
  seq: 1596
  stamp: 
    secs: 1723801977
    nsecs: 191313413
  frame_id: "map"
pose: 
  position: 
    x: 1.42432928085
    y: 1.30499720573
    z: -0.184732660651
  orientation: 
    x: 0.0054854246814
    y: 0.0102948440411
    z: -0.486298050992
    w: -0.873715254252
---
header: 
  seq: 1597
  stamp: 
    secs: 1723801977
    nsecs: 224485593
  frame_id: "map"
pose: 
  position: 
    x: 1.43783068657
    y: 1.3665715456
    z: -0.186507955194
  orientation: 
    x: 0.00484993137147
    y: 0.012379614689
    z: -0.507303218426
    w: -0.861665112015
---
header: 
  seq: 1598
  stamp: 
    secs: 1723801977
    nsecs: 256657524
  frame_id: "map"
pose: 
  position: 
    x: 1.44733536243
    y: 1.41367161274
    z: -0.188017323613
  orientation: 
    x: 0.00483610391243
    y: 0.0134357021016
    z: -0.516622371321
    w: -0.856094246945
---
header: 
  seq: 1599
  stamp: 
    secs: 1723801977
    nsecs: 290057077
  frame_id: "map"
pose: 
  position: 
    x: 1.45494747162
    y: 1.46126031876
    z: -0.189029142261
  orientation: 
    x: 0.00485210950743
    y: 0.0157372199973
    z: -0.533048346885
    w: -0.845924465281
---
header: 
  seq: 1600
  stamp: 
    secs: 1723801977
    nsecs: 323060415
  frame_id: "map"
pose: 
  position: 
    x: 1.46123707294
    y: 1.50916600227
    z: -0.189494878054
  orientation: 
    x: 0.00436793013373
    y: 0.0187498638872
    z: -0.546761551081
    w: -0.837067083795
---
header: 
  seq: 1601
  stamp: 
    secs: 1723801977
    nsecs: 359707191
  frame_id: "map"
pose: 
  position: 
    x: 1.46858966351
    y: 1.57295084
    z: -0.188961535692
  orientation: 
    x: 0.00412302138248
    y: 0.0204016923937
