header: 
  seq: 0
  stamp: 
    secs: 1723687235
    nsecs: 757528896
  frame_id: "map"
pose: 
  position: 
    x: 4.8129658699
    y: -2.66200089455
    z: 0.505462229252
  orientation: 
    x: -0.0850479201442
    y: 0.0201449133777
    z: -0.980178025003
    w: 0.177798208464
---
header: 
  seq: 1
  stamp: 
    secs: 1723687235
    nsecs: 797530432
  frame_id: "map"
pose: 
  position: 
    x: 4.78395938873
    y: -2.66744661331
    z: 0.50659942627
  orientation: 
    x: -0.082604029865
    y: 0.0119945083974
    z: -0.979732490668
    w: 0.182090317076
---
header: 
  seq: 2
  stamp: 
    secs: 1723687235
    nsecs: 827530432
  frame_id: "map"
pose: 
  position: 
    x: 4.76201915741
    y: -2.67123770714
    z: 0.509311795235
  orientation: 
    x: -0.0787058046259
    y: 0.00625785869978
    z: -0.979467091962
    w: 0.185500460736
---
header: 
  seq: 3
  stamp: 
    secs: 1723687235
    nsecs: 857530432
  frame_id: "map"
pose: 
  position: 
    x: 4.74029541016
    y: -2.67476129532
    z: 0.511259198189
  orientation: 
    x: -0.0754557373309
    y: 0.00297582828849
    z: -0.979357510156
    w: 0.187501003047
---
header: 
  seq: 4
  stamp: 
    secs: 1723687235
    nsecs: 897529920
  frame_id: "map"
pose: 
  position: 
    x: 4.71159267426
    y: -2.67925667763
    z: 0.511656820774
  orientation: 
    x: -0.0715197274422
    y: -0.000765637015871
    z: -0.97927346934
    w: 0.189494127513
---
header: 
  seq: 5
  stamp: 
    secs: 1723687235
    nsecs: 927529920
  frame_id: "map"
pose: 
  position: 
    x: 4.69029569626
    y: -2.68259763718
    z: 0.510518848896
  orientation: 
    x: -0.0678829338361
    y: -0.00448927420332
    z: -0.979388951705
    w: 0.190181542612
---
header: 
  seq: 6
  stamp: 
    secs: 1723687235
    nsecs: 957529920
  frame_id: "map"
pose: 
  position: 
    x: 4.6691069603
    y: -2.68597245216
    z: 0.508476257324
  orientation: 
    x: -0.0666706166172
    y: -0.00574324831364
    z: -0.979571911175
    w: 0.189633844316
---
header: 
  seq: 7
  stamp: 
    secs: 1723687235
    nsecs: 997529920
  frame_id: "map"
pose: 
  position: 
    x: 4.64083719254
    y: -2.69099545479
    z: 0.503982722759
  orientation: 
    x: -0.0650584917591
    y: -0.00751811269052
    z: -0.980193240015
    w: 0.186901126952
---
header: 
  seq: 8
  stamp: 
    secs: 1723687236
    nsecs:  27529920
  frame_id: "map"
pose: 
  position: 
    x: 4.61931085587
    y: -2.69512796402
    z: 0.499729394913
  orientation: 
    x: -0.0647525398832
    y: -0.00802914059454
    z: -0.98119165671
    w: 0.181674454122
---
header: 
  seq: 9
  stamp: 
    secs: 1723687236
    nsecs:  58529920
  frame_id: "map"
pose: 
  position: 
    x: 4.59716558456
    y: -2.69931983948
    z: 0.495920240879
  orientation: 
    x: -0.0651698252936
    y: -0.00776900497718
    z: -0.981812016173
    w: 0.178150935439
---
header: 
  seq: 10
  stamp: 
    secs: 1723687236
    nsecs:  98529664
  frame_id: "map"
pose: 
  position: 
    x: 4.56674623489
    y: -2.70528745651
    z: 0.492162138224
  orientation: 
    x: -0.0662606621242
    y: -0.00666846910304
    z: -0.983047256009
    w: 0.170830955084
---
header: 
  seq: 11
  stamp: 
    secs: 1723687236
    nsecs: 128529664
  frame_id: "map"
pose: 
  position: 
    x: 4.54374837875
    y: -2.70997428894
    z: 0.490923851728
  orientation: 
    x: -0.0670480363772
    y: -0.00449239833846
    z: -0.984624643962
    w: 0.161241788404
---
header: 
  seq: 12
  stamp: 
    secs: 1723687236
    nsecs: 158529664
  frame_id: "map"
pose: 
  position: 
    x: 4.52069759369
    y: -2.71450591087
    z: 0.490899950266
  orientation: 
    x: -0.0676009450778
    y: -0.0026240970326
    z: -0.985622892069
    w: 0.154824972865
---
header: 
  seq: 13
  stamp: 
    secs: 1723687236
    nsecs: 198530176
  frame_id: "map"
pose: 
  position: 
    x: 4.49009799957
    y: -2.71951055527
    z: 0.492358207703
  orientation: 
    x: -0.0686032313797
    y: 0.000424982478604
    z: -0.987015128915
    w: 0.145239304374
---
header: 
  seq: 14
  stamp: 
    secs: 1723687236
    nsecs: 228530176
  frame_id: "map"
pose: 
  position: 
    x: 4.46780252457
    y: -2.7224650383
    z: 0.494918763638
  orientation: 
    x: -0.0685353196358
    y: 0.0041799216036
    z: -0.988733498076
    w: 0.133009342607
---
header: 
  seq: 15
  stamp: 
    secs: 1723687236
    nsecs: 258530176
  frame_id: "map"
pose: 
  position: 
    x: 4.44635009766
    y: -2.72498464584
    z: 0.498610287905
  orientation: 
    x: -0.0683263134141
    y: 0.0060743223454
    z: -0.989608298064
    w: 0.126372731253
---
header: 
  seq: 16
  stamp: 
    secs: 1723687236
    nsecs: 298529920
  frame_id: "map"
pose: 
  position: 
    x: 4.4176607132
    y: -2.72688746452
    z: 0.504484891891
  orientation: 
    x: -0.069777129112
    y: 0.0094194228813
    z: -0.991105607004
    w: 0.112925273474
---
header: 
  seq: 17
  stamp: 
    secs: 1723687236
    nsecs: 328529920
  frame_id: "map"
pose: 
  position: 
    x: 4.39629077911
    y: -2.72702503204
    z: 0.508993387222
  orientation: 
    x: -0.0739004132537
    y: 0.0122971517457
    z: -0.992224816566
    w: 0.0993857248303
---
header: 
  seq: 18
  stamp: 
    secs: 1723687236
    nsecs: 358529920
  frame_id: "map"
pose: 
  position: 
    x: 4.37580680847
    y: -2.72627234459
    z: 0.513189077377
  orientation: 
    x: -0.0751037136812
    y: 0.0130531529383
    z: -0.992512468807
    w: 0.0954371973275
---
header: 
  seq: 19
  stamp: 
    secs: 1723687236
    nsecs: 398529664
  frame_id: "map"
pose: 
  position: 
    x: 4.34902906418
    y: -2.72424173355
    z: 0.518191337585
  orientation: 
    x: -0.0766428085876
    y: 0.0149066896763
    z: -0.993339474269
    w: 0.0847375454835
---
header: 
  seq: 20
  stamp: 
    secs: 1723687236
    nsecs: 428529664
  frame_id: "map"
pose: 
  position: 
    x: 4.328810215
    y: -2.72207427025
    z: 0.520577907562
  orientation: 
    x: -0.076775979458
    y: 0.0158643951492
    z: -0.994012517293
    w: 0.0761106335023
---
header: 
  seq: 21
  stamp: 
    secs: 1723687236
    nsecs: 458529664
  frame_id: "map"
pose: 
  position: 
    x: 4.30827999115
    y: -2.71948122978
    z: 0.521291434765
  orientation: 
    x: -0.0769516738643
    y: 0.0159841080041
    z: -0.994229573562
    w: 0.0730103113258
---
header: 
  seq: 22
  stamp: 
    secs: 1723687236
    nsecs: 489529664
  frame_id: "map"
pose: 
  position: 
    x: 4.28729724884
    y: -2.71620082855
    z: 0.520356297493
  orientation: 
    x: -0.078193683538
    y: 0.0153525638209
    z: -0.994672368353
    w: 0.0653985061911
---
header: 
  seq: 23
  stamp: 
    secs: 1723687236
    nsecs: 529529664
  frame_id: "map"
pose: 
  position: 
    x: 4.25811243057
    y: -2.71038484573
    z: 0.515829622746
  orientation: 
    x: -0.0808604173763
    y: 0.0131512470941
    z: -0.994872102268
    w: 0.0593152408113
---
header: 
  seq: 24
  stamp: 
    secs: 1723687236
    nsecs: 559529664
  frame_id: "map"
pose: 
  position: 
    x: 4.23491287231
    y: -2.70564651489
    z: 0.511050283909
  orientation: 
    x: -0.082673024256
    y: 0.0115070168741
    z: -0.994876569834
    w: 0.0570385523484
---
header: 
  seq: 25
  stamp: 
    secs: 1723687236
    nsecs: 599529408
  frame_id: "map"
pose: 
  position: 
    x: 4.20152044296
    y: -2.69791865349
    z: 0.50508326292
  orientation: 
    x: -0.0861429980015
    y: 0.00731643738622
    z: -0.994760708147
    w: 0.0545627200263
---
header: 
  seq: 26
  stamp: 
    secs: 1723687236
    nsecs: 629529408
  frame_id: "map"
pose: 
  position: 
    x: 4.17492628098
    y: -2.69147562981
    z: 0.501391232014
  orientation: 
    x: -0.0888767084504
    y: 0.00149423748861
    z: -0.994510945923
    w: 0.0551975358586
---
header: 
  seq: 27
  stamp: 
    secs: 1723687236
    nsecs: 659529408
  frame_id: "map"
pose: 
  position: 
    x: 4.14797067642
    y: -2.6852850914
    z: 0.498433500528
  orientation: 
    x: -0.0900433437539
    y: -0.00206528513909
    z: -0.994334097747
    w: 0.0564596653841
---
header: 
  seq: 28
  stamp: 
    secs: 1723687236
    nsecs: 699529152
  frame_id: "map"
pose: 
  position: 
    x: 4.11265134811
    y: -2.67750811577
    z: 0.496138244867
  orientation: 
    x: -0.0923946031626
    y: -0.0102614010107
    z: -0.993837397137
    w: 0.0603756555198
---
header: 
  seq: 29
  stamp: 
    secs: 1723687236
    nsecs: 729529152
  frame_id: "map"
pose: 
  position: 
    x: 4.08664369583
    y: -2.6719892025
    z: 0.495397478342
  orientation: 
    x: -0.0958296002922
    y: -0.0189061332063
    z: -0.993079091039
    w: 0.0652176540641
---
header: 
  seq: 30
  stamp: 
    secs: 1723687236
    nsecs: 759529152
  frame_id: "map"
pose: 
  position: 
    x: 4.06048059464
    y: -2.66676855087
    z: 0.495061427355
  orientation: 
    x: -0.0979903164331
    y: -0.0230933857273
    z: -0.992612230398
    w: 0.0677166671529
---
header: 
  seq: 31
  stamp: 
    secs: 1723687236
    nsecs: 799529664
  frame_id: "map"
pose: 
  position: 
    x: 4.02476596832
    y: -2.6603679657
    z: 0.495396196842
  orientation: 
    x: -0.102111769821
    y: -0.0308106975948
    z: -0.991632484757
    w: 0.0727259886858
---
header: 
  seq: 32
  stamp: 
    secs: 1723687236
    nsecs: 829529664
  frame_id: "map"
pose: 
  position: 
    x: 3.99813938141
    y: -2.65586161613
    z: 0.49693864584
  orientation: 
    x: -0.102606331478
    y: -0.0378754050258
    z: -0.990917800647
    w: 0.0782261102696
---
header: 
  seq: 33
  stamp: 
    secs: 1723687236
    nsecs: 859529664
  frame_id: "map"
pose: 
  position: 
    x: 3.97242116928
    y: -2.65177559853
    z: 0.499521613121
  orientation: 
    x: -0.10072347107
    y: -0.0413006398916
    z: -0.990736611345
    w: 0.0811790449168
---
header: 
  seq: 34
  stamp: 
    secs: 1723687236
    nsecs: 900530176
  frame_id: "map"
pose: 
  position: 
    x: 3.93930363655
    y: -2.64768266678
    z: 0.504026591778
  orientation: 
    x: -0.094302343382
    y: -0.04849359228
    z: -0.990543115164
    w: 0.0870629557032
---
header: 
  seq: 35
  stamp: 
    secs: 1723687236
    nsecs: 930530176
  frame_id: "map"
pose: 
  position: 
    x: 3.91541671753
    y: -2.64559173584
    z: 0.507481515408
  orientation: 
    x: -0.0863744210783
    y: -0.0562438023969
    z: -0.990385570244
    w: 0.0922641296905
---
header: 
  seq: 36
  stamp: 
    secs: 1723687236
    nsecs: 960530176
  frame_id: "map"
pose: 
  position: 
    x: 3.89242863655
    y: -2.64396166801
    z: 0.51015239954
  orientation: 
    x: -0.0823340977395
    y: -0.0601357266821
    z: -0.990303215302
    w: 0.094362874159
---
header: 
  seq: 37
  stamp: 
    secs: 1723687236
    nsecs: 990529664
  frame_id: "map"
pose: 
  position: 
    x: 3.87000703812
    y: -2.64263224602
    z: 0.511490881443
  orientation: 
    x: -0.0748348378612
    y: -0.0671915068837
    z: -0.990154057605
    w: 0.0973657949685
---
header: 
  seq: 38
  stamp: 
    secs: 1723687237
    nsecs:  30529664
  frame_id: "map"
pose: 
  position: 
    x: 3.84044551849
    y: -2.64117217064
    z: 0.511003255844
  orientation: 
    x: -0.0690156855429
    y: -0.0730746170446
    z: -0.990021084298
    w: 0.0987693271708
---
header: 
  seq: 39
  stamp: 
    secs: 1723687237
    nsecs:  60529664
  frame_id: "map"
pose: 
  position: 
    x: 3.81819176674
    y: -2.64041590691
    z: 0.509158015251
  orientation: 
    x: -0.0669050268519
    y: -0.0755081732788
    z: -0.989971055989
    w: 0.098891679472
---
header: 
  seq: 40
  stamp: 
    secs: 1723687237
    nsecs: 100529408
  frame_id: "map"
pose: 
  position: 
    x: 3.78808164597
    y: -2.64070940018
    z: 0.504821062088
  orientation: 
    x: -0.0638368982822
    y: -0.0792223919627
    z: -0.989983657897
    w: 0.0978834847088
---
header: 
  seq: 41
  stamp: 
    secs: 1723687237
    nsecs: 130529408
  frame_id: "map"
pose: 
  position: 
    x: 3.76506662369
    y: -2.64198732376
    z: 0.500749051571
  orientation: 
    x: -0.0615723224285
    y: -0.0812062908788
    z: -0.990230132667
    w: 0.0951771512722
---
header: 
  seq: 42
  stamp: 
    secs: 1723687237
    nsecs: 160529408
  frame_id: "map"
pose: 
  position: 
    x: 3.74155855179
    y: -2.64370584488
    z: 0.496517896652
  orientation: 
    x: -0.0603642864074
    y: -0.0814124647006
    z: -0.990474879416
    w: 0.0932075868944
---
header: 
  seq: 43
  stamp: 
    secs: 1723687237
    nsecs: 190529664
  frame_id: "map"
pose: 
  position: 
    x: 3.71711874008
    y: -2.64563775063
    z: 0.491815984249
  orientation: 
    x: -0.0580024916036
    y: -0.0802402462568
    z: -0.991171271794
    w: 0.0881857477475
---
header: 
  seq: 44
  stamp: 
    secs: 1723687237
    nsecs: 230529664
  frame_id: "map"
pose: 
  position: 
    x: 3.68320298195
    y: -2.64896655083
    z: 0.486197501421
  orientation: 
    x: -0.0559570378738
    y: -0.0772889698246
    z: -0.99203030886
    w: 0.0822872962984
---
header: 
  seq: 45
  stamp: 
    secs: 1723687237
    nsecs: 260529664
  frame_id: "map"
pose: 
  position: 
    x: 3.65715026855
    y: -2.65220189095
    z: 0.483421742916
  orientation: 
    x: -0.0551726863401
    y: -0.0754131914044
    z: -0.99245759361
    w: 0.0793525269429
---
header: 
  seq: 46
  stamp: 
    secs: 1723687237
    nsecs: 291528384
  frame_id: "map"
pose: 
  position: 
    x: 3.63075423241
    y: -2.65562748909
    z: 0.481242060661
  orientation: 
    x: -0.0548199461941
    y: -0.0705000937608
    z: -0.99326870971
    w: 0.0737684488369
---
header: 
  seq: 47
  stamp: 
    secs: 1723687237
    nsecs: 331528384
  frame_id: "map"
pose: 
  position: 
    x: 3.59460711479
    y: -2.659968853
    z: 0.478700816631
  orientation: 
    x: -0.057128303733
    y: -0.063611680341
    z: -0.993997597308
    w: 0.0682552195831
---
header: 
  seq: 48
  stamp: 
    secs: 1723687237
    nsecs: 361528384
  frame_id: "map"
pose: 
  position: 
    x: 3.56727266312
    y: -2.66350960732
    z: 0.477909445763
  orientation: 
    x: -0.0590738393652
    y: -0.0592677361475
    z: -0.994364443478
    w: 0.065091930015
---
header: 
  seq: 49
  stamp: 
    secs: 1723687237
    nsecs: 391528896
  frame_id: "map"
pose: 
  position: 
    x: 3.53998351097
    y: -2.66764640808
    z: 0.477924108505
  orientation: 
    x: -0.063947739884
    y: -0.0493727024415
    z: -0.995066357093
    w: 0.0575854077078
---
header: 
  seq: 50
  stamp: 
    secs: 1723687237
    nsecs: 431528896
  frame_id: "map"
pose: 
  position: 
    x: 3.50423288345
    y: -2.67451238632
    z: 0.479711771011
  orientation: 
    x: -0.0679315581284
    y: -0.0392133804393
    z: -0.995730464985
    w: 0.048667935353
---
header: 
  seq: 51
  stamp: 
    secs: 1723687237
    nsecs: 461528896
  frame_id: "map"
pose: 
  position: 
    x: 3.47832345963
    y: -2.68004918098
    z: 0.482624769211
  orientation: 
    x: -0.0690374479694
    y: -0.0342926739725
    z: -0.996051244649
    w: 0.0440426137569
---
header: 
  seq: 52
  stamp: 
    secs: 1723687237
    nsecs: 491528640
  frame_id: "map"
pose: 
  position: 
    x: 3.45291805267
    y: -2.68472623825
    z: 0.485299110413
  orientation: 
    x: -0.0713445625056
    y: -0.0251155177619
    z: -0.99648493572
    w: 0.0360135548219
---
header: 
  seq: 53
  stamp: 
    secs: 1723687237
    nsecs: 531528640
  frame_id: "map"
pose: 
  position: 
    x: 3.41992497444
    y: -2.68885922432
    z: 0.487475514412
  orientation: 
    x: -0.0747407950713
    y: -0.0172130811307
    z: -0.996556501069
    w: 0.0315092368278
---
header: 
  seq: 54
  stamp: 
    secs: 1723687237
    nsecs: 561528640
  frame_id: "map"
pose: 
  position: 
    x: 3.3953473568
    y: -2.69090366364
    z: 0.488803416491
  orientation: 
    x: -0.0760386572218
    y: -0.0138139773109
    z: -0.996540105945
    w: 0.0305810367831
---
header: 
  seq: 55
  stamp: 
    secs: 1723687237
    nsecs: 591528640
  frame_id: "map"
pose: 
  position: 
    x: 3.37038302422
    y: -2.69236493111
    z: 0.489882022142
  orientation: 
    x: -0.0770986372909
    y: -0.00824732956093
    z: -0.996528473414
    w: 0.0303128985329
---
header: 
  seq: 56
  stamp: 
    secs: 1723687237
    nsecs: 631528640
  frame_id: "map"
pose: 
  position: 
    x: 3.33581972122
    y: -2.69387960434
    z: 0.490245014429
  orientation: 
    x: -0.0773902592383
    y: -0.00427332692244
    z: -0.996517725968
    w: 0.0307425013597
---
header: 
  seq: 57
  stamp: 
    secs: 1723687237
    nsecs: 661528640
  frame_id: "map"
pose: 
  position: 
    x: 3.30890798569
    y: -2.69480037689
    z: 0.488952845335
  orientation: 
    x: -0.077764122858
    y: -0.00289548322434
    z: -0.996485441482
    w: 0.0310028845898
---
header: 
  seq: 58
  stamp: 
    secs: 1723687237
    nsecs: 692528640
  frame_id: "map"
pose: 
  position: 
    x: 3.28111314774
    y: -2.69572520256
    z: 0.486670285463
  orientation: 
    x: -0.0793854831443
    y: -0.00138305146806
    z: -0.99633582017
    w: 0.0317968469221
---
header: 
  seq: 59
  stamp: 
    secs: 1723687237
    nsecs: 732528640
  frame_id: "map"
pose: 
  position: 
    x: 3.24249458313
    y: -2.69667053223
    z: 0.482492029667
  orientation: 
    x: -0.0824848280407
    y: -0.00141765139651
    z: -0.996012343108
    w: 0.0339671988861
---
header: 
  seq: 60
  stamp: 
    secs: 1723687237
    nsecs: 762528640
  frame_id: "map"
pose: 
  position: 
    x: 3.21228647232
    y: -2.69652938843
    z: 0.478066653013
  orientation: 
    x: -0.0845948652304
    y: -0.00188282879771
    z: -0.995761737946
    w: 0.0360387164905
---
header: 
  seq: 61
  stamp: 
    secs: 1723687237
    nsecs: 792530176
  frame_id: "map"
pose: 
  position: 
    x: 3.18081140518
    y: -2.69568896294
    z: 0.47422131896
  orientation: 
    x: -0.0889465484125
    y: -0.00328435902466
    z: -0.995156509202
    w: 0.0417298054449
---
header: 
  seq: 62
  stamp: 
    secs: 1723687237
    nsecs: 832530176
  frame_id: "map"
pose: 
  position: 
    x: 3.1373667717
    y: -2.69460439682
    z: 0.47121861577
  orientation: 
    x: -0.0948024763257
    y: -0.00594410702275
    z: -0.994174740512
    w: 0.0509287766009
---
header: 
  seq: 63
  stamp: 
    secs: 1723687237
    nsecs: 862530176
  frame_id: "map"
pose: 
  position: 
    x: 3.10424232483
    y: -2.69432544708
    z: 0.46969678998
  orientation: 
    x: -0.0984516505685
    y: -0.0081904234129
    z: -0.993447623082
    w: 0.057463223994
---
header: 
  seq: 64
  stamp: 
    secs: 1723687237
    nsecs: 892530688
  frame_id: "map"
pose: 
  position: 
    x: 3.07110333443
    y: -2.69491767883
    z: 0.468015432358
  orientation: 
    x: -0.103029572765
    y: -0.0118014231477
    z: -0.992341774071
    w: 0.067108445982
---
header: 
  seq: 65
  stamp: 
    secs: 1723687237
    nsecs: 932530688
  frame_id: "map"
pose: 
  position: 
    x: 3.02645587921
    y: -2.69684553146
    z: 0.466730445623
  orientation: 
    x: -0.109091532913
    y: -0.0168830475992
    z: -0.990599760528
    w: 0.0807849297364
---
header: 
  seq: 66
  stamp: 
    secs: 1723687237
    nsecs: 962530688
  frame_id: "map"
pose: 
  position: 
    x: 2.99273967743
    y: -2.69898366928
    z: 0.467411518097
  orientation: 
    x: -0.11087057773
    y: -0.0186772125986
    z: -0.989941763929
    w: 0.0858736559319
---
header: 
  seq: 67
  stamp: 
    secs: 1723687237
    nsecs: 992528640
  frame_id: "map"
pose: 
  position: 
    x: 2.9594244957
    y: -2.70198297501
    z: 0.469429433346
  orientation: 
    x: -0.113100704462
    y: -0.0236721093726
    z: -0.98818660057
    w: 0.100673858961
---
header: 
  seq: 68
  stamp: 
    secs: 1723687238
    nsecs:  32528640
  frame_id: "map"
pose: 
  position: 
    x: 2.91678118706
    y: -2.70778346062
    z: 0.473365694284
  orientation: 
    x: -0.111256208223
    y: -0.0298902894487
    z: -0.986339641374
    w: 0.117740045154
---
header: 
  seq: 69
  stamp: 
    secs: 1723687238
    nsecs:  62528640
  frame_id: "map"
pose: 
  position: 
    x: 2.88627719879
    y: -2.71354556084
    z: 0.476411342621
  orientation: 
    x: -0.110046261765
    y: -0.0321294303379
    z: -0.985742083356
    w: 0.123167632012
---
header: 
  seq: 70
  stamp: 
    secs: 1723687238
    nsecs:  93527872
  frame_id: "map"
pose: 
  position: 
    x: 2.8568379879
    y: -2.72027039528
    z: 0.479797452688
  orientation: 
    x: -0.104936825662
    y: -0.0389125599423
    z: -0.984054902863
    w: 0.138239302892
---
header: 
  seq: 71
  stamp: 
    secs: 1723687238
    nsecs: 132527872
  frame_id: "map"
pose: 
  position: 
    x: 2.81859469414
    y: -2.73004412651
    z: 0.484951466322
  orientation: 
    x: -0.0988741964324
    y: -0.0437572400798
    z: -0.982829989005
    w: 0.149514132778
---
header: 
  seq: 72
  stamp: 
    secs: 1723687238
    nsecs: 163527872
  frame_id: "map"
pose: 
  position: 
    x: 2.79032659531
    y: -2.73734307289
    z: 0.487259596586
  orientation: 
    x: -0.0958404504715
    y: -0.0456648327852
    z: -0.982304164923
    w: 0.154297884378
---
header: 
  seq: 73
  stamp: 
    secs: 1723687238
    nsecs: 193528384
  frame_id: "map"
pose: 
  position: 
    x: 2.76158881187
    y: -2.74506425858
    z: 0.487974315882
  orientation: 
    x: -0.0915271762393
    y: -0.0482385379921
    z: -0.981477665224
    w: 0.161237194398
---
header: 
  seq: 74
  stamp: 
    secs: 1723687238
    nsecs: 223528384
  frame_id: "map"
pose: 
  position: 
    x: 2.73187971115
    y: -2.75365567207
    z: 0.487520426512
  orientation: 
    x: -0.0887214012649
    y: -0.0500650204046
    z: -0.980720876412
    w: 0.166759611664
---
header: 
  seq: 75
  stamp: 
    secs: 1723687238
    nsecs: 263528384
  frame_id: "map"
pose: 
  position: 
    x: 2.69181108475
    y: -2.76489210129
    z: 0.485015630722
  orientation: 
    x: -0.0880885110167
    y: -0.0505685409012
    z: -0.980460282448
    w: 0.168466264001
---
header: 
  seq: 76
  stamp: 
    secs: 1723687238
    nsecs: 293528128
  frame_id: "map"
pose: 
  position: 
    x: 2.6617333889
    y: -2.77364444733
    z: 0.482236146927
  orientation: 
    x: -0.0881461573688
    y: -0.0508359942651
    z: -0.980232057263
    w: 0.169679039567
---
header: 
  seq: 77
  stamp: 
    secs: 1723687238
    nsecs: 333528128
  frame_id: "map"
pose: 
  position: 
    x: 2.62233567238
    y: -2.78609037399
    z: 0.478829264641
  orientation: 
    x: -0.0901404026776
    y: -0.0500693075293
    z: -0.980455562001
    w: 0.167555049136
---
header: 
  seq: 78
  stamp: 
    secs: 1723687238
    nsecs: 363528128
  frame_id: "map"
pose: 
  position: 
    x: 2.59351301193
    y: -2.79480719566
    z: 0.47645637393
  orientation: 
    x: -0.091125651116
    y: -0.0494125516282
    z: -0.980637088477
    w: 0.166148819536
---
header: 
  seq: 79
  stamp: 
    secs: 1723687238
    nsecs: 393527872
  frame_id: "map"
pose: 
  position: 
    x: 2.56525468826
    y: -2.80247497559
    z: 0.474625974894
  orientation: 
    x: -0.0954668634405
    y: -0.0459012318243
    z: -0.981329476904
    w: 0.16053544937
---
header: 
  seq: 80
  stamp: 
    secs: 1723687238
    nsecs: 433527872
  frame_id: "map"
pose: 
  position: 
    x: 2.52902412415
    y: -2.81061530113
    z: 0.471167236567
  orientation: 
    x: -0.101349280648
    y: -0.0421178014297
    z: -0.981774252597
    w: 0.155157047884
---
header: 
  seq: 81
  stamp: 
    secs: 1723687238
    nsecs: 463527872
  frame_id: "map"
pose: 
  position: 
    x: 2.50324773788
    y: -2.81684780121
    z: 0.470279544592
  orientation: 
    x: -0.106132608145
    y: -0.0396517919575
    z: -0.982061399076
    w: 0.15072829919
---
header: 
  seq: 82
  stamp: 
    secs: 1723687238
    nsecs: 493528128
  frame_id: "map"
pose: 
  position: 
    x: 2.47932815552
    y: -2.82339048386
    z: 0.471538215876
  orientation: 
    x: -0.110804380837
    y: -0.0366560413806
    z: -0.982763481278
    w: 0.143369628027
---
header: 
  seq: 83
  stamp: 
    secs: 1723687238
    nsecs: 523528128
  frame_id: "map"
pose: 
  position: 
    x: 2.45702362061
    y: -2.82988119125
    z: 0.474589556456
  orientation: 
    x: -0.112670672265
    y: -0.0342046041813
    z: -0.984037538362
    w: 0.133438018204
---
header: 
  seq: 84
  stamp: 
    secs: 1723687238
    nsecs: 564528128
  frame_id: "map"
pose: 
  position: 
    x: 2.42926287651
    y: -2.83737897873
    z: 0.479826748371
  orientation: 
    x: -0.112633917578
    y: -0.0334147116541
    z: -0.984736417404
    w: 0.128419002895
---
header: 
  seq: 85
  stamp: 
    secs: 1723687238
    nsecs: 594527616
  frame_id: "map"
pose: 
  position: 
    x: 2.40846395493
    y: -2.84108805656
    z: 0.483669936657
  orientation: 
    x: -0.11238732427
    y: -0.0321921922636
    z: -0.985926012203
    w: 0.119510128498
---
header: 
  seq: 86
  stamp: 
    secs: 1723687238
    nsecs: 634527616
  frame_id: "map"
pose: 
  position: 
    x: 2.37954998016
    y: -2.84368538857
    z: 0.487921118736
  orientation: 
    x: -0.113367810115
    y: -0.0314260969008
    z: -0.986638167502
    w: 0.112718290301
---
header: 
  seq: 87
  stamp: 
    secs: 1723687238
    nsecs: 664527616
  frame_id: "map"
pose: 
  position: 
    x: 2.35709071159
    y: -2.84445023537
    z: 0.490313082933
  orientation: 
    x: -0.114086187343
    y: -0.0310811407508
    z: -0.98687490635
    w: 0.10998325486
---
header: 
  seq: 88
  stamp: 
    secs: 1723687238
    nsecs: 694526848
  frame_id: "map"
pose: 
  position: 
    x: 2.33448076248
    y: -2.8444108963
    z: 0.491644263268
  orientation: 
    x: -0.115684648719
    y: -0.0306595036783
    z: -0.987208035041
    w: 0.105344319832
---
header: 
  seq: 89
  stamp: 
    secs: 1723687238
    nsecs: 724526848
  frame_id: "map"
pose: 
  position: 
    x: 2.31224107742
    y: -2.843531847
    z: 0.491359829903
  orientation: 
    x: -0.117289413684
    y: -0.0302340391451
    z: -0.987429685317
    w: 0.101547183809
---
header: 
  seq: 90
  stamp: 
    secs: 1723687238
    nsecs: 764526848
  frame_id: "map"
pose: 
  position: 
    x: 2.28248906136
    y: -2.84167480469
    z: 0.489009529352
  orientation: 
    x: -0.118071055966
    y: -0.0298824000855
    z: -0.987499775526
    w: 0.100052614414
---
header: 
  seq: 91
  stamp: 
    secs: 1723687238
    nsecs: 794527360
  frame_id: "map"
pose: 
  position: 
    x: 2.25993061066
    y: -2.83953046799
    z: 0.486096978188
  orientation: 
    x: -0.119986893648
    y: -0.0288591062137
    z: -0.987481568088
    w: 0.0982366752993
---
header: 
  seq: 92
  stamp: 
    secs: 1723687238
    nsecs: 824527360
  frame_id: "map"
pose: 
  position: 
    x: 2.23692440987
    y: -2.83653569221
    z: 0.482882857323
  orientation: 
    x: -0.122676842497
    y: -0.027298935249
    z: -0.987152527642
    w: 0.0986667838884
---
header: 
  seq: 93
  stamp: 
    secs: 1723687238
    nsecs: 864527360
  frame_id: "map"
pose: 
  position: 
    x: 2.20520949364
    y: -2.83207035065
    z: 0.477423995733
  orientation: 
    x: -0.124532489212
    y: -0.0265039350506
    z: -0.986825383803
    w: 0.0998240520548
---
header: 
  seq: 94
  stamp: 
    secs: 1723687238
    nsecs: 894527872
  frame_id: "map"
pose: 
  position: 
    x: 2.18050813675
    y: -2.82897686958
    z: 0.474333554506
  orientation: 
    x: -0.129149012653
    y: -0.025518994811
    z: -0.985858071483
    w: 0.10369831681
---
header: 
  seq: 95
  stamp: 
    secs: 1723687238
    nsecs: 934527872
  frame_id: "map"
pose: 
  position: 
    x: 2.14648842812
    y: -2.82574701309
    z: 0.473513543606
  orientation: 
    x: -0.134141733596
    y: -0.0254536513908
    z: -0.984652165854
    w: 0.108711600147
---
header: 
  seq: 96
  stamp: 
    secs: 1723687238
    nsecs: 965527872
  frame_id: "map"
pose: 
  position: 
    x: 2.12002229691
    y: -2.82398796082
    z: 0.47337448597
  orientation: 
    x: -0.13699562315
    y: -0.0257690678683
    z: -0.983951179469
    w: 0.111392476887
---
header: 
  seq: 97
  stamp: 
    secs: 1723687238
    nsecs: 995527616
  frame_id: "map"
pose: 
  position: 
    x: 2.09276938438
    y: -2.82309865952
    z: 0.473264455795
  orientation: 
    x: -0.144512065771
    y: -0.0270694930741
    z: -0.982181559741
    w: 0.117059584285
---
header: 
  seq: 98
  stamp: 
    secs: 1723687239
    nsecs:  25527616
  frame_id: "map"
pose: 
  position: 
    x: 2.06527113914
    y: -2.82305717468
    z: 0.47403472662
  orientation: 
    x: -0.152800148701
    y: -0.0290692345954
    z: -0.980084627587
    w: 0.1234553264
---
header: 
  seq: 99
  stamp: 
    secs: 1723687239
    nsecs:  65527616
  frame_id: "map"
pose: 
  position: 
    x: 2.0288438797
    y: -2.82353281975
    z: 0.477217406034
  orientation: 
    x: -0.155946943046
    y: -0.0299786108039
    z: -0.979105598443
    w: 0.1270200647
---
header: 
  seq: 100
  stamp: 
    secs: 1723687239
    nsecs:  95528128
  frame_id: "map"
pose: 
  position: 
    x: 2.00183391571
    y: -2.82393622398
    z: 0.480106383562
  orientation: 
    x: -0.16057211186
    y: -0.0312310096757
    z: -0.977179656053
    w: 0.135503550955
---
header: 
  seq: 101
  stamp: 
    secs: 1723687239
    nsecs: 125528128
  frame_id: "map"
pose: 
  position: 
    x: 1.97567713261
    y: -2.8248295784
    z: 0.482532709837
  orientation: 
    x: -0.163842733646
    y: -0.0321340427836
    z: -0.975158124611
    w: 0.145566701093
---
header: 
  seq: 102
  stamp: 
    secs: 1723687239
    nsecs: 165528128
  frame_id: "map"
pose: 
  position: 
    x: 1.9426920414
    y: -2.8275167942
    z: 0.485884636641
  orientation: 
    x: -0.164153087233
    y: -0.0328699214902
    z: -0.974296432293
    w: 0.150730912294
---
header: 
  seq: 103
  stamp: 
    secs: 1723687239
    nsecs: 195527872
  frame_id: "map"
pose: 
  position: 
    x: 1.9194483757
    y: -2.83115935326
    z: 0.489257752895
  orientation: 
    x: -0.159488490043
    y: -0.0361968198559
    z: -0.973496611549
    w: 0.159867042499
---
header: 
  seq: 104
  stamp: 
    secs: 1723687239
    nsecs: 225527872
  frame_id: "map"
pose: 
  position: 
    x: 1.8970195055
    y: -2.83570981026
    z: 0.492444038391
  orientation: 
    x: -0.149287303708
    y: -0.0414088097783
    z: -0.973733097516
    w: 0.166860932688
---
header: 
  seq: 105
  stamp: 
    secs: 1723687239
    nsecs: 265527872
  frame_id: "map"
pose: 
  position: 
    x: 1.86599218845
    y: -2.84079575539
    z: 0.494705766439
  orientation: 
    x: -0.144159660166
    y: -0.0440958346899
    z: -0.97383521933
    w: 0.170054357253
---
header: 
  seq: 106
  stamp: 
    secs: 1723687239
    nsecs: 295527104
  frame_id: "map"
pose: 
  position: 
    x: 1.84160292149
    y: -2.84366941452
    z: 0.494762927294
  orientation: 
    x: -0.136235802399
    y: -0.0490776949168
    z: -0.973628320451
    w: 0.176293228797
---
header: 
  seq: 107
  stamp: 
    secs: 1723687239
    nsecs: 325527104
  frame_id: "map"
pose: 
  position: 
    x: 1.81644439697
    y: -2.84624314308
    z: 0.493012040854
  orientation: 
    x: -0.131141154571
    y: -0.0533272141382
    z: -0.973118975787
    w: 0.181652917082
---
header: 
  seq: 108
  stamp: 
    secs: 1723687239
    nsecs: 365527104
  frame_id: "map"
pose: 
  position: 
    x: 1.78218781948
    y: -2.84944224358
    z: 0.488042324781
  orientation: 
    x: -0.129305327412
    y: -0.0550623735496
    z: -0.972875830618
    w: 0.183741419866
---
header: 
  seq: 109
  stamp: 
    secs: 1723687239
    nsecs: 396528384
  frame_id: "map"
pose: 
  position: 
    x: 1.75618386269
    y: -2.85222625732
    z: 0.482858002186
  orientation: 
    x: -0.126711549769
    y: -0.0576547182002
    z: -0.97256512405
    w: 0.186379222527
---
header: 
  seq: 110
  stamp: 
    secs: 1723687239
    nsecs: 426528384
  frame_id: "map"
pose: 
  position: 
    x: 1.72998416424
    y: -2.85574388504
    z: 0.477070897818
  orientation: 
    x: -0.125016753867
    y: -0.0589693284546
    z: -0.972646341027
    w: 0.186688453955
---
header: 
  seq: 111
  stamp: 
    secs: 1723687239
    nsecs: 456528384
  frame_id: "map"
pose: 
  position: 
    x: 1.70382285118
    y: -2.85974812508
    z: 0.471125513315
  orientation: 
    x: -0.124495955797
    y: -0.0591065480567
    z: -0.972836971223
    w: 0.185998720779
---
header: 
  seq: 112
  stamp: 
    secs: 1723687239
    nsecs: 496527616
  frame_id: "map"
pose: 
  position: 
    x: 1.66896378994
    y: -2.86608242989
    z: 0.462956666946
  orientation: 
    x: -0.12379874419
    y: -0.05832796669
    z: -0.973515156163
    w: 0.183139605016
---
header: 
  seq: 113
  stamp: 
    secs: 1723687239
    nsecs: 526527616
  frame_id: "map"
pose: 
  position: 
    x: 1.64274537563
    y: -2.87129211426
    z: 0.45703536272
  orientation: 
    x: -0.123798572968
    y: -0.0557306065644
    z: -0.974546110224
    w: 0.178403605796
---
header: 
  seq: 114
  stamp: 
    secs: 1723687239
    nsecs: 566527616
  frame_id: "map"
pose: 
  position: 
    x: 1.60792458057
    y: -2.87845921516
    z: 0.450386166573
  orientation: 
    x: -0.124092191622
    y: -0.0537335598072
    z: -0.975157829583
    w: 0.175445402793
---
header: 
  seq: 115
  stamp: 
    secs: 1723687239
    nsecs: 596527360
  frame_id: "map"
pose: 
  position: 
    x: 1.5822865963
    y: -2.88352227211
    z: 0.446045607328
  orientation: 
    x: -0.12361652229
    y: -0.0486683410165
    z: -0.97669302854
    w: 0.168586045344
---
header: 
  seq: 116
  stamp: 
    secs: 1723687239
    nsecs: 626527360
  frame_id: "map"
pose: 
  position: 
    x: 1.55750632286
    y: -2.88833594322
    z: 0.442948758602
  orientation: 
    x: -0.120590022953
    y: -0.0425446963216
    z: -0.97861897093
    w: 0.161099079175
---
header: 
  seq: 117
  stamp: 
    secs: 1723687239
    nsecs: 666527360
  frame_id: "map"
pose: 
  position: 
    x: 1.52532100677
    y: -2.89382195473
    z: 0.441157996655
  orientation: 
    x: -0.118201252849
    y: -0.0392607534971
    z: -0.979618357002
    w: 0.157591028386
---
header: 
  seq: 118
  stamp: 
    secs: 1723687239
    nsecs: 696527360
  frame_id: "map"
pose: 
  position: 
    x: 1.50101530552
    y: -2.89639306068
    z: 0.441162765026
  orientation: 
    x: -0.113762589108
    y: -0.0325792030659
    z: -0.98127430668
    w: 0.151978585451
---
header: 
  seq: 119
  stamp: 
    secs: 1723687239
    nsecs: 726527360
  frame_id: "map"
pose: 
  position: 
    x: 1.47650039196
    y: -2.89740157127
    z: 0.442252546549
  orientation: 
    x: -0.111088447961
    y: -0.0258293826427
    z: -0.982309601867
    w: 0.148526927145
---
header: 
  seq: 120
  stamp: 
    secs: 1723687239
    nsecs: 756527360
  frame_id: "map"
pose: 
  position: 
    x: 1.45243179798
    y: -2.89735341072
    z: 0.443208366632
  orientation: 
    x: -0.109909289775
    y: -0.0224584302836
    z: -0.982695709146
    w: 0.147393387655
---
header: 
  seq: 121
  stamp: 
    secs: 1723687239
    nsecs: 797527104
  frame_id: "map"
pose: 
  position: 
    x: 1.42075896263
    y: -2.89625430107
    z: 0.443635463715
  orientation: 
    x: -0.107096464424
    y: -0.0158894303772
    z: -0.983395431125
    w: 0.145641596043
---
header: 
  seq: 122
  stamp: 
    secs: 1723687239
    nsecs: 826527104
  frame_id: "map"
pose: 
  position: 
    x: 1.39647972584
    y: -2.89510631561
    z: 0.442604601383
  orientation: 
    x: -0.104538098035
    y: -0.00999287553632
    z: -0.983960999685
    w: 0.144197265691
---
header: 
  seq: 123
  stamp: 
    secs: 1723687239
    nsecs: 867527104
  frame_id: "map"
pose: 
  position: 
    x: 1.36390125751
    y: -2.89325284958
    z: 0.439671456814
  orientation: 
    x: -0.103969621343
    y: -0.00807412972115
    z: -0.98410965162
    w: 0.143712787668
---
header: 
  seq: 124
  stamp: 
    secs: 1723687239
    nsecs: 897527104
  frame_id: "map"
pose: 
  position: 
    x: 1.3392072916
    y: -2.89159250259
    z: 0.436283528805
  orientation: 
    x: -0.104147001623
    y: -0.00362263753334
    z: -0.984279840594
    w: 0.14259606477
---
header: 
  seq: 125
  stamp: 
    secs: 1723687239
    nsecs: 927527104
  frame_id: "map"
pose: 
  position: 
    x: 1.31394863129
    y: -2.88972520828
    z: 0.43206217885
  orientation: 
    x: -0.106325129681
    y: -0.00144713311705
    z: -0.984116479409
    w: 0.142154028622
---
header: 
  seq: 126
  stamp: 
    secs: 1723687239
    nsecs: 957527104
  frame_id: "map"
pose: 
  position: 
    x: 1.28778815269
    y: -2.88762831688
    z: 0.427284240723
  orientation: 
    x: -0.107833691829
    y: -0.000975667932891
    z: -0.983952570315
    w: 0.142156262405
---
header: 
  seq: 127
  stamp: 
    secs: 1723687239
    nsecs: 997527104
  frame_id: "map"
pose: 
  position: 
    x: 1.2509418726
    y: -2.88425350189
    z: 0.420631110668
  orientation: 
    x: -0.11149482524
    y: -0.00131770541362
    z: -0.983447777511
    w: 0.142820370297
---
header: 
  seq: 128
  stamp: 
    secs: 1723687240
    nsecs:  27527104
  frame_id: "map"
pose: 
  position: 
    x: 1.22182226181
    y: -2.88133859634
    z: 0.415816903114
  orientation: 
    x: -0.116252082277
    y: -0.00335727043841
    z: -0.982591522136
    w: 0.144873090407
---
header: 
  seq: 129
  stamp: 
    secs: 1723687240
    nsecs:  57527104
  frame_id: "map"
pose: 
  position: 
    x: 1.19194555283
    y: -2.87822914124
    z: 0.411559015512
  orientation: 
    x: -0.118856404536
    y: -0.00493185035699
    z: -0.982028229506
    w: 0.14652469896
---
header: 
  seq: 130
  stamp: 
    secs: 1723687240
    nsecs:  97527104
  frame_id: "map"
pose: 
  position: 
    x: 1.15206587315
    y: -2.87369203568
    z: 0.407436549664
  orientation: 
    x: -0.12378560491
    y: -0.00904847002831
    z: -0.980698327848
    w: 0.15108296492
---
header: 
  seq: 131
  stamp: 
    secs: 1723687240
    nsecs: 127527104
  frame_id: "map"
pose: 
  position: 
    x: 1.12212467194
    y: -2.87007403374
    z: 0.405450373888
  orientation: 
    x: -0.128953082491
    y: -0.0140835959692
    z: -0.979072302432
    w: 0.156812997562
---
header: 
  seq: 132
  stamp: 
    secs: 1723687240
    nsecs: 157527104
  frame_id: "map"
pose: 
  position: 
    x: 1.09194755554
    y: -2.86652898788
    z: 0.404518246651
  orientation: 
    x: -0.131457658964
    y: -0.0167496159452
    z: -0.978233285119
    w: 0.159680879869
---
header: 
  seq: 133
  stamp: 
    secs: 1723687240
    nsecs: 198527616
  frame_id: "map"
pose: 
  position: 
    x: 1.05307936668
    y: -2.86210989952
    z: 0.406024724245
  orientation: 
    x: -0.133246213164
    y: -0.021892795869
    z: -0.97708701728
    w: 0.164521066099
---
header: 
  seq: 134
  stamp: 
    secs: 1723687240
    nsecs: 228527616
  frame_id: "map"
pose: 
  position: 
    x: 1.02606010437
    y: -2.85964298248
    z: 0.409447401762
  orientation: 
    x: -0.129155666587
    y: -0.0261529729747
    z: -0.977112642564
    w: 0.166990449953
---
header: 
  seq: 135
  stamp: 
    secs: 1723687240
    nsecs: 258527616
  frame_id: "map"
pose: 
  position: 
    x: 1.00086796284
    y: -2.85745406151
    z: 0.413119465113
  orientation: 
    x: -0.126445761205
    y: -0.0279912183092
    z: -0.977374838109
    w: 0.167231656368
---
header: 
  seq: 136
  stamp: 
    secs: 1723687240
    nsecs: 298527360
  frame_id: "map"
pose: 
  position: 
    x: 0.969305634499
    y: -2.85483193398
    z: 0.417465180159
  orientation: 
    x: -0.122435751987
    y: -0.0306381246894
    z: -0.978001140278
    w: 0.166086020731
---
header: 
  seq: 137
  stamp: 
    secs: 1723687240
    nsecs: 328527360
  frame_id: "map"
pose: 
  position: 
    x: 0.947005033493
    y: -2.85287952423
    z: 0.420157015324
  orientation: 
    x: -0.118832570493
    y: -0.0326284411217
    z: -0.978969379828
    w: 0.162582563949
---
header: 
  seq: 138
  stamp: 
    secs: 1723687240
    nsecs: 358527360
  frame_id: "map"
pose: 
  position: 
    x: 0.925697863102
    y: -2.85073637962
    z: 0.421820372343
  orientation: 
    x: -0.116733947197
    y: -0.0329939017135
    z: -0.979695064266
    w: 0.159631778791
---
header: 
  seq: 139
  stamp: 
    secs: 1723687240
    nsecs: 398527872
  frame_id: "map"
pose: 
  position: 
    x: 0.897406876087
    y: -2.84719014168
    z: 0.421365082264
  orientation: 
    x: -0.114234683861
    y: -0.0322972959671
    z: -0.980739463172
    w: 0.155104870086
---
header: 
  seq: 140
  stamp: 
    secs: 1723687240
    nsecs: 428527872
  frame_id: "map"
pose: 
  position: 
    x: 0.876077115536
    y: -2.84420585632
    z: 0.419003248215
  orientation: 
    x: -0.112721245849
    y: -0.0301468241447
    z: -0.981853362231
    w: 0.149496431102
---
header: 
  seq: 141
  stamp: 
    secs: 1723687240
    nsecs: 458527872
  frame_id: "map"
pose: 
  position: 
    x: 0.854884326458
    y: -2.84150838852
    z: 0.415338337421
  orientation: 
    x: -0.112551662735
    y: -0.0286432511291
    z: -0.982409068429
    w: 0.146233632824
---
header: 
  seq: 142
  stamp: 
    secs: 1723687240
    nsecs: 498527360
  frame_id: "map"
pose: 
  position: 
    x: 0.826905310154
    y: -2.83845448494
    z: 0.408303111792
  orientation: 
    x: -0.112918295536
    y: -0.0254342454012
    z: -0.983645951992
    w: 0.137997169248
---
header: 
  seq: 143
  stamp: 
    secs: 1723687240
    nsecs: 528527360
  frame_id: "map"
pose: 
  position: 
    x: 0.80620354414
    y: -2.83681344986
    z: 0.401298224926
  orientation: 
    x: -0.113060211878
    y: -0.0224534753947
    z: -0.98520601759
    w: 0.126816411128
---
header: 
  seq: 144
  stamp: 
    secs: 1723687240
    nsecs: 558527360
  frame_id: "map"
pose: 
  position: 
    x: 0.785981714725
    y: -2.83601856232
    z: 0.393488943577
  orientation: 
    x: -0.112766311366
    y: -0.0209160953383
    z: -0.98632016953
    w: 0.118401329207
---
header: 
  seq: 145
  stamp: 
    secs: 1723687240
    nsecs: 598527872
  frame_id: "map"
pose: 
  position: 
    x: 0.760990977287
    y: -2.83536934853
    z: 0.382338494062
  orientation: 
    x: -0.11109224908
    y: -0.0192218236383
    z: -0.988044270662
    w: 0.105155881272
---
header: 
  seq: 146
  stamp: 
    secs: 1723687240
    nsecs: 629527872
  frame_id: "map"
pose: 
  position: 
    x: 0.743822395802
    y: -2.83427262306
    z: 0.37436491251
  orientation: 
    x: -0.107781487689
    y: -0.0170106629882
    z: -0.990104830086
    w: 0.0882395692731
---
header: 
  seq: 147
  stamp: 
    secs: 1723687240
    nsecs: 659527872
  frame_id: "map"
pose: 
  position: 
    x: 0.727369606495
    y: -2.83220362663
    z: 0.366891205311
  orientation: 
    x: -0.10664416025
    y: -0.0155980955553
    z: -0.991008542812
    w: 0.0792838697267
---
header: 
  seq: 148
  stamp: 
    secs: 1723687240
    nsecs: 699528128
  frame_id: "map"
pose: 
  position: 
    x: 0.706069946289
    y: -2.82807302475
    z: 0.357931643724
  orientation: 
    x: -0.107045577372
    y: -0.0126686577761
    z: -0.992303167558
    w: 0.0609523929948
---
header: 
  seq: 149
  stamp: 
    secs: 1723687240
    nsecs: 729528128
  frame_id: "map"
pose: 
  position: 
    x: 0.691705703735
    y: -2.82510590553
    z: 0.35299924016
  orientation: 
    x: -0.108049747112
    y: -0.0104394266646
    z: -0.993219018576
    w: 0.041620982282
---
header: 
  seq: 150
  stamp: 
    secs: 1723687240
    nsecs: 759528128
  frame_id: "map"
pose: 
  position: 
    x: 0.679926931858
    y: -2.82277989388
    z: 0.350136965513
  orientation: 
    x: -0.107647455442
    y: -0.00974131680263
    z: -0.993646176885
    w: 0.0313760527865
---
header: 
  seq: 151
  stamp: 
    secs: 1723687240
    nsecs: 799528640
  frame_id: "map"
pose: 
  position: 
    x: 0.667800784111
    y: -2.81886863708
    z: 0.348649442196
  orientation: 
    x: -0.104662968611
    y: -0.00882884280072
    z: -0.994417084891
    w: 0.0101237151592
---
header: 
  seq: 152
  stamp: 
    secs: 1723687240
    nsecs: 829528640
  frame_id: "map"
pose: 
  position: 
    x: 0.660691022873
    y: -2.8143260479
    z: 0.348402887583
  orientation: 
    x: -0.0994288884715
    y: -0.00722195205439
    z: -0.994957744664
    w: -0.010996239217
---
header: 
  seq: 153
  stamp: 
    secs: 1723687240
    nsecs: 859528640
  frame_id: "map"
pose: 
  position: 
    x: 0.654914200306
    y: -2.80835175514
    z: 0.348628342152
  orientation: 
    x: -0.0964639683142
    y: -0.00591003129573
    z: -0.995094300453
    w: -0.0211479820305
---
header: 
  seq: 154
  stamp: 
    secs: 1723687240
    nsecs: 889528384
  frame_id: "map"
pose: 
  position: 
    x: 0.650129258633
    y: -2.80071926117
    z: 0.348713606596
  orientation: 
    x: -0.0906356834654
    y: -0.00252253893276
    z: -0.995042501976
    w: -0.0408563963032
---
header: 
  seq: 155
  stamp: 
    secs: 1723687240
    nsecs: 929528384
  frame_id: "map"
pose: 
  position: 
    x: 0.64527797699
    y: -2.78840231895
    z: 0.348115622997
  orientation: 
    x: -0.0850949007094
    y: 0.0013691377397
    z: -0.994526287376
    w: -0.0606186321015
---
header: 
  seq: 156
  stamp: 
    secs: 1723687240
    nsecs: 959528384
  frame_id: "map"
pose: 
  position: 
    x: 0.643461883068
    y: -2.7792160511
    z: 0.346976011992
  orientation: 
    x: -0.0829488569403
    y: 0.00347269221723
    z: -0.994023728354
    w: -0.0708815583013
---
header: 
  seq: 157
  stamp: 
    secs: 1723687240
    nsecs: 999528384
  frame_id: "map"
pose: 
  position: 
    x: 0.64390027523
    y: -2.76691246033
    z: 0.344059497118
  orientation: 
    x: -0.0807591859145
    y: 0.00774844785181
    z: -0.992398798757
    w: -0.0925336587868
---
header: 
  seq: 158
  stamp: 
    secs: 1723687241
    nsecs:  29528384
  frame_id: "map"
pose: 
  position: 
    x: 0.646271646023
    y: -2.75770115852
    z: 0.341287314892
  orientation: 
    x: -0.0795927033933
    y: 0.0116604814521
    z: -0.990151908116
    w: -0.114578947222
---
header: 
  seq: 159
  stamp: 
    secs: 1723687241
    nsecs:  60528384
  frame_id: "map"
pose: 
  position: 
    x: 0.649909377098
    y: -2.74875283241
    z: 0.338392347097
  orientation: 
    x: -0.0791207271786
    y: 0.0134273142202
    z: -0.98886718788
    w: -0.125304982993
---
header: 
  seq: 160
  stamp: 
    secs: 1723687241
    nsecs: 100528128
  frame_id: "map"
pose: 
  position: 
    x: 0.656072258949
    y: -2.73544430733
    z: 0.333795249462
  orientation: 
    x: -0.0784219113569
    y: 0.0167384549329
    z: -0.986070997362
    w: -0.145718724776
---
header: 
  seq: 161
  stamp: 
    secs: 1723687241
    nsecs: 130528128
  frame_id: "map"
pose: 
  position: 
    x: 0.661281824112
    y: -2.72449541092
    z: 0.32990950346
  orientation: 
    x: -0.0778443757259
    y: 0.0199659525906
    z: -0.983084808851
    w: -0.16457775361
---
header: 
  seq: 162
  stamp: 
    secs: 1723687241
    nsecs: 160528128
  frame_id: "map"
pose: 
  position: 
    x: 0.666783094406
    y: -2.71407270432
    z: 0.326473385096
  orientation: 
    x: -0.0771472615832
    y: 0.021415725154
    z: -0.981564740613
    w: -0.173552250651
---
header: 
  seq: 163
  stamp: 
    secs: 1723687241
    nsecs: 190528640
  frame_id: "map"
pose: 
  position: 
    x: 0.672590494156
    y: -2.70392036438
    z: 0.32359239459
  orientation: 
    x: -0.07426265488
    y: 0.0234276181385
    z: -0.978481445763
    w: -0.191076910262
---
header: 
  seq: 164
  stamp: 
    secs: 1723687241
    nsecs: 230528640
  frame_id: "map"
pose: 
  position: 
    x: 0.680674672127
    y: -2.69015622139
    z: 0.320395857096
  orientation: 
    x: -0.0699343552962
    y: 0.0243276825277
    z: -0.975233862498
    w: -0.208413763516
---
header: 
  seq: 165
  stamp: 
    secs: 1723687241
    nsecs: 260528640
  frame_id: "map"
pose: 
  position: 
    x: 0.686599373817
    y: -2.68061208725
    z: 0.318287461996
  orientation: 
    x: -0.0676837860256
    y: 0.0246530785888
    z: -0.97350837052
    w: -0.217008517452
---
header: 
  seq: 166
  stamp: 
    secs: 1723687241
    nsecs: 290528128
  frame_id: "map"
pose: 
  position: 
    x: 0.692635297775
    y: -2.67137503624
    z: 0.316097587347
  orientation: 
    x: -0.0636866974508
    y: 0.0253808150511
    z: -0.969846483734
    w: -0.233875686226
---
header: 
  seq: 167
  stamp: 
    secs: 1723687241
    nsecs: 330528128
  frame_id: "map"
pose: 
  position: 
    x: 0.701097667217
    y: -2.65933704376
    z: 0.313014894724
  orientation: 
    x: -0.0610762125332
    y: 0.0263375103167
    z: -0.966015714526
    w: -0.249779083015
---
header: 
  seq: 168
  stamp: 
    secs: 1723687241
    nsecs: 360528128
  frame_id: "map"
pose: 
  position: 
    x: 0.707335114479
    y: -2.65117311478
    z: 0.31096586585
  orientation: 
    x: -0.060357711499
    y: 0.0268874502986
    z: -0.964084904175
    w: -0.257243690281
---
header: 
  seq: 169
  stamp: 
    secs: 1723687241
    nsecs: 400528128
  frame_id: "map"
pose: 
  position: 
    x: 0.71550655365
    y: -2.64061284065
    z: 0.308531880379
  orientation: 
    x: -0.0599559914466
    y: 0.0281372334317
    z: -0.960275145171
    w: -0.27108187042
---
header: 
  seq: 170
  stamp: 
    secs: 1723687241
    nsecs: 430528128
  frame_id: "map"
pose: 
  position: 
    x: 0.721326231956
    y: -2.63284754753
    z: 0.306879043579
  orientation: 
    x: -0.0608018246956
    y: 0.0296151666754
    z: -0.956594924506
    w: -0.283464572366
---
header: 
  seq: 171
  stamp: 
    secs: 1723687241
    nsecs: 460528128
  frame_id: "map"
pose: 
  position: 
    x: 0.726659238338
    y: -2.62564730644
    z: 0.305745184422
  orientation: 
    x: -0.0615454926667
    y: 0.0303531184801
    z: -0.95480654943
    w: -0.289197976756
---
header: 
  seq: 172
  stamp: 
    secs: 1723687241
    nsecs: 491524288
  frame_id: "map"
pose: 
  position: 
    x: 0.731565058231
    y: -2.61868643761
    z: 0.304925173521
  orientation: 
    x: -0.0632492197487
    y: 0.0315796615775
    z: -0.951338496001
    w: -0.299929028002
---
header: 
  seq: 173
  stamp: 
    secs: 1723687241
    nsecs: 531524288
  frame_id: "map"
pose: 
  position: 
    x: 0.737581789494
    y: -2.60933852196
    z: 0.304294794798
  orientation: 
    x: -0.0648711397978
    y: 0.0324265037167
    z: -0.948084822516
    w: -0.30963757563
---
header: 
  seq: 174
  stamp: 
    secs: 1723687241
    nsecs: 561524288
  frame_id: "map"
pose: 
  position: 
    x: 0.741560220718
    y: -2.6027712822
    z: 0.304022043943
  orientation: 
    x: -0.0656198956838
    y: 0.0327841763611
    z: -0.946561740778
    w: -0.314070138615
---
header: 
  seq: 175
  stamp: 
    secs: 1723687241
    nsecs: 591524032
  frame_id: "map"
pose: 
  position: 
    x: 0.7453083992
    y: -2.59640407562
    z: 0.303767204285
  orientation: 
    x: -0.0670903663011
    y: 0.0335282802887
    z: -0.943770207487
    w: -0.321982261118
---
header: 
  seq: 176
  stamp: 
    secs: 1723687241
    nsecs: 631524032
  frame_id: "map"
pose: 
  position: 
    x: 0.750182390213
    y: -2.58815956116
    z: 0.303444206715
  orientation: 
    x: -0.06863219285
    y: 0.0343170585585
    z: -0.941330326427
    w: -0.328647616623
---
header: 
  seq: 177
  stamp: 
    secs: 1723687241
    nsecs: 661524032
  frame_id: "map"
pose: 
  position: 
    x: 0.75335162878
    y: -2.58237266541
    z: 0.303189843893
  orientation: 
    x: -0.0693802954598
    y: 0.0347168885882
    z: -0.940236510341
    w: -0.331566559837
---
header: 
  seq: 178
  stamp: 
    secs: 1723687241
    nsecs: 691522752
  frame_id: "map"
pose: 
  position: 
    x: 0.756275475025
    y: -2.57675504684
    z: 0.303140491247
  orientation: 
    x: -0.0706995826974
    y: 0.0354796451304
    z: -0.938263679582
    w: -0.336755363724
---
header: 
  seq: 179
  stamp: 
    secs: 1723687241
    nsecs: 731522752
  frame_id: "map"
pose: 
  position: 
    x: 0.759747982025
    y: -2.56967997551
    z: 0.303360968828
  orientation: 
    x: -0.0718104919646
    y: 0.0362972281371
    z: -0.936517409208
    w: -0.341263685669
---
header: 
  seq: 180
  stamp: 
    secs: 1723687241
    nsecs: 761522752
  frame_id: "map"
pose: 
  position: 
    x: 0.761999368668
    y: -2.5647084713
    z: 0.303555458784
  orientation: 
    x: -0.072313713482
    y: 0.036738327834
    z: -0.935710507793
    w: -0.343317375156
---
header: 
  seq: 181
  stamp: 
    secs: 1723687241
    nsecs: 791523520
  frame_id: "map"
pose: 
  position: 
    x: 0.764032959938
    y: -2.56002378464
    z: 0.303985536098
  orientation: 
    x: -0.0731343139396
    y: 0.0376928999521
    z: -0.934206033888
    w: -0.347116407787
---
header: 
  seq: 182
  stamp: 
    secs: 1723687241
    nsecs: 831523520
  frame_id: "map"
pose: 
  position: 
    x: 0.766551375389
    y: -2.55418300629
    z: 0.30486279726
  orientation: 
    x: -0.0736401722692
    y: 0.0387284256295
    z: -0.932850759828
    w: -0.350523811902
---
header: 
  seq: 183
  stamp: 
    secs: 1723687241
    nsecs: 861523520
  frame_id: "map"
pose: 
  position: 
    x: 0.768194079399
    y: -2.55011200905
    z: 0.305444806814
  orientation: 
    x: -0.0737599852228
    y: 0.0392479066108
    z: -0.932249050345
    w: -0.352038169242
---
header: 
  seq: 184
  stamp: 
    secs: 1723687241
    nsecs: 891523264
  frame_id: "map"
pose: 
  position: 
    x: 0.769739687443
    y: -2.5463616848
    z: 0.305321931839
  orientation: 
    x: -0.0737519522969
    y: 0.0402348000934
    z: -0.931252656699
    w: -0.354556569882
---
header: 
  seq: 185
  stamp: 
    secs: 1723687241
    nsecs: 932523264
  frame_id: "map"
pose: 
  position: 
    x: 0.77163207531
    y: -2.54180622101
    z: 0.304911315441
  orientation: 
    x: -0.0733838483075
    y: 0.0411267261895
    z: -0.930537572194
    w: -0.356403212976
---
header: 
  seq: 186
  stamp: 
    secs: 1723687241
    nsecs: 962523264
  frame_id: "map"
pose: 
  position: 
    x: 0.772944450378
    y: -2.5385518074
    z: 0.304541915655
  orientation: 
    x: -0.0731611496283
    y: 0.0414537804656
    z: -0.930338913024
    w: -0.356929184572
---
header: 
  seq: 187
  stamp: 
    secs: 1723687241
    nsecs: 992523008
  frame_id: "map"
pose: 
  position: 
    x: 0.774246156216
    y: -2.53541302681
    z: 0.304207026958
  orientation: 
    x: -0.0722153229813
    y: 0.0424906653789
    z: -0.929936958529
    w: -0.358045949617
---
header: 
  seq: 188
  stamp: 
    secs: 1723687242
    nsecs:  32523008
  frame_id: "map"
pose: 
  position: 
    x: 0.776067435741
    y: -2.53149199486
    z: 0.303641676903
  orientation: 
    x: -0.0711935872259
    y: 0.0434926974826
    z: -0.929730417898
    w: -0.358665866538
---
header: 
  seq: 189
  stamp: 
    secs: 1723687242
    nsecs:  62523008
  frame_id: "map"
pose: 
  position: 
    x: 0.777448177338
    y: -2.52862262726
    z: 0.30306828022
  orientation: 
    x: -0.0707750742885
    y: 0.0440625281428
    z: -0.929632405402
    w: -0.358933309365
---
header: 
  seq: 190
  stamp: 
    secs: 1723687242
    nsecs:  92523520
  frame_id: "map"
pose: 
  position: 
    x: 0.778864562511
    y: -2.52587366104
    z: 0.302665293217
  orientation: 
    x: -0.0705058389031
    y: 0.0453320873675
    z: -0.929354320496
    w: -0.359547641829
---
header: 
  seq: 191
  stamp: 
    secs: 1723687242
    nsecs: 132523520
  frame_id: "map"
pose: 
  position: 
    x: 0.780568182468
    y: -2.52304625511
    z: 0.302547693253
  orientation: 
    x: -0.0710835154626
    y: 0.0464982577386
    z: -0.928982248117
    w: -0.360245930815
---
header: 
  seq: 192
  stamp: 
    secs: 1723687242
    nsecs: 162523520
  frame_id: "map"
pose: 
  position: 
    x: 0.781921088696
    y: -2.52086997032
    z: 0.302424162626
  orientation: 
    x: -0.071877302622
    y: 0.0472895608681
    z: -0.928649435528
    w: -0.360843172732
---
header: 
  seq: 193
  stamp: 
    secs: 1723687242
    nsecs: 192523520
  frame_id: "map"
pose: 
  position: 
    x: 0.78324341774
    y: -2.51863241196
    z: 0.302357405424
  orientation: 
    x: -0.0732477640362
    y: 0.048237102365
    z: -0.928116341114
    w: -0.361812402734
---
header: 
  seq: 194
  stamp: 
    secs: 1723687242
    nsecs: 232523520
  frame_id: "map"
pose: 
  position: 
    x: 0.784981012344
    y: -2.51550960541
    z: 0.302540391684
  orientation: 
    x: -0.0751327093959
    y: 0.0489374130828
    z: -0.927359341568
    w: -0.363269714315
---
header: 
  seq: 195
  stamp: 
    secs: 1723687242
    nsecs: 262523520
  frame_id: "map"
pose: 
  position: 
    x: 0.78620326519
    y: -2.5131778717
    z: 0.302687734365
  orientation: 
    x: -0.0756700619581
    y: 0.0489409310276
    z: -0.9271101694
    w: -0.363793431054
---
header: 
  seq: 196
  stamp: 
    secs: 1723687242
    nsecs: 293523264
  frame_id: "map"
pose: 
  position: 
    x: 0.787340402603
    y: -2.51098704338
    z: 0.302799344063
  orientation: 
    x: -0.0768198859374
    y: 0.0483325465377
    z: -0.926455439182
    w: -0.365298516088
---
header: 
  seq: 197
  stamp: 
    secs: 1723687242
    nsecs: 333523264
  frame_id: "map"
pose: 
  position: 
    x: 0.788730740547
    y: -2.50806736946
    z: 0.303302466869
  orientation: 
    x: -0.0770491107927
    y: 0.047440731077
    z: -0.926109244968
    w: -0.366244038488
---
header: 
  seq: 198
  stamp: 
    secs: 1723687242
    nsecs: 363523264
  frame_id: "map"
pose: 
  position: 
    x: 0.78955334425
    y: -2.50552368164
    z: 0.303630203009
  orientation: 
    x: -0.0768049580505
    y: 0.0469990070799
    z: -0.926022464607
    w: -0.366571224473
---
header: 
  seq: 199
  stamp: 
    secs: 1723687242
    nsecs: 393524800
  frame_id: "map"
pose: 
  position: 
    x: 0.790195524693
    y: -2.50282812119
    z: 0.303915172815
  orientation: 
    x: -0.076042330583
    y: 0.0463056505921
    z: -0.925888859097
    w: -0.367155464087
---
header: 
  seq: 200
  stamp: 
    secs: 1723687242
    nsecs: 423524800
  frame_id: "map"
pose: 
  position: 
    x: 0.7906883955
    y: -2.50022959709
    z: 0.304194569588
  orientation: 
    x: -0.0752052599273
    y: 0.0458369486607
    z: -0.925565803503
    w: -0.368199989433
---
header: 
  seq: 201
  stamp: 
    secs: 1723687242
    nsecs: 463524800
  frame_id: "map"
pose: 
  position: 
    x: 0.79108864069
    y: -2.49679899216
    z: 0.304425060749
  orientation: 
    x: -0.0747316083754
    y: 0.0456080754682
    z: -0.925245129206
    w: -0.36912943281
---
header: 
  seq: 202
  stamp: 
    secs: 1723687242
    nsecs: 493525312
  frame_id: "map"
pose: 
  position: 
    x: 0.791460871696
    y: -2.49436759949
    z: 0.304208397865
  orientation: 
    x: -0.0740798178999
    y: 0.045387594767
    z: -0.924730347599
    w: -0.370575322595
---
header: 
  seq: 203
  stamp: 
    secs: 1723687242
    nsecs: 523525312
  frame_id: "map"
pose: 
  position: 
    x: 0.792058587074
    y: -2.49211382866
    z: 0.303802996874
  orientation: 
    x: -0.0732106945658
    y: 0.045290459452
    z: -0.924131799129
    w: -0.372249290051
---
header: 
  seq: 204
  stamp: 
    secs: 1723687242
    nsecs: 563525312
  frame_id: "map"
pose: 
  position: 
    x: 0.793310821056
    y: -2.48944735527
    z: 0.303096055984
  orientation: 
    x: -0.0726472689095
    y: 0.0453066504273
    z: -0.923825623348
    w: -0.37311677756
---
header: 
  seq: 205
  stamp: 
    secs: 1723687242
    nsecs: 593524800
  frame_id: "map"
pose: 
  position: 
    x: 0.794466614723
    y: -2.48773980141
    z: 0.302300065756
  orientation: 
    x: -0.0715614014557
    y: 0.0457570066258
    z: -0.923121075555
    w: -0.375010540831
---
header: 
  seq: 206
  stamp: 
    secs: 1723687242
    nsecs: 633524800
  frame_id: "map"
pose: 
  position: 
    x: 0.796106874943
    y: -2.48560929298
    z: 0.300904810429
  orientation: 
    x: -0.0713512164393
    y: 0.0466480950534
    z: -0.922519724321
    w: -0.376417739809
---
header: 
  seq: 207
  stamp: 
    secs: 1723687242
    nsecs: 663524800
  frame_id: "map"
pose: 
  position: 
    x: 0.797243058681
    y: -2.48402142525
    z: 0.300001680851
  orientation: 
    x: -0.0713808654301
    y: 0.0474019454396
    z: -0.922065318074
    w: -0.377430170331
---
header: 
  seq: 208
  stamp: 
    secs: 1723687242
    nsecs: 693524544
  frame_id: "map"
pose: 
  position: 
    x: 0.798117041588
    y: -2.48241257668
    z: 0.299516022205
  orientation: 
    x: -0.0712575424343
    y: 0.0483407572706
    z: -0.9214240327
    w: -0.378897618229
