header: 
  seq: 21091
  stamp: 
    secs: 1723792371
    nsecs: 325033472
  frame_id: "map"
pose: 
  position: 
    x: 4.7510099411
    y: -0.250010251999
    z: -2.59734463692
  orientation: 
    x: -0.0981008992268
    y: -0.257553722499
    z: 0.956164436596
    w: 0.0989539303673
---
header: 
  seq: 21092
  stamp: 
    secs: 1723792371
    nsecs: 355033472
  frame_id: "map"
pose: 
  position: 
    x: 4.75667333603
    y: -0.268453329802
    z: -2.59742069244
  orientation: 
    x: -0.0997424188776
    y: -0.256934685393
    z: 0.955847534442
    w: 0.101939065207
---
header: 
  seq: 21093
  stamp: 
    secs: 1723792371
    nsecs: 395033472
  frame_id: "map"
pose: 
  position: 
    x: 4.76391363144
    y: -0.292525410652
    z: -2.59811782837
  orientation: 
    x: -0.100290638741
    y: -0.256614353539
    z: 0.955759784703
    w: 0.103025442374
---
header: 
  seq: 21094
  stamp: 
    secs: 1723792371
    nsecs: 425036544
  frame_id: "map"
pose: 
  position: 
    x: 4.76875638962
    y: -0.310227572918
    z: -2.59957385063
  orientation: 
    x: -0.100983201024
    y: -0.256044986494
    z: 0.95571114724
    w: 0.104209768817
---
header: 
  seq: 21095
  stamp: 
    secs: 1723792371
    nsecs: 455036544
  frame_id: "map"
pose: 
  position: 
    x: 4.77359008789
    y: -0.327540755272
    z: -2.60105848312
  orientation: 
    x: -0.101042359395
    y: -0.255416634935
    z: 0.955895876877
    w: 0.103999666777
---
header: 
  seq: 21096
  stamp: 
    secs: 1723792371
    nsecs: 495036544
  frame_id: "map"
pose: 
  position: 
    x: 4.78011083603
    y: -0.351248621941
    z: -2.60353803635
  orientation: 
    x: -0.100897021256
    y: -0.25516790004
    z: 0.956029861708
    w: 0.103518813383
---
header: 
  seq: 21097
  stamp: 
    secs: 1723792371
    nsecs: 525039616
  frame_id: "map"
pose: 
  position: 
    x: 4.78394460678
    y: -0.368078708649
    z: -2.60601210594
  orientation: 
    x: -0.100450501738
    y: -0.254014609483
    z: 0.956646933717
    w: 0.101059418331
---
header: 
  seq: 21098
  stamp: 
    secs: 1723792371
    nsecs: 555039616
  frame_id: "map"
pose: 
  position: 
    x: 4.78786277771
    y: -0.384338706732
    z: -2.60808730125
  orientation: 
    x: -0.100481353231
    y: -0.252182654565
    z: 0.957427451205
    w: 0.0981842867666
---
header: 
  seq: 21099
  stamp: 
    secs: 1723792371
    nsecs: 585039616
  frame_id: "map"
pose: 
  position: 
    x: 4.79185199738
    y: -0.400090634823
    z: -2.60955619812
  orientation: 
    x: -0.100828474675
    y: -0.251025512839
    z: 0.957837118572
    w: 0.0967878773818
---
header: 
  seq: 21100
  stamp: 
    secs: 1723792371
    nsecs: 625042944
  frame_id: "map"
pose: 
  position: 
    x: 4.7963142395
    y: -0.421788573265
    z: -2.6106030941
  orientation: 
    x: -0.102165836325
    y: -0.248568878407
    z: 0.9585696308
    w: 0.0944461984785
---
header: 
  seq: 21101
  stamp: 
    secs: 1723792371
    nsecs: 655042944
  frame_id: "map"
pose: 
  position: 
    x: 4.79989099503
    y: -0.437376588583
    z: -2.61022186279
  orientation: 
    x: -0.103733224938
    y: -0.246368359836
    z: 0.959121459487
    w: 0.09288748158
---
header: 
  seq: 21102
  stamp: 
    secs: 1723792371
    nsecs: 695042944
  frame_id: "map"
pose: 
  position: 
    x: 4.80511808395
    y: -0.457527786493
    z: -2.60857820511
  orientation: 
    x: -0.104867981419
    y: -0.244985358417
    z: 0.959447086039
    w: 0.0919029311988
---
header: 
  seq: 21103
  stamp: 
    secs: 1723792371
    nsecs: 725046016
  frame_id: "map"
pose: 
  position: 
    x: 4.80892515182
    y: -0.474632143974
    z: -2.60693192482
  orientation: 
    x: -0.106512003539
    y: -0.243144931983
    z: 0.959889164333
    w: 0.0902699515532
---
header: 
  seq: 21104
  stamp: 
    secs: 1723792371
    nsecs: 755046016
  frame_id: "map"
pose: 
  position: 
    x: 4.81269407272
    y: -0.490354448557
    z: -2.60526633263
  orientation: 
    x: -0.108765052888
    y: -0.241391681037
    z: 0.96030738751
    w: 0.0878069318731
---
header: 
  seq: 21105
  stamp: 
    secs: 1723792371
    nsecs: 795046016
  frame_id: "map"
pose: 
  position: 
    x: 4.81812810898
    y: -0.510734438896
    z: -2.60293364525
  orientation: 
    x: -0.109387461741
    y: -0.241024576718
    z: 0.960411237345
    w: 0.086901364686
---
header: 
  seq: 21106
  stamp: 
    secs: 1723792371
    nsecs: 825049088
  frame_id: "map"
pose: 
  position: 
    x: 4.82120132446
    y: -0.526694715023
    z: -2.60321497917
  orientation: 
    x: -0.111019045273
    y: -0.240641846455
    z: 0.960549268274
    w: 0.0843294375493
---
header: 
  seq: 21107
  stamp: 
    secs: 1723792371
    nsecs: 855049088
  frame_id: "map"
pose: 
  position: 
    x: 4.82481765747
    y: -0.542869150639
    z: -2.60339689255
  orientation: 
    x: -0.112355116176
    y: -0.240418115178
    z: 0.960588085522
    w: 0.082740627801
---
header: 
  seq: 21108
  stamp: 
    secs: 1723792371
    nsecs: 885049088
  frame_id: "map"
pose: 
  position: 
    x: 4.82910823822
    y: -0.559478223324
    z: -2.60402154922
  orientation: 
    x: -0.113018249422
    y: -0.240169601554
    z: 0.960608737477
    w: 0.08231856926
---
header: 
  seq: 21109
  stamp: 
    secs: 1723792371
    nsecs: 925052416
  frame_id: "map"
pose: 
  position: 
    x: 4.83487939835
    y: -0.583243429661
    z: -2.60610222816
  orientation: 
    x: -0.114167283148
    y: -0.239589297402
    z: 0.960635964341
    w: 0.0821068234931
---
header: 
  seq: 21110
  stamp: 
    secs: 1723792371
    nsecs: 957052416
  frame_id: "map"
pose: 
  position: 
    x: 4.8404378891
    y: -0.602975189686
    z: -2.60800361633
  orientation: 
    x: -0.114611510931
    y: -0.239065496369
    z: 0.960681693672
    w: 0.082478263669
---
header: 
  seq: 21111
  stamp: 
    secs: 1723792371
    nsecs: 988052416
  frame_id: "map"
pose: 
  position: 
    x: 4.84567308426
    y: -0.6216558218
    z: -2.61019349098
  orientation: 
    x: -0.114658794427
    y: -0.238743415421
    z: 0.960713388102
    w: 0.0829753436004
---
header: 
  seq: 21112
  stamp: 
    secs: 1723792372
    nsecs:  25055488
  frame_id: "map"
pose: 
  position: 
    x: 4.85235977173
    y: -0.647917449474
    z: -2.61404323578
  orientation: 
    x: -0.114123998334
    y: -0.237716481115
    z: 0.960874136182
    w: 0.0847789758355
---
header: 
  seq: 21113
  stamp: 
    secs: 1723792372
    nsecs:  55055488
  frame_id: "map"
pose: 
  position: 
    x: 4.85785245895
    y: -0.668504238129
    z: -2.61739087105
  orientation: 
    x: -0.113521978018
    y: -0.236688556359
    z: 0.961053850344
    w: 0.0864114075721
---
header: 
  seq: 21114
  stamp: 
    secs: 1723792372
    nsecs:  95055488
  frame_id: "map"
pose: 
  position: 
    x: 4.86626052856
    y: -0.697016477585
    z: -2.62232327461
  orientation: 
    x: -0.11324338735
    y: -0.23577565562
    z: 0.961193904322
    w: 0.087704852206
---
header: 
  seq: 21115
  stamp: 
    secs: 1723792372
    nsecs: 125058048
  frame_id: "map"
pose: 
  position: 
    x: 4.87310314178
    y: -0.719801843166
    z: -2.62678170204
  orientation: 
    x: -0.113158071592
    y: -0.234234419127
    z: 0.961402067607
    w: 0.0896417106293
---
header: 
  seq: 21116
  stamp: 
    secs: 1723792372
    nsecs: 155058048
  frame_id: "map"
pose: 
  position: 
    x: 4.8803319931
    y: -0.742876768112
    z: -2.63089966774
  orientation: 
    x: -0.113376376462
    y: -0.232034580174
    z: 0.961647657293
    w: 0.0924098734927
---
header: 
  seq: 21117
  stamp: 
    secs: 1723792372
    nsecs: 195058048
  frame_id: "map"
pose: 
  position: 
    x: 4.89031171799
    y: -0.773727297783
    z: -2.63544392586
  orientation: 
    x: -0.113374132142
    y: -0.231347765667
    z: 0.961718548292
    w: 0.0933917264756
---
header: 
  seq: 21118
  stamp: 
    secs: 1723792372
    nsecs: 225061120
  frame_id: "map"
pose: 
  position: 
    x: 4.89871263504
    y: -0.798603951931
    z: -2.63807034492
  orientation: 
    x: -0.113016315935
    y: -0.229558895366
    z: 0.961873775135
    w: 0.0965864154459
---
header: 
  seq: 21119
  stamp: 
    secs: 1723792372
    nsecs: 255061120
  frame_id: "map"
pose: 
  position: 
    x: 4.90642786026
    y: -0.821616232395
    z: -2.63961529732
  orientation: 
    x: -0.112163938071
    y: -0.22839479941
    z: 0.961924646382
    w: 0.0997805143603
---
header: 
  seq: 21120
  stamp: 
    secs: 1723792372
    nsecs: 285061120
  frame_id: "map"
pose: 
  position: 
    x: 4.91417789459
    y: -0.844455182552
    z: -2.63998484612
  orientation: 
    x: -0.111461655671
    y: -0.227970896944
    z: 0.961926795871
    w: 0.101500653689
---
header: 
  seq: 21121
  stamp: 
    secs: 1723792372
    nsecs: 325065984
  frame_id: "map"
pose: 
  position: 
    x: 4.92450428009
    y: -0.874953329563
    z: -2.64048933983
  orientation: 
    x: -0.109779221967
    y: -0.227361342879
    z: 0.961843977313
    w: 0.105410996147
---
header: 
  seq: 21122
  stamp: 
    secs: 1723792372
    nsecs: 355065984
  frame_id: "map"
pose: 
  position: 
    x: 4.93225193024
    y: -0.897912025452
    z: -2.64041185379
  orientation: 
    x: -0.108496819807
    y: -0.227136215488
    z: 0.961557926653
    w: 0.109744914432
---
header: 
  seq: 21123
  stamp: 
    secs: 1723792372
    nsecs: 396065984
  frame_id: "map"
pose: 
  position: 
    x: 4.94257116318
    y: -0.929051160812
    z: -2.63981056213
  orientation: 
    x: -0.108303718752
    y: -0.226870253069
    z: 0.961229265528
    w: 0.113307418949
---
header: 
  seq: 21124
  stamp: 
    secs: 1723792372
    nsecs: 425069056
  frame_id: "map"
pose: 
  position: 
    x: 4.9503326416
    y: -0.952938497066
    z: -2.63920021057
  orientation: 
    x: -0.109234226337
    y: -0.226351667708
    z: 0.960562460238
    w: 0.118965422628
---
header: 
  seq: 21125
  stamp: 
    secs: 1723792372
    nsecs: 455069056
  frame_id: "map"
pose: 
  position: 
    x: 4.95845127106
    y: -0.978241205215
    z: -2.63828921318
  orientation: 
    x: -0.111069337
    y: -0.226567907383
    z: 0.95935238207
    w: 0.12638735621
---
header: 
  seq: 21126
  stamp: 
    secs: 1723792372
    nsecs: 495069056
  frame_id: "map"
pose: 
  position: 
    x: 4.96770334244
    y: -1.00888311863
    z: -2.63704180717
  orientation: 
    x: -0.111435082083
    y: -0.227084064031
    z: 0.958884636345
    w: 0.128667247833
---
header: 
  seq: 21127
  stamp: 
    secs: 1723792372
    nsecs: 525072128
  frame_id: "map"
pose: 
  position: 
    x: 4.97499704361
    y: -1.03219926357
    z: -2.63523006439
  orientation: 
    x: -0.111689812367
    y: -0.229637325383
    z: 0.957375399847
    w: 0.13499850527
---
header: 
  seq: 21128
  stamp: 
    secs: 1723792372
    nsecs: 555072128
  frame_id: "map"
pose: 
  position: 
    x: 4.98222208023
    y: -1.05610692501
    z: -2.63424730301
  orientation: 
    x: -0.111489419907
    y: -0.232273721392
    z: 0.955931195936
    w: 0.140764194146
---
header: 
  seq: 21129
  stamp: 
    secs: 1723792372
    nsecs: 585072128
  frame_id: "map"
pose: 
  position: 
    x: 4.98940229416
    y: -1.08058786392
    z: -2.6337697506
  orientation: 
    x: -0.111334040282
    y: -0.233675931237
    z: 0.955167410747
    w: 0.143720879863
---
header: 
  seq: 21130
  stamp: 
    secs: 1723792372
    nsecs: 625075200
  frame_id: "map"
pose: 
  position: 
    x: 4.99818992615
    y: -1.11346960068
    z: -2.63453793526
  orientation: 
    x: -0.111138010021
    y: -0.23693028434
    z: 0.953537634262
    w: 0.149259776547
---
header: 
  seq: 21131
  stamp: 
    secs: 1723792372
    nsecs: 656075200
  frame_id: "map"
pose: 
  position: 
    x: 5.00449085236
    y: -1.13850140572
    z: -2.63548970222
  orientation: 
    x: -0.111165674159
    y: -0.2407726492
    z: 0.951868281886
    w: 0.153680475194
---
header: 
  seq: 21132
  stamp: 
    secs: 1723792372
    nsecs: 685075200
  frame_id: "map"
pose: 
  position: 
    x: 5.01115608215
    y: -1.16607689857
    z: -2.63683438301
  orientation: 
    x: -0.111260683692
    y: -0.242861183594
    z: 0.951056238556
    w: 0.155343463395
---
header: 
  seq: 21133
  stamp: 
    secs: 1723792372
    nsecs: 726078528
  frame_id: "map"
pose: 
  position: 
    x: 5.01832437515
    y: -1.2000374794
    z: -2.63865160942
  orientation: 
    x: -0.111648487382
    y: -0.247200654727
    z: 0.949530185465
    w: 0.157540325727
---
header: 
  seq: 21134
  stamp: 
    secs: 1723792372
    nsecs: 756078528
  frame_id: "map"
pose: 
  position: 
    x: 5.0233798027
    y: -1.22544550896
    z: -2.64006328583
  orientation: 
    x: -0.111992205468
    y: -0.251060705458
    z: 0.948403010149
    w: 0.157981181763
---
header: 
  seq: 21135
  stamp: 
    secs: 1723792372
    nsecs: 796078528
  frame_id: "map"
pose: 
  position: 
    x: 5.03015518188
    y: -1.25937616825
    z: -2.64184165001
  orientation: 
    x: -0.112178004581
    y: -0.253803269379
    z: 0.947720357643
    w: 0.157563885816
---
header: 
  seq: 21136
  stamp: 
    secs: 1723792372
    nsecs: 826081600
  frame_id: "map"
pose: 
  position: 
    x: 5.03554582596
    y: -1.2852036953
    z: -2.64278745651
  orientation: 
    x: -0.112427471778
    y: -0.25727920427
    z: 0.946944392015
    w: 0.156409525782
---
header: 
  seq: 21137
  stamp: 
    secs: 1723792372
    nsecs: 856081600
  frame_id: "map"
pose: 
  position: 
    x: 5.04123926163
    y: -1.3109767437
    z: -2.6432299614
  orientation: 
    x: -0.112787959041
    y: -0.261029299141
    z: 0.946140019411
    w: 0.154795933686
---
header: 
  seq: 21138
  stamp: 
    secs: 1723792372
    nsecs: 886081600
  frame_id: "map"
pose: 
  position: 
    x: 5.04729795456
    y: -1.33657836914
    z: -2.64278960228
  orientation: 
    x: -0.112781099642
    y: -0.262205775734
    z: 0.945906062255
    w: 0.154241239013
---
header: 
  seq: 21139
  stamp: 
    secs: 1723792372
    nsecs: 926084672
  frame_id: "map"
pose: 
  position: 
    x: 5.05680990219
    y: -1.37348687649
    z: -2.6419634819
  orientation: 
    x: -0.111768152821
    y: -0.265700033967
    z: 0.945289580302
    w: 0.152771536259
---
header: 
  seq: 21140
  stamp: 
    secs: 1723792372
    nsecs: 956084672
  frame_id: "map"
pose: 
  position: 
    x: 5.06400871277
    y: -1.39907050133
    z: -2.64095306396
  orientation: 
    x: -0.109920087271
    y: -0.2682812018
    z: 0.944912113127
    w: 0.151934499847
---
header: 
  seq: 21141
  stamp: 
    secs: 1723792372
    nsecs: 986084672
  frame_id: "map"
pose: 
  position: 
    x: 5.07155990601
    y: -1.42407917976
    z: -2.63981342316
  orientation: 
    x: -0.107993333555
    y: -0.270048471841
    z: 0.944741586978
    w: 0.151243544413
---
header: 
  seq: 21142
  stamp: 
    secs: 1723792373
    nsecs:  26088000
  frame_id: "map"
pose: 
  position: 
    x: 5.08109283447
    y: -1.45679247379
    z: -2.63935446739
  orientation: 
    x: -0.104710267912
    y: -0.272234750046
    z: 0.944614092761
    w: 0.150426612048
---
header: 
  seq: 21143
  stamp: 
    secs: 1723792373
    nsecs:  56088000
  frame_id: "map"
pose: 
  position: 
    x: 5.08828830719
    y: -1.48107755184
    z: -2.6392724514
  orientation: 
    x: -0.101048971181
    y: -0.274273645989
    z: 0.944350253489
    w: 0.150883146711
---
header: 
  seq: 21144
  stamp: 
    secs: 1723792373
    nsecs:  96088000
  frame_id: "map"
pose: 
  position: 
    x: 5.09849977493
    y: -1.51396369934
    z: -2.63935351372
  orientation: 
    x: -0.0996094929857
    y: -0.275002191144
    z: 0.944125905815
    w: 0.151914606535
---
header: 
  seq: 21145
  stamp: 
    secs: 1723792373
    nsecs: 126091072
  frame_id: "map"
pose: 
  position: 
    x: 5.10624647141
    y: -1.54042470455
    z: -2.63948130608
  orientation: 
    x: -0.0976264732266
    y: -0.275700701401
    z: 0.943611840704
    w: 0.155096482863
---
header: 
  seq: 21146
  stamp: 
    secs: 1723792373
    nsecs: 156091072
  frame_id: "map"
pose: 
  position: 
    x: 5.11402225494
    y: -1.56771945953
    z: -2.63994169235
  orientation: 
    x: -0.0962637181002
    y: -0.275436208854
    z: 0.943201878308
    w: 0.158866392022
---
header: 
  seq: 21147
  stamp: 
    secs: 1723792373
    nsecs: 186091072
  frame_id: "map"
pose: 
  position: 
    x: 5.12307310104
    y: -1.59835231304
    z: -2.64135551453
  orientation: 
    x: -0.0959174817397
    y: -0.275166764051
    z: 0.943140976112
    w: 0.159900549244
---
header: 
  seq: 21148
  stamp: 
    secs: 1723792373
    nsecs: 226094144
  frame_id: "map"
pose: 
  position: 
    x: 5.13408708572
    y: -1.63681864738
    z: -2.64369392395
  orientation: 
    x: -0.0953535569067
    y: -0.274096191952
    z: 0.943064943197
    w: 0.162503875783
---
header: 
  seq: 21149
  stamp: 
    secs: 1723792373
    nsecs: 256094144
  frame_id: "map"
pose: 
  position: 
    x: 5.14268350601
    y: -1.66639316082
    z: -2.64568114281
  orientation: 
    x: -0.0954438670663
    y: -0.273192152588
    z: 0.942991523387
    w: 0.164388682848
---
header: 
  seq: 21150
  stamp: 
    secs: 1723792373
    nsecs: 286094144
  frame_id: "map"
pose: 
  position: 
    x: 5.15176820755
    y: -1.69674611092
    z: -2.64773845673
  orientation: 
    x: -0.0959843002997
    y: -0.272553095729
    z: 0.942833514852
    w: 0.166032283499
---
header: 
  seq: 21151
  stamp: 
    secs: 1723792373
    nsecs: 326097216
  frame_id: "map"
pose: 
  position: 
    x: 5.16410064697
    y: -1.73779630661
    z: -2.65022325516
  orientation: 
    x: -0.0973982006267
    y: -0.271534490695
    z: 0.942461273886
    w: 0.168965535568
---
header: 
  seq: 21152
  stamp: 
    secs: 1723792373
    nsecs: 356097216
  frame_id: "map"
pose: 
  position: 
    x: 5.17360925674
    y: -1.76888918877
    z: -2.65143561363
  orientation: 
    x: -0.099541494314
    y: -0.270443772402
    z: 0.941765050095
    w: 0.173292541771
---
header: 
  seq: 21153
  stamp: 
    secs: 1723792373
    nsecs: 396097216
  frame_id: "map"
pose: 
  position: 
    x: 5.18655061722
    y: -1.81038105488
    z: -2.65181970596
  orientation: 
    x: -0.100657980136
    y: -0.270053940395
    z: 0.941292457483
    w: 0.17580546332
---
header: 
  seq: 21154
  stamp: 
    secs: 1723792373
    nsecs: 426101568
  frame_id: "map"
pose: 
  position: 
    x: 5.19676113129
    y: -1.84394395351
    z: -2.65169358253
  orientation: 
    x: -0.102659918562
    y: -0.269777072479
    z: 0.940082042141
    w: 0.181457987908
---
header: 
  seq: 21155
  stamp: 
    secs: 1723792373
    nsecs: 456101568
  frame_id: "map"
pose: 
  position: 
    x: 5.20593738556
    y: -1.87436103821
    z: -2.65030097961
  orientation: 
    x: -0.103662444574
    y: -0.270902835876
    z: 0.938245661804
    w: 0.188575958418
---
header: 
  seq: 21156
  stamp: 
    secs: 1723792373
    nsecs: 486101568
  frame_id: "map"
pose: 
  position: 
    x: 5.21480894089
    y: -1.90427529812
    z: -2.64794039726
  orientation: 
    x: -0.103662054716
    y: -0.271620607243
    z: 0.937534855204
    w: 0.19106249604
---
header: 
  seq: 21157
  stamp: 
    secs: 1723792373
    nsecs: 526104640
  frame_id: "map"
pose: 
  position: 
    x: 5.22509336472
    y: -1.94378507137
    z: -2.64557790756
  orientation: 
    x: -0.103370983311
    y: -0.274269162618
    z: 0.935168267513
    w: 0.198874625146
---
header: 
  seq: 21158
  stamp: 
    secs: 1723792373
    nsecs: 556104640
  frame_id: "map"
pose: 
  position: 
    x: 5.23211050034
    y: -1.97294354439
    z: -2.64361071587
  orientation: 
    x: -0.103286268146
    y: -0.276456120441
    z: 0.933123175983
    w: 0.205390485779
---
header: 
  seq: 21159
  stamp: 
    secs: 1723792373
    nsecs: 586104640
  frame_id: "map"
pose: 
  position: 
    x: 5.23837709427
    y: -2.00149941444
    z: -2.64167785645
  orientation: 
    x: -0.1035895516
    y: -0.278090538348
    z: 0.931506928636
    w: 0.210308685825
---
header: 
  seq: 21160
  stamp: 
    secs: 1723792373
    nsecs: 626108224
  frame_id: "map"
pose: 
  position: 
    x: 5.24558401108
    y: -2.0376739502
    z: -2.63873553276
  orientation: 
    x: -0.104481816188
    y: -0.280435868222
    z: 0.929095918167
    w: 0.217301733077
---
header: 
  seq: 21161
  stamp: 
    secs: 1723792373
    nsecs: 656108224
  frame_id: "map"
pose: 
  position: 
    x: 5.25107479095
    y: -2.06703925133
    z: -2.63680887222
  orientation: 
    x: -0.10618284192
    y: -0.282882598145
    z: 0.926257454361
    w: 0.225277391955
---
header: 
  seq: 21162
  stamp: 
    secs: 1723792373
    nsecs: 696108224
  frame_id: "map"
pose: 
  position: 
    x: 5.25715827942
    y: -2.10334277153
    z: -2.63473558426
  orientation: 
    x: -0.107279197354
    y: -0.283800103427
    z: 0.924876807897
    w: 0.229241471645
---
header: 
  seq: 21163
  stamp: 
    secs: 1723792373
    nsecs: 726110528
  frame_id: "map"
pose: 
  position: 
    x: 5.26111650467
    y: -2.13091421127
    z: -2.63307070732
  orientation: 
    x: -0.109984840636
    y: -0.284834107866
    z: 0.922289771115
    w: 0.236969243833
---
header: 
  seq: 21164
  stamp: 
    secs: 1723792373
    nsecs: 756110528
  frame_id: "map"
pose: 
  position: 
    x: 5.26491641998
    y: -2.15869259834
    z: -2.63213634491
  orientation: 
    x: -0.113723424149
    y: -0.284712398304
    z: 0.919818258845
    w: 0.244826786168
---
header: 
  seq: 21165
  stamp: 
    secs: 1723792373
    nsecs: 786110528
  frame_id: "map"
pose: 
  position: 
    x: 5.26847267151
    y: -2.18661856651
    z: -2.63160514832
  orientation: 
    x: -0.115044548726
    y: -0.284448190248
    z: 0.919123868443
    w: 0.247114243151
---
header: 
  seq: 21166
  stamp: 
    secs: 1723792373
    nsecs: 826113600
  frame_id: "map"
pose: 
  position: 
    x: 5.27141904831
    y: -2.22277402878
    z: -2.63271856308
  orientation: 
    x: -0.118849582015
    y: -0.283181366617
    z: 0.917531434065
    w: 0.252624732859
---
header: 
  seq: 21167
  stamp: 
    secs: 1723792373
    nsecs: 856113600
  frame_id: "map"
pose: 
  position: 
    x: 5.27365970612
    y: -2.25022935867
    z: -2.63377594948
  orientation: 
    x: -0.121326947428
    y: -0.281904933505
    z: 0.916845009417
    w: 0.255352329381
---
header: 
  seq: 21168
  stamp: 
    secs: 1723792373
    nsecs: 886113600
  frame_id: "map"
pose: 
  position: 
    x: 5.27635288239
    y: -2.28031873703
    z: -2.6350672245
  orientation: 
    x: -0.122656085174
    y: -0.28093311674
    z: 0.916699750304
    w: 0.256308072391
---
header: 
  seq: 21169
  stamp: 
    secs: 1723792373
    nsecs: 926116672
  frame_id: "map"
pose: 
  position: 
    x: 5.27921915054
    y: -2.31621432304
    z: -2.63720870018
  orientation: 
    x: -0.123622860122
    y: -0.27917237946
    z: 0.91706202354
    w: 0.256471201768
---
header: 
  seq: 21170
  stamp: 
    secs: 1723792373
    nsecs: 956116672
  frame_id: "map"
pose: 
  position: 
    x: 5.2816400528
    y: -2.34311413765
    z: -2.63872814178
  orientation: 
    x: -0.123250192419
    y: -0.277340514105
    z: 0.91778968888
    w: 0.256034855446
---
header: 
  seq: 21171
  stamp: 
    secs: 1723792373
    nsecs: 986116672
  frame_id: "map"
pose: 
  position: 
    x: 5.28419351578
    y: -2.36980319023
    z: -2.64001441002
  orientation: 
    x: -0.122454470456
    y: -0.275858325347
    z: 0.918350979535
    w: 0.256005205138
---
header: 
  seq: 21172
  stamp: 
    secs: 1723792374
    nsecs:  26120512
  frame_id: "map"
pose: 
  position: 
    x: 5.28604745865
    y: -2.40530109406
    z: -2.641964674
  orientation: 
    x: -0.121010345571
    y: -0.273829423474
    z: 0.918928559947
    w: 0.25679596431
---
header: 
  seq: 21173
  stamp: 
    secs: 1723792374
    nsecs:  57120512
  frame_id: "map"
pose: 
  position: 
    x: 5.28792905807
    y: -2.4315559864
    z: -2.64262270927
  orientation: 
    x: -0.119012616561
    y: -0.27140400932
    z: 0.919305879608
    w: 0.258944926748
---
header: 
  seq: 21174
  stamp: 
    secs: 1723792374
    nsecs:  87120512
  frame_id: "map"
pose: 
  position: 
    x: 5.29043340683
    y: -2.45748305321
    z: -2.6429605484
  orientation: 
    x: -0.117696244042
    y: -0.27022739575
    z: 0.919453288211
    w: 0.260250825776
---
header: 
  seq: 21175
  stamp: 
    secs: 1723792374
    nsecs: 127123072
  frame_id: "map"
pose: 
  position: 
    x: 5.29483604431
    y: -2.49356579781
    z: -2.64274597168
  orientation: 
    x: -0.114324706895
    y: -0.267974941725
    z: 0.919894144246
    w: 0.262514870184
---
header: 
  seq: 21176
  stamp: 
    secs: 1723792374
    nsecs: 157123072
  frame_id: "map"
pose: 
  position: 
    x: 5.29738712311
    y: -2.5184431076
    z: -2.64225792885
  orientation: 
    x: -0.110022277574
    y: -0.266436913661
    z: 0.920405427665
    w: 0.264122055958
---
header: 
  seq: 21177
  stamp: 
    secs: 1723792374
    nsecs: 187123072
  frame_id: "map"
pose: 
  position: 
    x: 5.30043792725
    y: -2.54317140579
    z: -2.64135050774
  orientation: 
    x: -0.107818013202
    y: -0.265892444867
    z: 0.920603054238
    w: 0.264889507923
---
header: 
  seq: 21178
  stamp: 
    secs: 1723792374
    nsecs: 227126400
  frame_id: "map"
pose: 
  position: 
    x: 5.30536794662
    y: -2.57656478882
    z: -2.64023256302
  orientation: 
    x: -0.104102078351
    y: -0.264806926442
    z: 0.920820110508
    w: 0.266702749639
---
header: 
  seq: 21179
  stamp: 
    secs: 1723792374
    nsecs: 257126400
  frame_id: "map"
pose: 
  position: 
    x: 5.30982446671
    y: -2.60218095779
    z: -2.63970065117
  orientation: 
    x: -0.101772864378
    y: -0.263565080087
    z: 0.92088314112
    w: 0.268607386797
---
header: 
  seq: 21180
  stamp: 
    secs: 1723792374
    nsecs: 287126400
  frame_id: "map"
pose: 
  position: 
    x: 5.3149638176
    y: -2.62837767601
    z: -2.6394701004
  orientation: 
    x: -0.101268693239
    y: -0.262767545809
    z: 0.920910789452
    w: 0.269483366897
---
header: 
  seq: 21181
  stamp: 
    secs: 1723792374
    nsecs: 327129216
  frame_id: "map"
pose: 
  position: 
    x: 5.32154083252
    y: -2.66424751282
    z: -2.6406981945
  orientation: 
    x: -0.101763607876
    y: -0.26086829818
    z: 0.920916268543
    w: 0.271118664619
---
header: 
  seq: 21182
  stamp: 
    secs: 1723792374
    nsecs: 357129216
  frame_id: "map"
pose: 
  position: 
    x: 5.32678222656
    y: -2.69153404236
    z: -2.6422150135
  orientation: 
    x: -0.104374452359
    y: -0.258236338126
    z: 0.920832881003
    w: 0.272922655102
---
header: 
  seq: 21183
  stamp: 
    secs: 1723792374
    nsecs: 387129216
  frame_id: "map"
pose: 
  position: 
    x: 5.33339929581
    y: -2.72219610214
    z: -2.6440217495
  orientation: 
    x: -0.106276144506
    y: -0.256647333448
    z: 0.920754740746
    w: 0.273949605213
---
header: 
  seq: 21184
  stamp: 
    secs: 1723792374
    nsecs: 427133568
  frame_id: "map"
pose: 
  position: 
    x: 5.34039258957
    y: -2.76070976257
    z: -2.64506745338
  orientation: 
    x: -0.110751365369
    y: -0.252948836856
    z: 0.920578356185
    w: 0.27620028907
---
header: 
  seq: 21185
  stamp: 
    secs: 1723792374
    nsecs: 457133568
  frame_id: "map"
pose: 
  position: 
    x: 5.34617519379
    y: -2.79046821594
    z: -2.64559936523
  orientation: 
    x: -0.115411895389
    y: -0.248828376553
    z: 0.920362943642
    w: 0.278740943245
---
header: 
  seq: 21186
  stamp: 
    secs: 1723792374
    nsecs: 487133568
  frame_id: "map"
pose: 
  position: 
    x: 5.35231637955
    y: -2.82085084915
    z: -2.64577126503
  orientation: 
    x: -0.117462971772
    y: -0.246711087471
    z: 0.920258756632
    w: 0.280107175487
---
header: 
  seq: 21187
  stamp: 
    secs: 1723792374
    nsecs: 527137152
  frame_id: "map"
pose: 
  position: 
    x: 5.35908126831
    y: -2.86170148849
    z: -2.64557862282
  orientation: 
    x: -0.120659299201
    y: -0.242270079312
    z: 0.920069116888
    w: 0.283230235888
---
header: 
  seq: 21188
  stamp: 
    secs: 1723792374
    nsecs: 557137152
  frame_id: "map"
pose: 
  position: 
    x: 5.36465215683
    y: -2.89344191551
    z: -2.64486169815
  orientation: 
    x: -0.122546793128
    y: -0.237422275039
    z: 0.919792738928
    w: 0.287392384692
---
header: 
  seq: 21189
  stamp: 
    secs: 1723792374
    nsecs: 587137152
  frame_id: "map"
pose: 
  position: 
    x: 5.37040901184
    y: -2.92586660385
    z: -2.64329624176
  orientation: 
    x: -0.122883952111
    y: -0.234862670588
    z: 0.919582679035
    w: 0.290011895621
---
header: 
  seq: 21190
  stamp: 
    secs: 1723792374
    nsecs: 627140224
  frame_id: "map"
pose: 
  position: 
    x: 5.37788438797
    y: -2.97105145454
    z: -2.64135313034
  orientation: 
    x: -0.122198660159
    y: -0.230055469535
    z: 0.918944259648
    w: 0.296113979569
---
header: 
  seq: 21191
  stamp: 
    secs: 1723792374
    nsecs: 657140224
  frame_id: "map"
pose: 
  position: 
    x: 5.38255310059
    y: -3.00207614899
    z: -2.63945174217
  orientation: 
    x: -0.119875615431
    y: -0.2262341781
    z: 0.918056668091
    w: 0.302687771045
---
header: 
  seq: 21192
  stamp: 
    secs: 1723792374
    nsecs: 687140224
  frame_id: "map"
pose: 
  position: 
    x: 5.38665151596
    y: -3.03220438957
    z: -2.63745093346
  orientation: 
    x: -0.118334025958
    y: -0.22472654845
    z: 0.917501235848
    w: 0.306082467885
---
header: 
  seq: 21193
  stamp: 
    secs: 1723792374
    nsecs: 727143296
  frame_id: "map"
pose: 
  position: 
    x: 5.38970565796
    y: -3.07015109062
    z: -2.63463163376
  orientation: 
    x: -0.11507302419
    y: -0.2221889868
    z: 0.916081266375
    w: 0.313345676436
---
header: 
  seq: 21194
  stamp: 
    secs: 1723792374
    nsecs: 757143296
  frame_id: "map"
pose: 
  position: 
    x: 5.39141893387
    y: -3.09751677513
    z: -2.63259482384
  orientation: 
    x: -0.112780699247
    y: -0.2200752802
    z: 0.914084369766
    w: 0.321398906588
---
header: 
  seq: 21195
  stamp: 
    secs: 1723792374
    nsecs: 787143296
  frame_id: "map"
pose: 
  position: 
    x: 5.39296722412
    y: -3.12441515923
    z: -2.63080739975
  orientation: 
    x: -0.112298802718
    y: -0.219069435124
    z: 0.912882805262
    w: 0.325641956268
---
header: 
  seq: 21196
  stamp: 
    secs: 1723792374
    nsecs: 827145600
  frame_id: "map"
pose: 
  position: 
    x: 5.39450454712
    y: -3.16264200211
    z: -2.62786006927
  orientation: 
    x: -0.112613955777
    y: -0.216877377533
    z: 0.910274821496
    w: 0.334189021045
---
header: 
  seq: 21197
  stamp: 
    secs: 1723792374
    nsecs: 857145600
  frame_id: "map"
pose: 
  position: 
    x: 5.39563417435
    y: -3.19035434723
    z: -2.62624740601
  orientation: 
    x: -0.114405102009
    y: -0.214159211368
    z: 0.907600287857
    w: 0.342504151714
---
header: 
  seq: 21198
  stamp: 
    secs: 1723792374
    nsecs: 887145600
  frame_id: "map"
pose: 
  position: 
    x: 5.3972029686
    y: -3.21887207031
    z: -2.62526273727
  orientation: 
    x: -0.115547734682
    y: -0.212708801334
    z: 0.906332004892
    w: 0.346360925528
---
header: 
  seq: 21199
  stamp: 
    secs: 1723792374
    nsecs: 927148928
  frame_id: "map"
pose: 
  position: 
    x: 5.39755344391
    y: -3.25577259064
    z: -2.62370371819
  orientation: 
    x: -0.118062041808
    y: -0.209917715853
    z: 0.904048277905
    w: 0.353118371896
---
header: 
  seq: 21200
  stamp: 
    secs: 1723792374
    nsecs: 957148928
  frame_id: "map"
pose: 
  position: 
    x: 5.39819765091
    y: -3.28405475616
    z: -2.62314391136
  orientation: 
    x: -0.120263890639
    y: -0.207581481796
    z: 0.902229009189
    w: 0.35837041713
---
header: 
  seq: 21201
  stamp: 
    secs: 1723792374
    nsecs: 987148928
  frame_id: "map"
pose: 
  position: 
    x: 5.39912080765
    y: -3.3126912117
    z: -2.62284898758
  orientation: 
    x: -0.121132452893
    y: -0.206583992332
    z: 0.90152319699
    w: 0.360424759893
---
header: 
  seq: 21202
  stamp: 
    secs: 1723792375
    nsecs:  27152000
  frame_id: "map"
pose: 
  position: 
    x: 5.39913749695
    y: -3.34957361221
    z: -2.62307095528
  orientation: 
    x: -0.122260162948
    y: -0.204860831602
    z: 0.900606755916
    w: 0.363307014276
---
header: 
  seq: 21203
  stamp: 
    secs: 1723792375
    nsecs:  57152000
  frame_id: "map"
pose: 
  position: 
    x: 5.40022945404
    y: -3.38003873825
    z: -2.62370753288
  orientation: 
    x: -0.122410611392
    y: -0.203310412364
    z: 0.900413976231
    w: 0.36460286128
---
header: 
  seq: 21204
  stamp: 
    secs: 1723792375
    nsecs:  87152000
  frame_id: "map"
pose: 
  position: 
    x: 5.40162754059
    y: -3.40840601921
    z: -2.6243853569
  orientation: 
    x: -0.12235370261
    y: -0.202233044086
    z: 0.900500672299
    w: 0.365006670236
---
header: 
  seq: 21205
  stamp: 
    secs: 1723792375
    nsecs: 127155072
  frame_id: "map"
pose: 
  position: 
    x: 5.40404558182
    y: -3.44647502899
    z: -2.62587833405
  orientation: 
    x: -0.122345694709
    y: -0.199066930679
    z: 0.900827373595
    w: 0.365942688521
---
header: 
  seq: 21206
  stamp: 
    secs: 1723792375
    nsecs: 157155072
  frame_id: "map"
pose: 
  position: 
    x: 5.40622329712
    y: -3.47468829155
    z: -2.62657904625
  orientation: 
    x: -0.122120414535
    y: -0.195598060654
    z: 0.901226736058
    w: 0.366903910621
---
header: 
  seq: 21207
  stamp: 
    secs: 1723792375
    nsecs: 187155072
  frame_id: "map"
pose: 
  position: 
    x: 5.4091334343
    y: -3.50253844261
    z: -2.62639069557
  orientation: 
    x: -0.121630457421
    y: -0.194132804392
    z: 0.901483199631
    w: 0.367214659335
---
header: 
  seq: 21208
  stamp: 
    secs: 1723792375
    nsecs: 227158400
  frame_id: "map"
pose: 
  position: 
    x: 5.41228866577
    y: -3.53841400146
    z: -2.62448191643
  orientation: 
    x: -0.119970119202
    y: -0.192398782945
    z: 0.901908735287
    w: 0.367628351727
---
header: 
  seq: 21209
  stamp: 
    secs: 1723792375
    nsecs: 257158400
  frame_id: "map"
pose: 
  position: 
    x: 5.41573143005
    y: -3.56394171715
    z: -2.62228965759
  orientation: 
    x: -0.117166060395
    y: -0.192386315381
    z: 0.902268564006
    w: 0.36765618972
---
header: 
  seq: 21210
  stamp: 
    secs: 1723792375
    nsecs: 288158400
  frame_id: "map"
pose: 
  position: 
    x: 5.42054748535
    y: -3.59034085274
    z: -2.619535923
  orientation: 
    x: -0.115333338932
    y: -0.193039831243
    z: 0.902377787564
    w: 0.367625022126
---
header: 
  seq: 21211
  stamp: 
    secs: 1723792375
    nsecs: 327161472
  frame_id: "map"
pose: 
  position: 
    x: 5.42548799515
    y: -3.62190365791
    z: -2.6151278019
  orientation: 
    x: -0.111401114357
    y: -0.195130048877
    z: 0.902286602858
    w: 0.367957708275
---
header: 
  seq: 21212
  stamp: 
    secs: 1723792375
    nsecs: 358161472
  frame_id: "map"
pose: 
  position: 
    x: 5.42930364609
    y: -3.64606118202
    z: -2.61206316948
  orientation: 
    x: -0.108624940958
    y: -0.196797422985
    z: 0.901590948049
    w: 0.369601329999
---
header: 
  seq: 21213
  stamp: 
    secs: 1723792375
    nsecs: 387161472
  frame_id: "map"
pose: 
  position: 
    x: 5.43337488174
    y: -3.67123103142
    z: -2.60964035988
  orientation: 
    x: -0.107925851182
    y: -0.197054371247
    z: 0.901051426242
    w: 0.370982355785
---
header: 
  seq: 21214
  stamp: 
    secs: 1723792375
    nsecs: 428164800
  frame_id: "map"
pose: 
  position: 
    x: 5.43758869171
    y: -3.70596671104
    z: -2.60652112961
  orientation: 
    x: -0.10803694764
    y: -0.196147394775
    z: 0.899798295068
    w: 0.374455951525
---
header: 
  seq: 21215
  stamp: 
    secs: 1723792375
    nsecs: 458164800
  frame_id: "map"
pose: 
  position: 
    x: 5.44115114212
    y: -3.73338985443
    z: -2.6052236557
  orientation: 
    x: -0.109852475824
    y: -0.19367176265
    z: 0.898393266653
    w: 0.378567313377
---
header: 
  seq: 21216
  stamp: 
    secs: 1723792375
    nsecs: 488164800
  frame_id: "map"
pose: 
  position: 
    x: 5.44477176666
    y: -3.76087498665
    z: -2.6046090126
  orientation: 
    x: -0.111270024487
    y: -0.191983167604
    z: 0.897619492661
    w: 0.380842189525
---
header: 
  seq: 21217
  stamp: 
    secs: 1723792375
    nsecs: 518168640
  frame_id: "map"
pose: 
  position: 
    x: 5.44720602036
    y: -3.78800415993
    z: -2.60359740257
  orientation: 
    x: -0.11502240846
    y: -0.187915398764
    z: 0.895796367508
    w: 0.386013713205
---
header: 
  seq: 21218
  stamp: 
    secs: 1723792375
    nsecs: 558168640
  frame_id: "map"
pose: 
  position: 
    x: 5.45152044296
    y: -3.82798862457
    z: -2.60308933258
  orientation: 
    x: -0.119636287186
    y: -0.183050577701
    z: 0.893461094926
    w: 0.392309778023
---
header: 
  seq: 21219
  stamp: 
    secs: 1723792375
    nsecs: 588168640
  frame_id: "map"
pose: 
  position: 
    x: 5.45471525192
    y: -3.85714197159
    z: -2.60279679298
  orientation: 
    x: -0.122043151459
    y: -0.180438184322
    z: 0.892044729009
    w: 0.395984624964
---
header: 
  seq: 21220
  stamp: 
    secs: 1723792375
    nsecs: 628171712
  frame_id: "map"
pose: 
  position: 
    x: 5.45763397217
    y: -3.89555239677
    z: -2.60267925262
  orientation: 
    x: -0.126677953462
    y: -0.175114618521
    z: 0.88867342367
    w: 0.404409674615
---
header: 
  seq: 21221
  stamp: 
    secs: 1723792375
    nsecs: 658171712
  frame_id: "map"
pose: 
  position: 
    x: 5.45994234085
    y: -3.92527151108
    z: -2.60255551338
  orientation: 
    x: -0.130539778312
    y: -0.169625187748
    z: 0.884625429604
    w: 0.414275956823
---
header: 
  seq: 21222
  stamp: 
    secs: 1723792375
    nsecs: 688171712
  frame_id: "map"
pose: 
  position: 
    x: 5.46224069595
    y: -3.95592451096
    z: -2.60241794586
  orientation: 
    x: -0.132033648333
    y: -0.166888322871
    z: 0.882370741796
    w: 0.41968710641
---
header: 
  seq: 21223
  stamp: 
    secs: 1723792375
    nsecs: 728174784
  frame_id: "map"
pose: 
  position: 
    x: 5.46430444717
    y: -3.99607110023
    z: -2.60391569138
  orientation: 
    x: -0.133783052062
    y: -0.162040683235
    z: 0.877282163115
    w: 0.4315332579
---
header: 
  seq: 21224
  stamp: 
    secs: 1723792375
    nsecs: 758174784
  frame_id: "map"
pose: 
  position: 
    x: 5.46566915512
    y: -4.02598190308
    z: -2.60391569138
  orientation: 
    x: -0.134355709195
    y: -0.158939910614
    z: 0.871281526632
    w: 0.444471939998
---
header: 
  seq: 21225
  stamp: 
    secs: 1723792375
    nsecs: 788174784
  frame_id: "map"
pose: 
  position: 
    x: 5.46693181992
    y: -4.05855131149
    z: -2.60330510139
  orientation: 
    x: -0.134415167862
    y: -0.157921885098
    z: 0.867905016157
    w: 0.45136922961
---
header: 
  seq: 21226
  stamp: 
    secs: 1723792375
    nsecs: 818178624
  frame_id: "map"
pose: 
  position: 
    x: 5.46710634232
    y: -4.0868844986
    z: -2.60272908211
  orientation: 
    x: -0.134077113258
    y: -0.156462987742
    z: 0.860476992355
    w: 0.465963650652
---
header: 
  seq: 21227
  stamp: 
    secs: 1723792375
    nsecs: 858178624
  frame_id: "map"
pose: 
  position: 
    x: 5.46605110168
    y: -4.12225294113
    z: -2.60228681564
  orientation: 
    x: -0.132720040054
    y: -0.155681677367
    z: 0.852356537979
    w: 0.481286748557
---
header: 
  seq: 21228
  stamp: 
    secs: 1723792375
    nsecs: 888178624
  frame_id: "map"
pose: 
  position: 
    x: 5.46465349197
    y: -4.14701557159
    z: -2.60204410553
  orientation: 
    x: -0.131790345113
    y: -0.155760532803
    z: 0.84813761737
    w: 0.488909532946
---
header: 
  seq: 21229
  stamp: 
    secs: 1723792375
    nsecs: 928181952
  frame_id: "map"
pose: 
  position: 
    x: 5.4616394043
    y: -4.17675209045
    z: -2.60110974312
  orientation: 
    x: -0.130321444466
    y: -0.156798186896
    z: 0.839619075473
    w: 0.503458614515
---
header: 
  seq: 21230
  stamp: 
    secs: 1723792375
    nsecs: 958181952
  frame_id: "map"
pose: 
  position: 
    x: 5.45917987823
    y: -4.19880104065
    z: -2.60087943077
  orientation: 
    x: -0.129819140959
    y: -0.157697239761
    z: 0.831308170025
    w: 0.516919106208
---
header: 
  seq: 21231
  stamp: 
    secs: 1723792375
    nsecs: 988181952
  frame_id: "map"
pose: 
  position: 
    x: 5.45653295517
    y: -4.22140598297
    z: -2.60132575035
  orientation: 
    x: -0.12997676227
    y: -0.157612300691
    z: 0.827274158177
    w: 0.523337196689
---
header: 
  seq: 21232
  stamp: 
    secs: 1723792376
    nsecs:  28185280
  frame_id: "map"
pose: 
  position: 
    x: 5.45336389542
    y: -4.25355958939
    z: -2.60240626335
  orientation: 
    x: -0.130876830611
    y: -0.156187630527
    z: 0.819654197627
    w: 0.535391342877
---
header: 
  seq: 21233
  stamp: 
    secs: 1723792376
    nsecs:  58185280
  frame_id: "map"
pose: 
  position: 
    x: 5.45112991333
    y: -4.27640104294
    z: -2.60368943214
  orientation: 
    x: -0.132144707913
    y: -0.153806591735
    z: 0.812942954741
    w: 0.545898415233
---
header: 
  seq: 21234
  stamp: 
    secs: 1723792376
    nsecs:  88185280
  frame_id: "map"
pose: 
  position: 
    x: 5.44907903671
    y: -4.29923534393
    z: -2.60513901711
  orientation: 
    x: -0.132731575778
    y: -0.152515281444
    z: 0.810009059932
    w: 0.550460611387
---
header: 
  seq: 21235
  stamp: 
    secs: 1723792376
    nsecs: 118188096
  frame_id: "map"
pose: 
  position: 
    x: 5.44723701477
    y: -4.32200956345
    z: -2.60653114319
  orientation: 
    x: -0.133874330282
    y: -0.14978801617
    z: 0.804955610649
    w: 0.558290104995
---
header: 
  seq: 21236
  stamp: 
    secs: 1723792376
    nsecs: 158188096
  frame_id: "map"
pose: 
  position: 
    x: 5.44416713715
    y: -4.34943246841
    z: -2.60705208778
  orientation: 
    x: -0.135183454202
    y: -0.146838916228
    z: 0.801043845735
    w: 0.564351443476
---
header: 
  seq: 21237
  stamp: 
    secs: 1723792376
    nsecs: 188188096
  frame_id: "map"
pose: 
  position: 
    x: 5.44240999222
    y: -4.36997747421
    z: -2.60732841492
  orientation: 
    x: -0.13591357262
    y: -0.145439400489
    z: 0.799529930937
    w: 0.566680478325
---
header: 
  seq: 21238
  stamp: 
    secs: 1723792376
    nsecs: 228191168
  frame_id: "map"
pose: 
  position: 
    x: 5.4409031868
    y: -4.39722490311
    z: -2.60698127747
  orientation: 
    x: -0.13758510626
    y: -0.142886681613
    z: 0.797177515124
    w: 0.570229527461
---
header: 
  seq: 21239
  stamp: 
    secs: 1723792376
    nsecs: 258191168
  frame_id: "map"
pose: 
  position: 
    x: 5.44053459167
    y: -4.41944217682
    z: -2.60592269897
  orientation: 
    x: -0.139444303682
    y: -0.141082717636
    z: 0.795229519396
    w: 0.572940634028
---
header: 
  seq: 21240
  stamp: 
    secs: 1723792376
    nsecs: 288191168
  frame_id: "map"
pose: 
  position: 
    x: 5.44088506699
    y: -4.43950462341
    z: -2.60383439064
  orientation: 
    x: -0.140377568844
    y: -0.140510777406
    z: 0.794199134317
    w: 0.574281051325
---
header: 
  seq: 21241
  stamp: 
    secs: 1723792376
    nsecs: 328193472
  frame_id: "map"
pose: 
  position: 
    x: 5.44131994247
    y: -4.46544408798
    z: -2.59994077682
  orientation: 
    x: -0.142149826532
    y: -0.139936838915
    z: 0.791784615122
    w: 0.577311251682
---
header: 
  seq: 21242
  stamp: 
    secs: 1723792376
    nsecs: 358193472
  frame_id: "map"
pose: 
  position: 
    x: 5.44270038605
    y: -4.48468971252
    z: -2.59704852104
  orientation: 
    x: -0.143474898013
    y: -0.139957221279
    z: 0.789050886234
    w: 0.580711322245
---
header: 
  seq: 21243
  stamp: 
    secs: 1723792376
    nsecs: 388193472
  frame_id: "map"
pose: 
  position: 
    x: 5.44489145279
    y: -4.50336408615
    z: -2.5941131115
  orientation: 
    x: -0.143900376705
    y: -0.140135601559
    z: 0.787563155165
    w: 0.582579639356
---
header: 
  seq: 21244
  stamp: 
    secs: 1723792376
    nsecs: 418196288
  frame_id: "map"
pose: 
  position: 
    x: 5.4464840889
    y: -4.52131748199
    z: -2.59158706665
  orientation: 
    x: -0.144339110745
    y: -0.140560456445
    z: 0.784145930835
    w: 0.58696185793
---
header: 
  seq: 21245
  stamp: 
    secs: 1723792376
    nsecs: 458196288
  frame_id: "map"
pose: 
  position: 
    x: 5.44907426834
    y: -4.5450334549
    z: -2.58870220184
  orientation: 
    x: -0.144620258707
    y: -0.140307799753
    z: 0.780025791902
    w: 0.592417546199
---
header: 
  seq: 21246
  stamp: 
    secs: 1723792376
    nsecs: 488196288
  frame_id: "map"
pose: 
  position: 
    x: 5.45128107071
    y: -4.56481456757
    z: -2.58711051941
  orientation: 
    x: -0.144703593399
    y: -0.139768984069
    z: 0.777742117599
    w: 0.595518869363
---
header: 
  seq: 21247
  stamp: 
    secs: 1723792376
    nsecs: 528199104
  frame_id: "map"
pose: 
  position: 
    x: 5.4521150589
    y: -4.58877325058
    z: -2.58482265472
  orientation: 
    x: -0.144745903402
    y: -0.13802402568
    z: 0.772932419346
    w: 0.602140882102
---
header: 
  seq: 21248
  stamp: 
    secs: 1723792376
    nsecs: 558199104
  frame_id: "map"
pose: 
  position: 
    x: 5.45200395584
    y: -4.60725688934
    z: -2.58339691162
  orientation: 
    x: -0.144603520811
    y: -0.135350219074
    z: 0.767750343149
    w: 0.609368260563
---
header: 
  seq: 21249
  stamp: 
    secs: 1723792376
    nsecs: 588199104
  frame_id: "map"
pose: 
  position: 
    x: 5.45150995255
    y: -4.62634849548
    z: -2.58256936073
  orientation: 
    x: -0.144592555715
    y: -0.13367008402
    z: 0.764863273489
    w: 0.613359240479
---
header: 
  seq: 21250
  stamp: 
    secs: 1723792376
    nsecs: 629200896
  frame_id: "map"
pose: 
  position: 
    x: 5.45047473907
    y: -4.65098285675
    z: -2.58131694794
  orientation: 
    x: -0.145027639608
    y: -0.129431879252
    z: 0.758166508046
    w: 0.622413110572
---
header: 
  seq: 21251
  stamp: 
    secs: 1723792376
    nsecs: 658200896
  frame_id: "map"
pose: 
  position: 
    x: 5.44962930679
    y: -4.66933107376
    z: -2.58074760437
  orientation: 
    x: -0.146060126761
    y: -0.124466121755
    z: 0.74998503557
    w: 0.633006478601
---
header: 
  seq: 21252
  stamp: 
    secs: 1723792376
    nsecs: 688200896
  frame_id: "map"
pose: 
  position: 
    x: 5.44881057739
    y: -4.68753433228
    z: -2.58019542694
  orientation: 
    x: -0.146699978483
    y: -0.121836475168
    z: 0.7453349527
    w: 0.638835577411
---
header: 
  seq: 21253
  stamp: 
    secs: 1723792376
    nsecs: 719204480
  frame_id: "map"
pose: 
  position: 
    x: 5.44764995575
    y: -4.70475482941
    z: -2.57972788811
  orientation: 
    x: -0.14830787812
    y: -0.116509010783
    z: 0.734980067345
    w: 0.651333039957
---
header: 
  seq: 21254
  stamp: 
    secs: 1723792376
    nsecs: 759204480
  frame_id: "map"
pose: 
  position: 
    x: 5.44703388214
    y: -4.72834300995
    z: -2.57894849777
  orientation: 
    x: -0.150085604531
    y: -0.112260888993
    z: 0.723601253282
    w: 0.664283847176
---
header: 
  seq: 21255
  stamp: 
    secs: 1723792376
    nsecs: 789204480
  frame_id: "map"
pose: 
  position: 
    x: 5.4471039772
    y: -4.74375486374
    z: -2.57806444168
  orientation: 
    x: -0.150859958042
    y: -0.110810668619
    z: 0.71772883278
    w: 0.670692038416
---
header: 
  seq: 21256
  stamp: 
    secs: 1723792376
    nsecs: 829207552
  frame_id: "map"
pose: 
  position: 
    x: 5.44799280167
    y: -4.76154708862
    z: -2.57765030861
  orientation: 
    x: -0.151644491334
    y: -0.109520035971
    z: 0.706208353939
    w: 0.682846321565
---
header: 
  seq: 21257
  stamp: 
    secs: 1723792376
    nsecs: 859207552
  frame_id: "map"
pose: 
  position: 
    x: 5.44880723953
    y: -4.77346992493
    z: -2.57751870155
  orientation: 
    x: -0.151170758123
    y: -0.110032755017
    z: 0.695452663332
    w: 0.693819827085
---
header: 
  seq: 21258
  stamp: 
    secs: 1723792376
    nsecs: 889207552
  frame_id: "map"
pose: 
  position: 
    x: 5.44945716858
    y: -4.78429269791
    z: -2.57756853104
  orientation: 
    x: -0.150652361106
    y: -0.110703302157
    z: 0.690389133297
    w: 0.698864475332
---
header: 
  seq: 21259
  stamp: 
    secs: 1723792376
    nsecs: 929210624
  frame_id: "map"
pose: 
  position: 
    x: 5.45042705536
    y: -4.79607248306
    z: -2.57761120796
  orientation: 
    x: -0.14945359805
    y: -0.112095118853
    z: 0.680901210262
    w: 0.70814680604
---
header: 
  seq: 21260
  stamp: 
    secs: 1723792376
    nsecs: 959210624
  frame_id: "map"
pose: 
  position: 
    x: 5.45075464249
    y: -4.80426073074
    z: -2.57806777954
  orientation: 
    x: -0.148582131614
    y: -0.112963613935
    z: 0.672223873528
    w: 0.716434031544
---
header: 
  seq: 21261
  stamp: 
    secs: 1723792376
    nsecs: 989210624
  frame_id: "map"
pose: 
  position: 
    x: 5.4508562088
    y: -4.81277036667
    z: -2.57890200615
  orientation: 
    x: -0.148201012151
    y: -0.113300858529
    z: 0.668297665416
    w: 0.720123290074
---
header: 
  seq: 21262
  stamp: 
    secs: 1723792377
    nsecs:  19213696
  frame_id: "map"
pose: 
  position: 
    x: 5.45104789734
    y: -4.81936597824
    z: -2.57934546471
  orientation: 
    x: -0.14722702219
    y: -0.114102636467
    z: 0.661625184459
    w: 0.726331228466
---
header: 
  seq: 21263
  stamp: 
    secs: 1723792377
    nsecs:  59213696
  frame_id: "map"
pose: 
  position: 
    x: 5.45135259628
    y: -4.8278298378
    z: -2.58043122292
  orientation: 
    x: -0.146337044068
    y: -0.115229500951
    z: 0.656592434547
    w: 0.730885864529
---
header: 
  seq: 21264
  stamp: 
    secs: 1723792377
    nsecs:  89213696
  frame_id: "map"
pose: 
  position: 
    x: 5.45165109634
    y: -4.83406352997
    z: -2.58130979538
  orientation: 
    x: -0.145968168265
    y: -0.115791029999
    z: 0.6546451079
    w: 0.73261554485
---
header: 
  seq: 21265
  stamp: 
    secs: 1723792377
    nsecs: 119218304
  frame_id: "map"
pose: 
  position: 
    x: 5.45153999329
    y: -4.84020805359
    z: -2.58196163177
  orientation: 
    x: -0.145458653696
    y: -0.116394194865
    z: 0.651669988206
    w: 0.735268999797
---
header: 
  seq: 21266
  stamp: 
    secs: 1723792377
    nsecs: 159218304
  frame_id: "map"
pose: 
  position: 
    x: 5.45090007782
    y: -4.84855127335
    z: -2.58302545547
  orientation: 
    x: -0.144890994915
    y: -0.116079425078
    z: 0.649830283537
    w: 0.737056863842
---
header: 
  seq: 21267
  stamp: 
    secs: 1723792377
    nsecs: 189218304
  frame_id: "map"
pose: 
  position: 
    x: 5.45026063919
    y: -4.85496091843
    z: -2.58406019211
  orientation: 
    x: -0.144362398361
    y: -0.115740744858
    z: 0.649440462066
    w: 0.737557362937
---
header: 
  seq: 21268
  stamp: 
    secs: 1723792377
    nsecs: 229221376
  frame_id: "map"
pose: 
  position: 
    x: 5.44794511795
    y: -4.86388874054
    z: -2.58429312706
  orientation: 
    x: -0.142735527374
    y: -0.115001554989
    z: 0.649880588434
    w: 0.737601841033
---
header: 
  seq: 21269
  stamp: 
    secs: 1723792377
    nsecs: 259221376
  frame_id: "map"
pose: 
  position: 
    x: 5.44644165039
    y: -4.8701376915
    z: -2.58439040184
  orientation: 
    x: -0.140636228411
    y: -0.114467287049
    z: 0.651948262773
    w: 0.736262295649
---
header: 
  seq: 21270
  stamp: 
    secs: 1723792377
    nsecs: 289221376
  frame_id: "map"
pose: 
  position: 
    x: 5.44483327866
    y: -4.87652015686
    z: -2.58446550369
  orientation: 
    x: -0.139513222999
    y: -0.114281611742
    z: 0.653520493005
    w: 0.73511010091
---
header: 
  seq: 21271
  stamp: 
    secs: 1723792377
    nsecs: 329224448
  frame_id: "map"
pose: 
  position: 
    x: 5.44190168381
    y: -4.88572454453
    z: -2.58452534676
  orientation: 
    x: -0.137518859152
    y: -0.113578766945
    z: 0.657460311915
    w: 0.732075512012
---
header: 
  seq: 21272
  stamp: 
    secs: 1723792377
    nsecs: 359224448
  frame_id: "map"
pose: 
  position: 
    x: 5.43928337097
    y: -4.89337062836
    z: -2.58467102051
  orientation: 
    x: -0.136284330544
    y: -0.111558610544
    z: 0.661989209424
    w: 0.728527118786
---
header: 
  seq: 21273
  stamp: 
    secs: 1723792377
    nsecs: 389224448
  frame_id: "map"
pose: 
  position: 
    x: 5.43617916107
    y: -4.90160369873
    z: -2.58477592468
  orientation: 
    x: -0.13596237867
    y: -0.109879493271
    z: 0.66434116689
    w: 0.726699046647
---
header: 
  seq: 21274
  stamp: 
    secs: 1723792377
    nsecs: 419227264
  frame_id: "map"
pose: 
  position: 
    x: 5.43104887009
    y: -4.91004657745
    z: -2.58375191689
  orientation: 
    x: -0.135612871978
    y: -0.105541659279
    z: 0.669023731809
    w: 0.723102606014
---
header: 
  seq: 21275
  stamp: 
    secs: 1723792377
    nsecs: 459227264
  frame_id: "map"
pose: 
  position: 
    x: 5.42339372635
    y: -4.92212963104
    z: -2.58215260506
  orientation: 
    x: -0.135378131154
    y: -0.100678844143
    z: 0.673570791976
    w: 0.719610312879
---
header: 
  seq: 21276
  stamp: 
    secs: 1723792377
    nsecs: 489227264
  frame_id: "map"
pose: 
  position: 
    x: 5.41766452789
    y: -4.93035030365
    z: -2.58077692986
  orientation: 
    x: -0.135221790053
    y: -0.0984035649656
    z: 0.675819440931
    w: 0.717843992458
---
header: 
  seq: 21277
  stamp: 
    secs: 1723792377
    nsecs: 519230848
  frame_id: "map"
pose: 
  position: 
    x: 5.41028881073
    y: -4.93789100647
    z: -2.57815074921
  orientation: 
    x: -0.134706609368
    y: -0.0945824671423
    z: 0.6804970694
    w: 0.714025232468
---
header: 
  seq: 21278
  stamp: 
    secs: 1723792377
    nsecs: 559230848
  frame_id: "map"
pose: 
  position: 
    x: 5.40011501312
    y: -4.94754314423
    z: -2.57479023933
  orientation: 
    x: -0.133909388557
    y: -0.0920897471048
    z: 0.685149641568
    w: 0.710040687849
---
header: 
  seq: 21279
  stamp: 
    secs: 1723792377
    nsecs: 589230848
  frame_id: "map"
pose: 
  position: 
    x: 5.39222145081
    y: -4.95473814011
    z: -2.57249188423
  orientation: 
    x: -0.133436396867
    y: -0.0914552460568
    z: 0.687484144312
    w: 0.707952154113
---
header: 
  seq: 21280
  stamp: 
    secs: 1723792377
    nsecs: 629233664
  frame_id: "map"
pose: 
  position: 
    x: 5.37990093231
    y: -4.96535587311
    z: -2.57059550285
  orientation: 
    x: -0.132418375303
    y: -0.0907357005711
    z: 0.69188653147
    w: 0.703935747794
---
header: 
  seq: 21281
  stamp: 
    secs: 1723792377
    nsecs: 659233664
  frame_id: "map"
pose: 
  position: 
    x: 5.36963748932
    y: -4.97450351715
    z: -2.56949663162
  orientation: 
    x: -0.13141076401
    y: -0.0899006095001
    z: 0.695484404601
    w: 0.700678758373
---
header: 
  seq: 21282
  stamp: 
    secs: 1723792377
    nsecs: 689233664
  frame_id: "map"
pose: 
  position: 
    x: 5.35956859589
    y: -4.98350858688
    z: -2.56866526604
  orientation: 
    x: -0.131081594489
    y: -0.0891839892691
    z: 0.696730551252
    w: 0.699593106921
---
header: 
  seq: 21283
  stamp: 
    secs: 1723792377
    nsecs: 719236736
  frame_id: "map"
pose: 
  position: 
    x: 5.34808397293
    y: -4.99300575256
    z: -2.56741809845
  orientation: 
    x: -0.13075733771
    y: -0.0869463287879
    z: 0.697915015948
    w: 0.698754246383
---
header: 
  seq: 21284
  stamp: 
    secs: 1723792377
    nsecs: 759236736
  frame_id: "map"
pose: 
  position: 
    x: 5.33201980591
    y: -5.00647449493
    z: -2.56594467163
  orientation: 
    x: -0.130686181976
    y: -0.0838137761262
    z: 0.6973214583
    w: 0.69974221424
---
header: 
  seq: 21285
  stamp: 
    secs: 1723792377
    nsecs: 789236736
  frame_id: "map"
pose: 
  position: 
    x: 5.3190908432
    y: -5.0173573494
    z: -2.56488990784
  orientation: 
    x: -0.130597112514
    y: -0.0819858804771
    z: 0.696492392582
    w: 0.700800390226
---
header: 
  seq: 21286
  stamp: 
    secs: 1723792377
    nsecs: 819240320
  frame_id: "map"
pose: 
  position: 
    x: 5.3039355278
    y: -5.02901363373
    z: -2.56294131279
  orientation: 
    x: -0.130175409587
    y: -0.0775920320072
    z: 0.693975996717
    w: 0.703868825513
---
header: 
  seq: 21287
  stamp: 
    secs: 1723792377
    nsecs: 859240320
  frame_id: "map"
pose: 
  position: 
    x: 5.28252983093
    y: -5.04544830322
    z: -2.5606200695
  orientation: 
    x: -0.129372772906
    y: -0.0723340783124
    z: 0.690413082914
    w: 0.708068072434
---
header: 
  seq: 21288
  stamp: 
    secs: 1723792377
    nsecs: 890240320
  frame_id: "map"
pose: 
  position: 
    x: 5.2655711174
    y: -5.05839538574
    z: -2.55885314941
  orientation: 
    x: -0.128818033452
    y: -0.0693731383981
    z: 0.688242129699
    w: 0.71057443027
---
header: 
  seq: 21289
  stamp: 
    secs: 1723792377
    nsecs: 929243392
  frame_id: "map"
pose: 
  position: 
    x: 5.24086904526
    y: -5.07652568817
    z: -2.5567843914
  orientation: 
    x: -0.127378805503
    y: -0.0628136531428
    z: 0.683086004107
    w: 0.716395633131
---
header: 
  seq: 21290
  stamp: 
    secs: 1723792377
    nsecs: 959243392
  frame_id: "map"
pose: 
  position: 
    x: 5.22338819504
    y: -5.08899259567
    z: -2.55454826355
  orientation: 
    x: -0.125685289812
    y: -0.0561254039969
    z: 0.676816288972
    w: 0.723168750225
---
header: 
  seq: 21291
  stamp: 
    secs: 1723792377
    nsecs: 989243392
  frame_id: "map"
pose: 
  position: 
    x: 5.20619821548
    y: -5.10080242157
    z: -2.55173659325
  orientation: 
    x: -0.124787243204
    y: -0.0530600452655
    z: 0.673319741639
    w: 0.726810367011
---
header: 
  seq: 21292
  stamp: 
    secs: 1723792378
    nsecs:  19246464
  frame_id: "map"
pose: 
  position: 
    x: 5.18974685669
    y: -5.11151790619
    z: -2.54896664619
  orientation: 
    x: -0.122793133555
    y: -0.0472961318252
    z: 0.665572502874
    w: 0.734641562297
---
header: 
  seq: 21293
  stamp: 
    secs: 1723792378
    nsecs:  59246464
  frame_id: "map"
pose: 
  position: 
    x: 5.16784286499
    y: -5.12459516525
    z: -2.54434132576
  orientation: 
    x: -0.120493717404
    y: -0.0410430989396
    z: 0.656559051609
    w: 0.743456164732
---
header: 
  seq: 21294
  stamp: 
    secs: 1723792378
    nsecs:  90246464
  frame_id: "map"
pose: 
  position: 
    x: 5.1513171196
    y: -5.13349199295
    z: -2.540610075
  orientation: 
    x: -0.119350742288
    y: -0.0375453688601
    z: 0.651621540403
    w: 0.748154534719
---
header: 
  seq: 21295
  stamp: 
    secs: 1723792378
    nsecs: 120251072
  frame_id: "map"
pose: 
  position: 
    x: 5.13507413864
    y: -5.14174461365
    z: -2.53801870346
  orientation: 
    x: -0.117213048863
    y: -0.0303157355426
    z: 0.641364625398
    w: 0.757623640832
---
header: 
  seq: 21296
  stamp: 
    secs: 1723792378
    nsecs: 160251072
  frame_id: "map"
pose: 
  position: 
    x: 5.11314630508
    y: -5.15165138245
    z: -2.5351755619
  orientation: 
    x: -0.114915510881
    y: -0.0238612591603
    z: 0.631297192086
    w: 0.766608743073
---
header: 
  seq: 21297
  stamp: 
    secs: 1723792378
    nsecs: 190251072
  frame_id: "map"
pose: 
  position: 
    x: 5.09887361526
    y: -5.15716409683
    z: -2.53343892097
  orientation: 
    x: -0.113753864711
    y: -0.0210774440111
    z: 0.626483078951
    w: 0.770801358781
---
header: 
  seq: 21298
  stamp: 
    secs: 1723792378
    nsecs: 220254912
  frame_id: "map"
pose: 
  position: 
    x: 5.08590173721
    y: -5.16152858734
    z: -2.53178811073
  orientation: 
    x: -0.111541434387
    y: -0.0163151714991
    z: 0.617479089653
    w: 0.778467691401
---
header: 
  seq: 21299
  stamp: 
    secs: 1723792378
    nsecs: 260254912
  frame_id: "map"
pose: 
  position: 
    x: 5.06893968582
    y: -5.16640806198
    z: -2.53021097183
  orientation: 
    x: -0.109662327682
    y: -0.0127666281255
    z: 0.610281540624
    w: 0.784453687123
---
header: 
  seq: 21300
  stamp: 
    secs: 1723792378
    nsecs: 290254912
