header: 
  seq: 12529
  stamp: 
    secs: 1723702575
    nsecs: 855760832
  frame_id: "map"
pose: 
  position: 
    x: -41.9687995911
    y: -39.3490447998
    z: 2.17373108864
  orientation: 
    x: 0.0480411326903
    y: 0.0337607583538
    z: 0.898024292068
    w: 0.436009864342
---
header: 
  seq: 12530
  stamp: 
    secs: 1723702575
    nsecs: 895760832
  frame_id: "map"
pose: 
  position: 
    x: -42.0069770813
    y: -39.3889427185
    z: 2.17563915253
  orientation: 
    x: 0.0456399075341
    y: 0.033621434702
    z: 0.893817151502
    w: 0.444834276455
---
header: 
  seq: 12531
  stamp: 
    secs: 1723702575
    nsecs: 925759808
  frame_id: "map"
pose: 
  position: 
    x: -42.035900116
    y: -39.4192314148
    z: 2.1742670536
  orientation: 
    x: 0.0440569377585
    y: 0.0338361017724
    z: 0.892010063226
    w: 0.448589223482
---
header: 
  seq: 12532
  stamp: 
    secs: 1723702575
    nsecs: 955759808
  frame_id: "map"
pose: 
  position: 
    x: -42.0671463013
    y: -39.4523429871
    z: 2.1723856926
  orientation: 
    x: 0.0397686421194
    y: 0.0351861930878
    z: 0.889212629376
    w: 0.454402180049
---
header: 
  seq: 12533
  stamp: 
    secs: 1723702575
    nsecs: 985759808
  frame_id: "map"
pose: 
  position: 
    x: -42.0955047607
    y: -39.4830589294
    z: 2.170981884
  orientation: 
    x: 0.0339733910155
    y: 0.0373796693484
    z: 0.887800056675
    w: 0.457449207536
---
header: 
  seq: 12534
  stamp: 
    secs: 1723702576
    nsecs:  25757504
  frame_id: "map"
pose: 
  position: 
    x: -42.1322631836
    y: -39.5236663818
    z: 2.16948056221
  orientation: 
    x: 0.0275267422579
    y: 0.0399678162717
    z: 0.8877084505
    w: 0.457841236447
---
header: 
  seq: 12535
  stamp: 
    secs: 1723702576
    nsecs:  55757504
  frame_id: "map"
pose: 
  position: 
    x: -42.1582336426
    y: -39.5543556213
    z: 2.16926908493
  orientation: 
    x: 0.0245344101855
    y: 0.0411465325742
    z: 0.888033866317
    w: 0.457275583593
---
header: 
  seq: 12536
  stamp: 
    secs: 1723702576
    nsecs:  95757504
  frame_id: "map"
pose: 
  position: 
    x: -42.1898498535
    y: -39.5946006775
    z: 2.17095136642
  orientation: 
    x: 0.0189099540815
    y: 0.0435469813064
    z: 0.889352093298
    w: 0.45475161957
---
header: 
  seq: 12537
  stamp: 
    secs: 1723702576
    nsecs: 125760320
  frame_id: "map"
pose: 
  position: 
    x: -42.211566925
    y: -39.6243133545
    z: 2.17341208458
  orientation: 
    x: 0.0164582429276
    y: 0.0448168052659
    z: 0.890359381904
    w: 0.452748063759
---
header: 
  seq: 12538
  stamp: 
    secs: 1723702576
    nsecs: 155760320
  frame_id: "map"
pose: 
  position: 
    x: -42.2317352295
    y: -39.6536903381
    z: 2.17657661438
  orientation: 
    x: 0.0131375217094
    y: 0.0463958711897
    z: 0.89305635874
    w: 0.447353688618
---
header: 
  seq: 12539
  stamp: 
    secs: 1723702576
    nsecs: 185760320
  frame_id: "map"
pose: 
  position: 
    x: -42.2519683838
    y: -39.6840515137
    z: 2.17719864845
  orientation: 
    x: 0.0109088846051
    y: 0.0461699443254
    z: 0.896327502093
    w: 0.440847353173
---
header: 
  seq: 12540
  stamp: 
    secs: 1723702576
    nsecs: 225757760
  frame_id: "map"
pose: 
  position: 
    x: -42.2779808044
    y: -39.7262992859
    z: 2.17999696732
  orientation: 
    x: 0.00951217624107
    y: 0.0453166431817
    z: 0.898090272959
    w: 0.437366929643
---
header: 
  seq: 12541
  stamp: 
    secs: 1723702576
    nsecs: 260757760
  frame_id: "map"
pose: 
  position: 
    x: -42.295879364
    y: -39.7570495605
    z: 2.18312621117
  orientation: 
    x: 0.00623746094219
    y: 0.0422562656809
    z: 0.901723858136
    w: 0.43019730817
---
header: 
  seq: 12542
  stamp: 
    secs: 1723702576
    nsecs: 295757760
  frame_id: "map"
pose: 
  position: 
    x: -42.318359375
    y: -39.7970962524
    z: 2.18663644791
  orientation: 
    x: 0.00337169388022
    y: 0.0385147951082
    z: 0.904799777287
    w: 0.424078555144
---
header: 
  seq: 12543
  stamp: 
    secs: 1723702576
    nsecs: 325759296
  frame_id: "map"
pose: 
  position: 
    x: -42.3350753784
    y: -39.8273849487
    z: 2.18781447411
  orientation: 
    x: 0.00154716866199
    y: 0.0357117912891
    z: 0.906960477623
    w: 0.419696378716
---
header: 
  seq: 12544
  stamp: 
    secs: 1723702576
    nsecs: 355759296
  frame_id: "map"
pose: 
  position: 
    x: -42.3532066345
    y: -39.8599205017
    z: 2.18793177605
  orientation: 
    x: -0.000312323952534
    y: 0.0311571604946
    z: 0.910462965028
    w: 0.412415426342
---
header: 
  seq: 12545
  stamp: 
    secs: 1723702576
    nsecs: 396759296
  frame_id: "map"
pose: 
  position: 
    x: -42.3781394958
    y: -39.9039344788
    z: 2.1843791008
  orientation: 
    x: -0.000786466778658
    y: 0.0266383505701
    z: 0.913769132413
    w: 0.405358779496
---
header: 
  seq: 12546
  stamp: 
    secs: 1723702576
    nsecs: 426757248
  frame_id: "map"
pose: 
  position: 
    x: -42.3976554871
    y: -39.9376335144
    z: 2.17898464203
  orientation: 
    x: -0.000397770102445
    y: 0.0243778517654
    z: 0.915209479887
    w: 0.402240397395
---
header: 
  seq: 12547
  stamp: 
    secs: 1723702576
    nsecs: 456757248
  frame_id: "map"
pose: 
  position: 
    x: -42.4184036255
    y: -39.9735679626
    z: 2.17397046089
  orientation: 
    x: 0.00183409123576
    y: 0.0197802351368
    z: 0.917407311596
    w: 0.397453316195
---
header: 
  seq: 12548
  stamp: 
    secs: 1723702576
    nsecs: 486757248
  frame_id: "map"
pose: 
  position: 
    x: -42.4399795532
    y: -40.0099525452
    z: 2.16772890091
  orientation: 
    x: 0.00567091674833
    y: 0.0157301729125
    z: 0.918333425372
    w: 0.395454227949
---
header: 
  seq: 12549
  stamp: 
    secs: 1723702576
    nsecs: 526755456
  frame_id: "map"
pose: 
  position: 
    x: -42.4700431824
    y: -40.0584907532
    z: 2.1590385437
  orientation: 
    x: 0.00802842179321
    y: 0.0141563147587
    z: 0.91832054951
    w: 0.395502928633
---
header: 
  seq: 12550
  stamp: 
    secs: 1723702576
    nsecs: 556755456
  frame_id: "map"
pose: 
  position: 
    x: -42.495891571
    y: -40.0978126526
    z: 2.1538901329
  orientation: 
    x: 0.0146622376257
    y: 0.0121521932579
    z: 0.917382676763
    w: 0.397550359313
---
header: 
  seq: 12551
  stamp: 
    secs: 1723702576
    nsecs: 586755456
  frame_id: "map"
pose: 
  position: 
    x: -42.5207328796
    y: -40.1338310242
    z: 2.15089154243
  orientation: 
    x: 0.0238227188308
    y: 0.0128626119753
    z: 0.915264123276
    w: 0.401943746802
---
header: 
  seq: 12552
  stamp: 
    secs: 1723702576
    nsecs: 626752384
  frame_id: "map"
pose: 
  position: 
    x: -42.5541305542
    y: -40.1796188354
    z: 2.14952492714
  orientation: 
    x: 0.029134006399
    y: 0.0143886390537
    z: 0.91401731413
    w: 0.404371763524
---
header: 
  seq: 12553
  stamp: 
    secs: 1723702576
    nsecs: 656752384
  frame_id: "map"
pose: 
  position: 
    x: -42.5791931152
    y: -40.2131881714
    z: 2.14957785606
  orientation: 
    x: 0.0390766066719
    y: 0.0192727706171
    z: 0.911607209818
    w: 0.408746922501
---
header: 
  seq: 12554
  stamp: 
    secs: 1723702576
    nsecs: 686752384
  frame_id: "map"
pose: 
  position: 
    x: -42.6041221619
    y: -40.245349884
    z: 2.15176701546
  orientation: 
    x: 0.0449923580852
    y: 0.0261075683065
    z: 0.909415236521
    w: 0.412623252453
---
header: 
  seq: 12555
  stamp: 
    secs: 1723702576
    nsecs: 726751872
  frame_id: "map"
pose: 
  position: 
    x: -42.6371879578
    y: -40.2861099243
    z: 2.15785288811
  orientation: 
    x: 0.046406225485
    y: 0.0296096092183
    z: 0.908315224848
    w: 0.414648303156
---
header: 
  seq: 12556
  stamp: 
    secs: 1723702576
    nsecs: 756751872
  frame_id: "map"
pose: 
  position: 
    x: -42.6622428894
    y: -40.3161277771
    z: 2.16473412514
  orientation: 
    x: 0.0478684847109
    y: 0.0351385849297
    z: 0.905757796227
    w: 0.419615098519
---
header: 
  seq: 12557
  stamp: 
    secs: 1723702576
    nsecs: 786751872
  frame_id: "map"
pose: 
  position: 
    x: -42.6876029968
    y: -40.3456039429
    z: 2.17170095444
  orientation: 
    x: 0.0481085857579
    y: 0.0384113130706
    z: 0.90266430184
    w: 0.425919424119
---
header: 
  seq: 12558
  stamp: 
    secs: 1723702576
    nsecs: 826750080
  frame_id: "map"
pose: 
  position: 
    x: -42.724067688
    y: -40.3871307373
    z: 2.17949390411
  orientation: 
    x: 0.0478414886666
    y: 0.0394409520186
    z: 0.900999817426
    w: 0.429365792996
---
header: 
  seq: 12559
  stamp: 
    secs: 1723702576
    nsecs: 856750080
  frame_id: "map"
pose: 
  position: 
    x: -42.7503433228
    y: -40.4168624878
    z: 2.18270945549
  orientation: 
    x: 0.0469787581534
    y: 0.0406400881399
    z: 0.897650428448
    w: 0.436308537984
---
header: 
  seq: 12560
  stamp: 
    secs: 1723702576
    nsecs: 896750080
  frame_id: "map"
pose: 
  position: 
    x: -42.7856674194
    y: -40.4565544128
    z: 2.18412971497
  orientation: 
    x: 0.0458204575538
    y: 0.0412275202131
    z: 0.894410621276
    w: 0.44297901433
---
header: 
  seq: 12561
  stamp: 
    secs: 1723702576
    nsecs: 926751360
  frame_id: "map"
pose: 
  position: 
    x: -42.812412262
    y: -40.4862670898
    z: 2.18279790878
  orientation: 
    x: 0.0450406519528
    y: 0.0415644361932
    z: 0.892950549077
    w: 0.445963116572
---
header: 
  seq: 12562
  stamp: 
    secs: 1723702576
    nsecs: 956751360
  frame_id: "map"
pose: 
  position: 
    x: -42.8392868042
    y: -40.5159606934
    z: 2.17910456657
  orientation: 
    x: 0.0429478907728
    y: 0.0423912219478
    z: 0.890632008793
    w: 0.450702824715
---
header: 
  seq: 12563
  stamp: 
    secs: 1723702576
    nsecs: 986751360
  frame_id: "map"
pose: 
  position: 
    x: -42.8660354614
    y: -40.545501709
    z: 2.17404389381
  orientation: 
    x: 0.0399579438663
    y: 0.0433119166431
    z: 0.889461253635
    w: 0.453195726511
---
header: 
  seq: 12564
  stamp: 
    secs: 1723702577
    nsecs:  26749568
  frame_id: "map"
pose: 
  position: 
    x: -42.9011917114
    y: -40.5845756531
    z: 2.1671230793
  orientation: 
    x: 0.0380803628452
    y: 0.043750203861
    z: 0.88932337022
    w: 0.453585563786
---
header: 
  seq: 12565
  stamp: 
    secs: 1723702577
    nsecs:  56749568
  frame_id: "map"
pose: 
  position: 
    x: -42.9291763306
    y: -40.6165237427
    z: 2.16332101822
  orientation: 
    x: 0.0338737142127
    y: 0.0445291441345
    z: 0.889841565723
    w: 0.452826625485
---
header: 
  seq: 12566
  stamp: 
    secs: 1723702577
    nsecs:  86749568
  frame_id: "map"
pose: 
  position: 
    x: -42.9538726807
    y: -40.6454696655
    z: 2.16137886047
  orientation: 
    x: 0.0295257415996
    y: 0.0452627716067
    z: 0.891612892399
    w: 0.449561951673
---
header: 
  seq: 12567
  stamp: 
    secs: 1723702577
    nsecs: 126752640
  frame_id: "map"
pose: 
  position: 
    x: -42.9842147827
    y: -40.6828727722
    z: 2.16111278534
  orientation: 
    x: 0.0252535855692
    y: 0.0458648485574
    z: 0.894910040358
    w: 0.443164481537
---
header: 
  seq: 12568
  stamp: 
    secs: 1723702577
    nsecs: 156752640
  frame_id: "map"
pose: 
  position: 
    x: -43.0060386658
    y: -40.7109260559
    z: 2.16089963913
  orientation: 
    x: 0.0239802568358
    y: 0.0452622210635
    z: 0.896935933999
    w: 0.439183817062
---
header: 
  seq: 12569
  stamp: 
    secs: 1723702577
    nsecs: 186752640
  frame_id: "map"
pose: 
  position: 
    x: -43.026763916
    y: -40.739200592
    z: 2.16111898422
  orientation: 
    x: 0.0239736252926
    y: 0.0413652799863
    z: 0.900801790458
    w: 0.431590661908
---
header: 
  seq: 12570
  stamp: 
    secs: 1723702577
    nsecs: 226750080
  frame_id: "map"
pose: 
  position: 
    x: -43.0518226624
    y: -40.7767677307
    z: 2.16338896751
  orientation: 
    x: 0.0242780855652
    y: 0.0386744809561
    z: 0.902546374958
    w: 0.428164502446
---
header: 
  seq: 12571
  stamp: 
    secs: 1723702577
    nsecs: 256750080
  frame_id: "map"
pose: 
  position: 
    x: -43.071395874
    y: -40.8064079285
    z: 2.1651494503
  orientation: 
    x: 0.0240250842898
    y: 0.0332984070963
    z: 0.906011372742
    w: 0.42125703437
---
header: 
  seq: 12572
  stamp: 
    secs: 1723702577
    nsecs: 296750080
  frame_id: "map"
pose: 
  position: 
    x: -43.0979270935
    y: -40.8489112854
    z: 2.16749835014
  orientation: 
    x: 0.0227490252308
    y: 0.0288418414816
    z: 0.909769101461
    w: 0.413486335616
---
header: 
  seq: 12573
  stamp: 
    secs: 1723702577
    nsecs: 326750848
  frame_id: "map"
pose: 
  position: 
    x: -43.1163787842
    y: -40.8791618347
    z: 2.16795015335
  orientation: 
    x: 0.0218852392354
    y: 0.0270704273841
    z: 0.911775101789
    w: 0.409211991901
---
header: 
  seq: 12574
  stamp: 
    secs: 1723702577
    nsecs: 356750848
  frame_id: "map"
pose: 
  position: 
    x: -43.1356277466
    y: -40.9102859497
    z: 2.16945695877
  orientation: 
    x: 0.0201610506816
    y: 0.0239989736586
    z: 0.915988437941
    w: 0.399978376036
---
header: 
  seq: 12575
  stamp: 
    secs: 1723702577
    nsecs: 386750848
  frame_id: "map"
pose: 
  position: 
    x: -43.1550788879
    y: -40.9412918091
    z: 2.16898608208
  orientation: 
    x: 0.019515710773
    y: 0.0206855522828
    z: 0.919998141595
    w: 0.390889555668
---
header: 
  seq: 12576
  stamp: 
    secs: 1723702577
    nsecs: 426749056
  frame_id: "map"
pose: 
  position: 
    x: -43.1818466187
    y: -40.9835319519
    z: 2.16504645348
  orientation: 
    x: 0.0198823865029
    y: 0.0187587292957
    z: 0.92170300269
    w: 0.38693194552
---
header: 
  seq: 12577
  stamp: 
    secs: 1723702577
    nsecs: 456749056
  frame_id: "map"
pose: 
  position: 
    x: -43.202835083
    y: -41.0169677734
    z: 2.16152834892
  orientation: 
    x: 0.0217060359392
    y: 0.0148502833636
    z: 0.924249726012
    w: 0.380881638975
---
header: 
  seq: 12578
  stamp: 
    secs: 1723702577
    nsecs: 486749056
  frame_id: "map"
pose: 
  position: 
    x: -43.2243804932
    y: -41.0512428284
    z: 2.15621447563
  orientation: 
    x: 0.0241697023101
    y: 0.0122174500795
    z: 0.925660296738
    w: 0.37738530501
---
header: 
  seq: 12579
  stamp: 
    secs: 1723702577
    nsecs: 526747520
  frame_id: "map"
pose: 
  position: 
    x: -43.2544555664
    y: -41.0983161926
    z: 2.14739227295
  orientation: 
    x: 0.0253968914396
    y: 0.0117064649809
    z: 0.925923925275
    w: 0.376673402592
---
header: 
  seq: 12580
  stamp: 
    secs: 1723702577
    nsecs: 556747520
  frame_id: "map"
pose: 
  position: 
    x: -43.2793121338
    y: -41.1355628967
    z: 2.14075040817
  orientation: 
    x: 0.0281112163138
    y: 0.0120378900169
    z: 0.925422314557
    w: 0.377701511741
---
header: 
  seq: 12581
  stamp: 
    secs: 1723702577
    nsecs: 586747520
  frame_id: "map"
pose: 
  position: 
    x: -43.3051872253
    y: -41.1727676392
    z: 2.13498473167
  orientation: 
    x: 0.0316682759851
    y: 0.0136539266294
    z: 0.923467606944
    w: 0.38212358016
---
header: 
  seq: 12582
  stamp: 
    secs: 1723702577
    nsecs: 626747520
  frame_id: "map"
pose: 
  position: 
    x: -43.3430252075
    y: -41.2239456177
    z: 2.1291077137
  orientation: 
    x: 0.0335970606527
    y: 0.0149714292113
    z: 0.922053074414
    w: 0.38531198925
---
header: 
  seq: 12583
  stamp: 
    secs: 1723702577
    nsecs: 656747520
  frame_id: "map"
pose: 
  position: 
    x: -43.370677948
    y: -41.2582740784
    z: 2.12683844566
  orientation: 
    x: 0.0370626794434
    y: 0.0189595596051
    z: 0.918981538535
    w: 0.392096746777
---
header: 
  seq: 12584
  stamp: 
    secs: 1723702577
    nsecs: 686747520
  frame_id: "map"
pose: 
  position: 
    x: -43.3983383179
    y: -41.290473938
    z: 2.12664270401
  orientation: 
    x: 0.0400828587289
    y: 0.0237085617867
    z: 0.916157615391
    w: 0.398103684214
---
header: 
  seq: 12585
  stamp: 
    secs: 1723702577
    nsecs: 726745472
  frame_id: "map"
pose: 
  position: 
    x: -43.4351921082
    y: -41.3310165405
    z: 2.12913012505
  orientation: 
    x: 0.0415823099143
    y: 0.0257519009301
    z: 0.914716825375
    w: 0.401124643875
---
header: 
  seq: 12586
  stamp: 
    secs: 1723702577
    nsecs: 756745472
  frame_id: "map"
pose: 
  position: 
    x: -43.4621696472
    y: -41.360584259
    z: 2.13189435005
  orientation: 
    x: 0.0435664254915
    y: 0.0285720730045
    z: 0.911393588517
    w: 0.408224744122
---
header: 
  seq: 12587
  stamp: 
    secs: 1723702577
    nsecs: 796745472
  frame_id: "map"
pose: 
  position: 
    x: -43.4986190796
    y: -41.3984260559
    z: 2.13709712029
  orientation: 
    x: 0.0431398532865
    y: 0.0298962308372
    z: 0.907787904553
    w: 0.416132694087
---
header: 
  seq: 12588
  stamp: 
    secs: 1723702577
    nsecs: 826745984
  frame_id: "map"
pose: 
  position: 
    x: -43.5265846252
    y: -41.4262619019
    z: 2.14117717743
  orientation: 
    x: 0.0420717948519
    y: 0.0300247675299
    z: 0.906027810012
    w: 0.420050285803
---
header: 
  seq: 12589
  stamp: 
    secs: 1723702577
    nsecs: 857745984
  frame_id: "map"
pose: 
  position: 
    x: -43.5574226379
    y: -41.4562454224
    z: 2.14499139786
  orientation: 
    x: 0.0392836178331
    y: 0.0289288806507
    z: 0.902661014386
    w: 0.427578071196
---
header: 
  seq: 12590
  stamp: 
    secs: 1723702577
    nsecs: 887745984
  frame_id: "map"
pose: 
  position: 
    x: -43.5862960815
    y: -41.483669281
    z: 2.14763855934
  orientation: 
    x: 0.0363050348529
    y: 0.0258597596545
    z: 0.899376320821
    w: 0.434897313981
---
header: 
  seq: 12591
  stamp: 
    secs: 1723702577
    nsecs: 927745984
  frame_id: "map"
pose: 
  position: 
    x: -43.6252784729
    y: -41.5195617676
    z: 2.14882731438
  orientation: 
    x: 0.0347739557504
    y: 0.0237981360229
    z: 0.897735544008
    w: 0.43851503087
---
header: 
  seq: 12592
  stamp: 
    secs: 1723702577
    nsecs: 957745984
  frame_id: "map"
pose: 
  position: 
    x: -43.6552314758
    y: -41.5463943481
    z: 2.14738464355
  orientation: 
    x: 0.0312943965603
    y: 0.0198566572513
    z: 0.894603379888
    w: 0.44532147295
---
header: 
  seq: 12593
  stamp: 
    secs: 1723702577
    nsecs: 987745984
  frame_id: "map"
pose: 
  position: 
    x: -43.6857223511
    y: -41.5733718872
    z: 2.14425492287
  orientation: 
    x: 0.0265957068498
    y: 0.0172925625137
    z: 0.892122763899
    w: 0.450677937001
---
header: 
  seq: 12594
  stamp: 
    secs: 1723702578
    nsecs:  27743936
  frame_id: "map"
pose: 
  position: 
    x: -43.726940155
    y: -41.6096839905
    z: 2.13866782188
  orientation: 
    x: 0.0206663731206
    y: 0.0169247645828
    z: 0.890561223161
    w: 0.454078344739
---
header: 
  seq: 12595
  stamp: 
    secs: 1723702578
    nsecs:  57743936
  frame_id: "map"
pose: 
  position: 
    x: -43.7577095032
    y: -41.6370925903
    z: 2.13505887985
  orientation: 
    x: 0.017388199681
    y: 0.0175158182804
    z: 0.890147551843
    w: 0.45500351021
---
header: 
  seq: 12596
  stamp: 
    secs: 1723702578
    nsecs:  87743936
  frame_id: "map"
pose: 
  position: 
    x: -43.7881469727
    y: -41.6641159058
    z: 2.13171315193
  orientation: 
    x: 0.0110742375578
    y: 0.0198436526436
    z: 0.89014999636
    w: 0.455100616549
---
header: 
  seq: 12597
  stamp: 
    secs: 1723702578
    nsecs: 127747264
  frame_id: "map"
pose: 
  position: 
    x: -43.8300476074
    y: -41.7009658813
    z: 2.12852573395
  orientation: 
    x: 0.00837946783354
    y: 0.0213960952593
    z: 0.890622399312
    w: 0.454162743803
---
header: 
  seq: 12598
  stamp: 
    secs: 1723702578
    nsecs: 157747264
  frame_id: "map"
pose: 
  position: 
    x: -43.8584213257
    y: -41.7258377075
    z: 2.12715983391
  orientation: 
    x: 0.00437911748783
    y: 0.0246550377587
    z: 0.892538816514
    w: 0.450274949909
---
header: 
  seq: 12599
  stamp: 
    secs: 1723702578
    nsecs: 187747264
  frame_id: "map"
pose: 
  position: 
    x: -43.8854560852
    y: -41.7498664856
    z: 2.12725996971
  orientation: 
    x: 0.00270661265945
    y: 0.0258919232975
    z: 0.895109732126
    w: 0.445085282011
---
header: 
  seq: 12600
  stamp: 
    secs: 1723702578
    nsecs: 227745728
  frame_id: "map"
pose: 
  position: 
    x: -43.9196548462
    y: -41.7816543579
    z: 2.13051605225
  orientation: 
    x: 0.00268343452695
    y: 0.0251579728092
    z: 0.89621848927
    w: 0.44289082205
---
header: 
  seq: 12601
  stamp: 
    secs: 1723702578
    nsecs: 257745728
  frame_id: "map"
pose: 
  position: 
    x: -43.9445991516
    y: -41.8061294556
    z: 2.13308954239
  orientation: 
    x: 0.00197816826176
    y: 0.0221660885471
    z: 0.897856168289
    w: 0.439726162709
---
header: 
  seq: 12602
  stamp: 
    secs: 1723702578
    nsecs: 287745728
  frame_id: "map"
pose: 
  position: 
    x: -43.9685592651
    y: -41.8309249878
    z: 2.13548803329
  orientation: 
    x: 2.05617351727e-05
    y: 0.0190034627918
    z: 0.899501791989
    w: 0.436503741112
---
header: 
  seq: 12603
  stamp: 
    secs: 1723702578
    nsecs: 327744192
  frame_id: "map"
pose: 
  position: 
    x: -43.998714447
    y: -41.8643951416
    z: 2.13860416412
  orientation: 
    x: -0.000362979854633
    y: 0.0174581262006
    z: 0.900563155002
    w: 0.434374461252
---
header: 
  seq: 12604
  stamp: 
    secs: 1723702578
    nsecs: 357744192
  frame_id: "map"
pose: 
  position: 
    x: -44.0227928162
    y: -41.8923492432
    z: 2.14119434357
  orientation: 
    x: 0.000860975162836
    y: 0.0144444408226
    z: 0.903023055815
    w: 0.429348323127
---
header: 
  seq: 12605
  stamp: 
    secs: 1723702578
    nsecs: 387744192
  frame_id: "map"
pose: 
  position: 
    x: -44.0441703796
    y: -41.9186286926
    z: 2.14220309258
  orientation: 
    x: 0.00356257103023
    y: 0.0114330498135
    z: 0.905525567092
    w: 0.424122619674
---
header: 
  seq: 12606
  stamp: 
    secs: 1723702578
    nsecs: 427743168
  frame_id: "map"
pose: 
  position: 
    x: -44.0717468262
    y: -41.9547424316
    z: 2.14143514633
  orientation: 
    x: 0.00508260979875
    y: 0.00986260999965
    z: 0.906696027222
    w: 0.421638695157
---
header: 
  seq: 12607
  stamp: 
    secs: 1723702578
    nsecs: 457743168
  frame_id: "map"
pose: 
  position: 
    x: -44.0924224854
    y: -41.9831771851
    z: 2.13987278938
  orientation: 
    x: 0.00809915375391
    y: 0.00662020635168
    z: 0.908764320593
    w: 0.417178821014
---
header: 
  seq: 12608
  stamp: 
    secs: 1723702578
    nsecs: 487743168
  frame_id: "map"
pose: 
  position: 
    x: -44.1134719849
    y: -42.0127410889
    z: 2.13666200638
  orientation: 
    x: 0.0109127048218
    y: 0.00382886403874
    z: 0.910297391134
    w: 0.413793396481
---
header: 
  seq: 12609
  stamp: 
    secs: 1723702578
    nsecs: 527742144
  frame_id: "map"
pose: 
  position: 
    x: -44.1426811218
    y: -42.0538406372
    z: 2.12973928452
  orientation: 
    x: 0.0122912903703
    y: 0.0028348592633
    z: 0.910743768406
    w: 0.412779385453
---
header: 
  seq: 12610
  stamp: 
    secs: 1723702578
    nsecs: 557742144
  frame_id: "map"
pose: 
  position: 
    x: -44.1659927368
    y: -42.0862884521
    z: 2.12439775467
  orientation: 
    x: 0.015997711558
    y: 0.001873134364
    z: 0.910665459562
    w: 0.412830636021
---
header: 
  seq: 12611
  stamp: 
    secs: 1723702578
    nsecs: 587742144
  frame_id: "map"
pose: 
  position: 
    x: -44.1906318665
    y: -42.1194801331
    z: 2.11877036095
  orientation: 
    x: 0.0214411851432
    y: 0.00246476284744
    z: 0.909039328779
    w: 0.416151070113
---
header: 
  seq: 12612
  stamp: 
    secs: 1723702578
    nsecs: 627739328
  frame_id: "map"
pose: 
  position: 
    x: -44.2261505127
    y: -42.1657180786
    z: 2.11196446419
  orientation: 
    x: 0.0248160821839
    y: 0.00346005935794
    z: 0.907691472564
    w: 0.418889603742
---
header: 
  seq: 12613
  stamp: 
    secs: 1723702578
    nsecs: 657739328
  frame_id: "map"
pose: 
  position: 
    x: -44.2538528442
    y: -42.2008209229
    z: 2.10805678368
  orientation: 
    x: 0.0331556244396
    y: 0.00656259885376
    z: 0.904089940065
    w: 0.42600373889
---
header: 
  seq: 12614
  stamp: 
    secs: 1723702578
    nsecs: 687739328
  frame_id: "map"
pose: 
  position: 
    x: -44.2849769592
    y: -42.2389831543
    z: 2.10488295555
  orientation: 
    x: 0.0439842192983
    y: 0.0110983926411
    z: 0.899287348824
    w: 0.434999520089
---
header: 
  seq: 12615
  stamp: 
    secs: 1723702578
    nsecs: 727741376
  frame_id: "map"
pose: 
  position: 
    x: -44.3243865967
    y: -42.285785675
    z: 2.10377979279
  orientation: 
    x: 0.0496356559708
    y: 0.0141151507879
    z: 0.896468356861
    w: 0.440092840291
---
header: 
  seq: 12616
  stamp: 
    secs: 1723702578
    nsecs: 757741376
  frame_id: "map"
pose: 
  position: 
    x: -44.3529701233
    y: -42.319732666
    z: 2.1056497097
  orientation: 
    x: 0.0601694481122
    y: 0.0212401769445
    z: 0.890587417428
    w: 0.450313809303
---
header: 
  seq: 12617
  stamp: 
    secs: 1723702578
    nsecs: 787741376
  frame_id: "map"
pose: 
  position: 
    x: -44.3809623718
    y: -42.3522453308
    z: 2.10961890221
  orientation: 
    x: 0.0693824001681
    y: 0.0283003917848
    z: 0.885093006742
    w: 0.459342654705
---
header: 
  seq: 12618
  stamp: 
    secs: 1723702578
    nsecs: 827739584
  frame_id: "map"
pose: 
  position: 
    x: -44.4174041748
    y: -42.3933372498
    z: 2.11716246605
  orientation: 
    x: 0.0736048611127
    y: 0.03144830829
    z: 0.882471704572
    w: 0.463505351419
---
header: 
  seq: 12619
  stamp: 
    secs: 1723702578
    nsecs: 857739584
  frame_id: "map"
pose: 
  position: 
    x: -44.4430923462
    y: -42.4219284058
    z: 2.12450265884
  orientation: 
    x: 0.080859998542
    y: 0.0374086418494
    z: 0.877225201649
    w: 0.471739644432
---
header: 
  seq: 12620
  stamp: 
    secs: 1723702578
    nsecs: 887739584
  frame_id: "map"
pose: 
  position: 
    x: -44.4685440063
    y: -42.4492263794
    z: 2.13168764114
  orientation: 
    x: 0.085518772882
    y: 0.0432365302545
    z: 0.871995515319
    w: 0.48004276325
---
header: 
  seq: 12621
  stamp: 
    secs: 1723702578
    nsecs: 927737792
  frame_id: "map"
pose: 
  position: 
    x: -44.5045928955
    y: -42.4868164062
    z: 2.14018630981
  orientation: 
    x: 0.0868418269941
    y: 0.0462110533077
    z: 0.869432649755
    w: 0.48415916165
---
header: 
  seq: 12622
  stamp: 
    secs: 1723702578
    nsecs: 957737792
  frame_id: "map"
pose: 
  position: 
    x: -44.5300254822
    y: -42.5129203796
    z: 2.14429807663
  orientation: 
    x: 0.0877422298752
    y: 0.051881618064
    z: 0.864486948889
    w: 0.492211253838
---
header: 
  seq: 12623
  stamp: 
    secs: 1723702578
    nsecs: 987737792
  frame_id: "map"
pose: 
  position: 
    x: -44.5549049377
    y: -42.538734436
    z: 2.14729166031
  orientation: 
    x: 0.0869606850582
    y: 0.0562708277464
    z: 0.859752340515
    w: 0.500097350663
---
header: 
  seq: 12624
  stamp: 
    secs: 1723702579
    nsecs:  27737792
  frame_id: "map"
pose: 
  position: 
    x: -44.5878677368
    y: -42.5731048584
    z: 2.14827275276
  orientation: 
    x: 0.0864115906474
    y: 0.0575681973057
    z: 0.857462154524
    w: 0.503962058621
---
header: 
  seq: 12625
  stamp: 
    secs: 1723702579
    nsecs:  57737792
  frame_id: "map"
pose: 
  position: 
    x: -44.6129989624
    y: -42.5996246338
    z: 2.14640903473
  orientation: 
    x: 0.0853492951358
    y: 0.0583900450466
    z: 0.853107573746
    w: 0.511384087033
---
header: 
  seq: 12626
  stamp: 
    secs: 1723702579
    nsecs:  87737792
  frame_id: "map"
pose: 
  position: 
    x: -44.6384849548
    y: -42.6275520325
    z: 2.14273548126
  orientation: 
    x: 0.0834368805675
    y: 0.0589289886523
    z: 0.849305264197
    w: 0.517924930211
---
header: 
  seq: 12627
  stamp: 
    secs: 1723702579
    nsecs: 127743424
  frame_id: "map"
pose: 
  position: 
    x: -44.6724624634
    y: -42.6672973633
    z: 2.13654184341
  orientation: 
    x: 0.0817416243435
    y: 0.0597444610238
    z: 0.847892417542
    w: 0.52041083563
---
header: 
  seq: 12628
  stamp: 
    secs: 1723702579
    nsecs: 157743424
  frame_id: "map"
pose: 
  position: 
    x: -44.697101593
    y: -42.6972694397
    z: 2.13240647316
  orientation: 
    x: 0.0769162718287
    y: 0.0618901169102
    z: 0.846322152407
    w: 0.523442922058
---
header: 
  seq: 12629
  stamp: 
    secs: 1723702579
    nsecs: 187743424
  frame_id: "map"
pose: 
  position: 
    x: -44.7229385376
    y: -42.7296485901
    z: 2.12882232666
  orientation: 
    x: 0.0716756773671
    y: 0.0640896687378
    z: 0.846081493902
    w: 0.524310219907
---
header: 
  seq: 12630
  stamp: 
    secs: 1723702579
    nsecs: 227741632
  frame_id: "map"
pose: 
  position: 
    x: -44.7528381348
    y: -42.7688331604
    z: 2.12663578987
  orientation: 
    x: 0.0675787334416
    y: 0.0659327677923
    z: 0.847274028444
    w: 0.522697481285
---
header: 
  seq: 12631
  stamp: 
    secs: 1723702579
    nsecs: 257741632
  frame_id: "map"
pose: 
  position: 
    x: -44.7736206055
    y: -42.797000885
    z: 2.12516617775
  orientation: 
    x: 0.0660083649563
    y: 0.067054198584
    z: 0.848500965351
    w: 0.520761802974
---
header: 
  seq: 12632
  stamp: 
    secs: 1723702579
    nsecs: 287741632
  frame_id: "map"
pose: 
  position: 
    x: -44.7931442261
    y: -42.824760437
    z: 2.12511301041
  orientation: 
    x: 0.0635556493986
    y: 0.0699453888801
    z: 0.85217357851
    w: 0.514653944908
---
header: 
  seq: 12633
  stamp: 
    secs: 1723702579
    nsecs: 328742400
  frame_id: "map"
pose: 
  position: 
    x: -44.8173942566
    y: -42.8615875244
    z: 2.12664532661
  orientation: 
    x: 0.0626163779036
    y: 0.0713080254685
    z: 0.854394074687
    w: 0.510886743684
---
header: 
  seq: 12634
  stamp: 
    secs: 1723702579
    nsecs: 358742400
  frame_id: "map"
pose: 
  position: 
    x: -44.8347663879
    y: -42.8894958496
    z: 2.12773394585
  orientation: 
    x: 0.0603270641547
    y: 0.0731527005023
    z: 0.859048066677
    w: 0.503036671878
---
header: 
  seq: 12635
  stamp: 
    secs: 1723702579
    nsecs: 388742400
  frame_id: "map"
pose: 
  position: 
    x: -44.8514060974
    y: -42.9171066284
    z: 2.12927627563
  orientation: 
    x: 0.0565306466039
    y: 0.0732586767772
    z: 0.863747398139
    w: 0.495356546702
---
header: 
  seq: 12636
  stamp: 
    secs: 1723702579
    nsecs: 428741120
  frame_id: "map"
pose: 
  position: 
    x: -44.8744506836
    y: -42.9558868408
    z: 2.13311123848
  orientation: 
    x: 0.0548470716423
    y: 0.0728507881384
    z: 0.865443218735
    w: 0.492638580735
---
header: 
  seq: 12637
  stamp: 
    secs: 1723702579
    nsecs: 458741120
  frame_id: "map"
pose: 
  position: 
    x: -44.8913764954
    y: -42.983291626
    z: 2.13635849953
  orientation: 
    x: 0.0497773971394
    y: 0.0699851382974
    z: 0.869992718151
    w: 0.485527480161
---
header: 
  seq: 12638
  stamp: 
    secs: 1723702579
    nsecs: 488741120
  frame_id: "map"
pose: 
  position: 
    x: -44.9084663391
    y: -43.0107917786
    z: 2.13856172562
  orientation: 
    x: 0.0457391291181
    y: 0.0659452673786
    z: 0.873295029099
    w: 0.480536007818
---
header: 
  seq: 12639
  stamp: 
    secs: 1723702579
    nsecs: 528740864
  frame_id: "map"
pose: 
  position: 
    x: -44.9318313599
    y: -43.0479431152
    z: 2.13899850845
  orientation: 
    x: 0.0427728760667
    y: 0.0617835189693
    z: 0.875608933229
    w: 0.477139772618
---
header: 
  seq: 12640
  stamp: 
    secs: 1723702579
    nsecs: 558740864
  frame_id: "map"
pose: 
  position: 
    x: -44.9500579834
    y: -43.0768890381
    z: 2.13746190071
  orientation: 
    x: 0.0411828038886
    y: 0.0586293838284
    z: 0.876900965944
    w: 0.475301179572
---
header: 
  seq: 12641
  stamp: 
    secs: 1723702579
    nsecs: 588740864
  frame_id: "map"
pose: 
  position: 
    x: -44.9687042236
    y: -43.1064071655
    z: 2.13359761238
  orientation: 
    x: 0.0398896714047
    y: 0.0544066634172
    z: 0.878211775079
    w: 0.473490003051
---
header: 
  seq: 12642
  stamp: 
    secs: 1723702579
    nsecs: 628741888
  frame_id: "map"
pose: 
  position: 
    x: -44.9945030212
    y: -43.1465797424
    z: 2.12516403198
  orientation: 
    x: 0.0396686862583
    y: 0.0516193329574
    z: 0.87882307297
    w: 0.472685756888
---
header: 
  seq: 12643
  stamp: 
    secs: 1723702579
    nsecs: 658741888
  frame_id: "map"
pose: 
  position: 
    x: -45.0150299072
    y: -43.1771469116
    z: 2.1171631813
  orientation: 
    x: 0.0404956103896
    y: 0.0480191461941
    z: 0.879174830568
    w: 0.472340911373
---
header: 
  seq: 12644
  stamp: 
    secs: 1723702579
    nsecs: 688741888
  frame_id: "map"
pose: 
  position: 
    x: -45.0383110046
    y: -43.2105484009
    z: 2.10705423355
  orientation: 
    x: 0.0431222087389
    y: 0.0436536742424
    z: 0.878391404947
    w: 0.473986745808
---
header: 
  seq: 12645
  stamp: 
    secs: 1723702579
    nsecs: 728740352
  frame_id: "map"
pose: 
  position: 
    x: -45.069026947
    y: -43.2516326904
    z: 2.09459424019
  orientation: 
    x: 0.0442918411607
    y: 0.0422090652441
    z: 0.877702472562
    w: 0.475284194392
---
header: 
  seq: 12646
  stamp: 
    secs: 1723702579
    nsecs: 758740352
  frame_id: "map"
pose: 
  position: 
    x: -45.0934371948
    y: -43.2825889587
    z: 2.08783507347
  orientation: 
    x: 0.0481833391207
    y: 0.0380976871755
    z: 0.874182325627
    w: 0.481697385302
---
header: 
  seq: 12647
  stamp: 
    secs: 1723702579
    nsecs: 788740352
  frame_id: "map"
pose: 
  position: 
    x: -45.1194725037
    y: -43.313785553
    z: 2.08261394501
  orientation: 
    x: 0.0520627988047
    y: 0.0354456965025
    z: 0.868969371596
    w: 0.490841628775
---
header: 
  seq: 12648
  stamp: 
    secs: 1723702579
    nsecs: 818738560
  frame_id: "map"
pose: 
  position: 
    x: -45.1458740234
    y: -43.3433456421
    z: 2.0794839859
  orientation: 
    x: 0.0537256006383
    y: 0.0349522115656
    z: 0.865838556174
    w: 0.496201085252
---
header: 
  seq: 12649
  stamp: 
    secs: 1723702579
    nsecs: 858738560
  frame_id: "map"
pose: 
  position: 
    x: -45.1803398132
    y: -43.380153656
    z: 2.07797074318
  orientation: 
    x: 0.0561291978718
    y: 0.0358132670709
    z: 0.85979440307
    w: 0.506281136276
---
header: 
  seq: 12650
  stamp: 
    secs: 1723702579
    nsecs: 888738560
  frame_id: "map"
pose: 
  position: 
    x: -45.2060623169
    y: -43.4063415527
    z: 2.07900285721
  orientation: 
    x: 0.0577155222732
    y: 0.0373247781819
    z: 0.854993592533
    w: 0.514064089226
---
header: 
  seq: 12651
  stamp: 
    secs: 1723702579
    nsecs: 928740352
  frame_id: "map"
pose: 
  position: 
    x: -45.2398681641
    y: -43.439491272
    z: 2.08213472366
  orientation: 
    x: 0.0585645863415
    y: 0.038790376887
    z: 0.851631896676
    w: 0.519411913173
---
header: 
  seq: 12652
  stamp: 
    secs: 1723702579
    nsecs: 958740352
  frame_id: "map"
pose: 
  position: 
    x: -45.2643508911
    y: -43.462677002
    z: 2.08559060097
  orientation: 
    x: 0.0597994909785
    y: 0.0402536713448
    z: 0.84690014375
    w: 0.526843424627
---
header: 
  seq: 12653
  stamp: 
    secs: 1723702579
    nsecs: 988740352
  frame_id: "map"
pose: 
  position: 
    x: -45.2911949158
    y: -43.4869003296
    z: 2.08968734741
  orientation: 
    x: 0.0621385778506
    y: 0.0400472044706
    z: 0.841483978689
    w: 0.535200596777
---
header: 
  seq: 12654
  stamp: 
    secs: 1723702580
    nsecs:  28741120
  frame_id: "map"
pose: 
  position: 
    x: -45.3243293762
    y: -43.5165290833
    z: 2.09457135201
  orientation: 
    x: 0.0637484768282
    y: 0.0394523069723
    z: 0.838255213992
    w: 0.540099893962
---
header: 
  seq: 12655
  stamp: 
    secs: 1723702580
    nsecs:  58741120
  frame_id: "map"
pose: 
  position: 
    x: -45.3489112854
    y: -43.5387916565
    z: 2.0981323719
  orientation: 
    x: 0.0654462137894
    y: 0.0387000081169
    z: 0.834399504386
    w: 0.545890649677
---
header: 
  seq: 12656
  stamp: 
    secs: 1723702580
    nsecs:  88741120
  frame_id: "map"
pose: 
  position: 
    x: -45.3735389709
    y: -43.5616149902
    z: 2.09965968132
  orientation: 
    x: 0.0658838548106
    y: 0.0388678908683
    z: 0.830979951442
    w: 0.551018077216
---
header: 
  seq: 12657
  stamp: 
    secs: 1723702580
    nsecs: 128742656
  frame_id: "map"
pose: 
  position: 
    x: -45.4065818787
    y: -43.5929222107
    z: 2.09869098663
  orientation: 
    x: 0.0656726082204
    y: 0.0391183024174
    z: 0.830167265372
    w: 0.552249281491
---
header: 
  seq: 12658
  stamp: 
    secs: 1723702580
    nsecs: 158742656
  frame_id: "map"
pose: 
  position: 
    x: -45.4302062988
    y: -43.6160392761
    z: 2.09865427017
  orientation: 
    x: 0.0641573539423
    y: 0.0401531774529
    z: 0.828362115851
    w: 0.555056598777
---
header: 
  seq: 12659
  stamp: 
    secs: 1723702580
    nsecs: 188742656
  frame_id: "map"
pose: 
  position: 
    x: -45.4541282654
    y: -43.6398849487
    z: 2.09735822678
  orientation: 
    x: 0.0614985746632
    y: 0.0416656678196
    z: 0.827629140008
    w: 0.556337989412
---
header: 
  seq: 12660
  stamp: 
    secs: 1723702580
    nsecs: 228742912
  frame_id: "map"
pose: 
  position: 
    x: -45.4882316589
    y: -43.6746406555
    z: 2.09505724907
  orientation: 
    x: 0.0595841568026
    y: 0.0427490551948
    z: 0.827678778459
    w: 0.556390177747
---
header: 
  seq: 12661
  stamp: 
    secs: 1723702580
    nsecs: 258742912
  frame_id: "map"
pose: 
  position: 
    x: -45.5119857788
    y: -43.6991539001
    z: 2.09414434433
  orientation: 
    x: 0.0553750768238
    y: 0.0450792497404
    z: 0.828609855026
    w: 0.555254267496
---
header: 
  seq: 12662
  stamp: 
    secs: 1723702580
    nsecs: 288742912
  frame_id: "map"
pose: 
  position: 
    x: -45.5352325439
    y: -43.7234077454
    z: 2.09380936623
  orientation: 
    x: 0.0498432848467
    y: 0.0479248228643
    z: 0.831048345241
    w: 0.551885512042
---
header: 
  seq: 12663
  stamp: 
    secs: 1723702580
    nsecs: 328742656
  frame_id: "map"
pose: 
  position: 
    x: -45.5647315979
    y: -43.754699707
    z: 2.09420132637
  orientation: 
    x: 0.0482921153056
    y: 0.0484593893458
    z: 0.832066929202
    w: 0.550439980505
---
header: 
  seq: 12664
  stamp: 
    secs: 1723702580
    nsecs: 358742656
  frame_id: "map"
pose: 
  position: 
    x: -45.5856628418
    y: -43.7776947021
    z: 2.0946764946
  orientation: 
    x: 0.0452211455846
    y: 0.0476725421188
    z: 0.835558869358
    w: 0.545457390611
---
header: 
  seq: 12665
  stamp: 
    secs: 1723702580
    nsecs: 388742656
  frame_id: "map"
pose: 
  position: 
    x: -45.6054763794
    y: -43.8001060486
    z: 2.09626722336
  orientation: 
    x: 0.0450386271754
    y: 0.0433571910018
    z: 0.838804545478
    w: 0.540831405202
---
header: 
  seq: 12666
  stamp: 
    secs: 1723702580
    nsecs: 418740864
  frame_id: "map"
pose: 
  position: 
    x: -45.6244812012
    y: -43.8218688965
    z: 2.09909534454
  orientation: 
    x: 0.0455049915208
    y: 0.04047926301
    z: 0.840373019372
    w: 0.53857576909
---
header: 
  seq: 12667
  stamp: 
    secs: 1723702580
    nsecs: 458740864
  frame_id: "map"
pose: 
  position: 
    x: -45.6499557495
    y: -43.8509368896
    z: 2.10251450539
  orientation: 
    x: 0.0465590723482
    y: 0.034779213899
    z: 0.843760340514
    w: 0.533564698462
---
header: 
  seq: 12668
  stamp: 
    secs: 1723702580
    nsecs: 488740864
  frame_id: "map"
pose: 
  position: 
    x: -45.6700057983
    y: -43.874835968
    z: 2.10527086258
  orientation: 
    x: 0.0471157084107
    y: 0.0309197084428
    z: 0.847419413998
    w: 0.527924638805
---
header: 
  seq: 12669
  stamp: 
    secs: 1723702580
    nsecs: 529741888
  frame_id: "map"
pose: 
  position: 
    x: -45.6942214966
    y: -43.9048805237
    z: 2.10907435417
  orientation: 
    x: 0.0472165388189
    y: 0.0289094255996
    z: 0.850343499127
    w: 0.523307599064
---
header: 
  seq: 12670
  stamp: 
    secs: 1723702580
    nsecs: 558741888
  frame_id: "map"
pose: 
  position: 
    x: -45.7124633789
    y: -43.9278526306
    z: 2.11227703094
  orientation: 
    x: 0.0472267521856
    y: 0.0261527497281
    z: 0.854351127048
    w: 0.516884788136
---
header: 
  seq: 12671
  stamp: 
    secs: 1723702580
    nsecs: 588741888
  frame_id: "map"
pose: 
  position: 
    x: -45.7304115295
    y: -43.9511032104
    z: 2.1153512001
  orientation: 
    x: 0.0474047705956
    y: 0.0209290897385
    z: 0.858635933718
    w: 0.509960071463
---
header: 
  seq: 12672
  stamp: 
    secs: 1723702580
    nsecs: 629739840
  frame_id: "map"
pose: 
  position: 
    x: -45.7542915344
    y: -43.9829521179
    z: 2.11850070953
  orientation: 
    x: 0.0475513981645
    y: 0.0187194055452
    z: 0.85982231482
    w: 0.508029545603
---
header: 
  seq: 12673
  stamp: 
    secs: 1723702580
    nsecs: 658739840
  frame_id: "map"
pose: 
  position: 
    x: -45.7726211548
    y: -44.0078010559
    z: 2.12064886093
  orientation: 
    x: 0.0482386354566
    y: 0.0121154039982
    z: 0.862697625509
    w: 0.503268584912
---
header: 
  seq: 12674
  stamp: 
    secs: 1723702580
    nsecs: 688739840
  frame_id: "map"
pose: 
  position: 
    x: -45.7915649414
    y: -44.0334472656
    z: 2.12130570412
  orientation: 
    x: 0.0487157101229
    y: 0.00796196510346
    z: 0.864304558403
    w: 0.50054079873
---
header: 
  seq: 12675
  stamp: 
    secs: 1723702580
    nsecs: 718739072
  frame_id: "map"
pose: 
  position: 
    x: -45.8112640381
    y: -44.0597419739
    z: 2.12064814568
  orientation: 
    x: 0.0490170166258
    y: 0.00676717175389
    z: 0.864746025567
    w: 0.499765865699
---
header: 
  seq: 12676
  stamp: 
    secs: 1723702580
    nsecs: 758739072
  frame_id: "map"
pose: 
  position: 
    x: -45.8416900635
    y: -44.098449707
    z: 2.11967539787
  orientation: 
    x: 0.0503440707373
    y: 0.00608875764102
    z: 0.864834807904
    w: 0.499489108419
---
header: 
  seq: 12677
  stamp: 
    secs: 1723702580
    nsecs: 789739072
  frame_id: "map"
pose: 
  position: 
    x: -45.8645210266
    y: -44.1263008118
    z: 2.11859607697
  orientation: 
    x: 0.0534732872126
    y: 0.00764005932833
    z: 0.86385350283
    w: 0.500838608361
---
header: 
  seq: 12678
  stamp: 
    secs: 1723702580
    nsecs: 818737536
  frame_id: "map"
pose: 
  position: 
    x: -45.8882980347
    y: -44.1540298462
    z: 2.11775112152
  orientation: 
    x: 0.0560893315629
    y: 0.00918064254524
    z: 0.862987258652
    w: 0.502018593679
---
header: 
  seq: 12679
  stamp: 
    secs: 1723702580
    nsecs: 859737536
  frame_id: "map"
pose: 
  position: 
    x: -45.9199523926
    y: -44.1892662048
    z: 2.11622214317
  orientation: 
    x: 0.0632249774083
    y: 0.0139646364893
    z: 0.860704016354
    w: 0.504971633693
---
header: 
  seq: 12680
  stamp: 
    secs: 1723702580
    nsecs: 889737536
  frame_id: "map"
pose: 
  position: 
    x: -45.9435768127
    y: -44.2136039734
    z: 2.11628508568
  orientation: 
    x: 0.069444572038
    y: 0.0200432183006
    z: 0.858784237942
    w: 0.507213498322
---
header: 
  seq: 12681
  stamp: 
    secs: 1723702580
    nsecs: 919736000
  frame_id: "map"
pose: 
  position: 
    x: -45.9671974182
    y: -44.2365760803
    z: 2.11838030815
  orientation: 
    x: 0.0729708908516
    y: 0.0245916456058
    z: 0.857749048122
    w: 0.508268750042
---
header: 
  seq: 12682
  stamp: 
    secs: 1723702580
    nsecs: 959736000
  frame_id: "map"
pose: 
  position: 
    x: -45.9989318848
    y: -44.2673225403
    z: 2.12351059914
  orientation: 
    x: 0.0760454454986
    y: 0.0298637158607
    z: 0.856331776047
    w: 0.509922803112
---
header: 
  seq: 12683
  stamp: 
    secs: 1723702580
    nsecs: 989736000
  frame_id: "map"
pose: 
  position: 
    x: -46.0222969055
    y: -44.2896080017
    z: 2.12891483307
  orientation: 
    x: 0.0767009435796
    y: 0.033804942739
    z: 0.854232146495
    w: 0.513090433805
---
header: 
  seq: 12684
  stamp: 
    secs: 1723702581
    nsecs:  29736000
  frame_id: "map"
pose: 
  position: 
    x: -46.0534973145
    y: -44.317905426
    z: 2.13697338104
  orientation: 
    x: 0.0759324590173
    y: 0.0352186112583
    z: 0.853140574728
    w: 0.514922609994
---
header: 
  seq: 12685
  stamp: 
    secs: 1723702581
    nsecs:  59736000
  frame_id: "map"
pose: 
  position: 
    x: -46.0784263611
    y: -44.3396072388
    z: 2.14436650276
  orientation: 
    x: 0.073027063381
    y: 0.0378001399739
    z: 0.851405378438
    w: 0.518022268357
---
header: 
  seq: 12686
  stamp: 
    secs: 1723702581
    nsecs:  89736000
  frame_id: "map"
pose: 
  position: 
    x: -46.1013679504
    y: -44.3589057922
    z: 2.15070581436
  orientation: 
    x: 0.0701227095622
    y: 0.0397475917442
    z: 0.850476777999
    w: 0.519800296382
---
header: 
  seq: 12687
  stamp: 
    secs: 1723702581
    nsecs: 119740864
  frame_id: "map"
pose: 
  position: 
    x: -46.1239013672
    y: -44.3775024414
    z: 2.15563106537
  orientation: 
    x: 0.0694256968353
    y: 0.0401262587876
    z: 0.850343720398
    w: 0.520082216652
---
header: 
  seq: 12688
  stamp: 
    secs: 1723702581
    nsecs: 159740864
  frame_id: "map"
pose: 
  position: 
    x: -46.1525192261
    y: -44.4007835388
    z: 2.1600394249
  orientation: 
    x: 0.0673631736319
    y: 0.0408132985164
    z: 0.850539513583
    w: 0.519979820883
---
header: 
  seq: 12689
  stamp: 
    secs: 1723702581
    nsecs: 189740864
  frame_id: "map"
pose: 
  position: 
    x: -46.1732597351
    y: -44.4179992676
    z: 2.16138482094
  orientation: 
    x: 0.0653764475842
    y: 0.0413776105737
    z: 0.851329830213
    w: 0.518894476314
---
header: 
  seq: 12690
  stamp: 
    secs: 1723702581
    nsecs: 229739584
  frame_id: "map"
pose: 
  position: 
    x: -46.2004699707
    y: -44.4414291382
    z: 2.16072392464
  orientation: 
    x: 0.0634175628228
    y: 0.0420350217265
    z: 0.852303738515
    w: 0.517483926661
---
header: 
  seq: 12691
  stamp: 
    secs: 1723702581
    nsecs: 259739584
  frame_id: "map"
pose: 
  position: 
    x: -46.2209243774
    y: -44.4597473145
    z: 2.15930247307
  orientation: 
    x: 0.0596159809659
    y: 0.0437319058726
    z: 0.854436189925
    w: 0.514268807006
---
header: 
  seq: 12692
  stamp: 
    secs: 1723702581
    nsecs: 289739584
  frame_id: "map"
pose: 
  position: 
    x: -46.2426605225
    y: -44.4799995422
    z: 2.15676569939
  orientation: 
    x: 0.0526522346642
    y: 0.047492839399
    z: 0.859115828272
    w: 0.506845408821
---
header: 
  seq: 12693
  stamp: 
    secs: 1723702581
    nsecs: 319739584
  frame_id: "map"
pose: 
  position: 
    x: -46.2622833252
    y: -44.4986152649
    z: 2.15451192856
  orientation: 
    x: 0.0500093108731
    y: 0.0489739747742
    z: 0.861236794667
    w: 0.503360486115
---
header: 
  seq: 12694
  stamp: 
    secs: 1723702581
    nsecs: 359739584
  frame_id: "map"
pose: 
  position: 
    x: -46.2879676819
    y: -44.5231361389
    z: 2.15235209465
  orientation: 
    x: 0.0431290202293
    y: 0.0533210080147
    z: 0.868861222782
    w: 0.49028267727
---
header: 
  seq: 12695
  stamp: 
    secs: 1723702581
    nsecs: 389739584
  frame_id: "map"
pose: 
  position: 
    x: -46.3059120178
    y: -44.5405883789
    z: 2.15082788467
  orientation: 
    x: 0.0405083528965
    y: 0.0559882686886
    z: 0.875726754744
    w: 0.477835975335
---
header: 
  seq: 12696
  stamp: 
    secs: 1723702581
    nsecs: 419737536
  frame_id: "map"
pose: 
  position: 
    x: -46.3219680786
    y: -44.5569610596
    z: 2.14975690842
  orientation: 
    x: 0.0399943049074
    y: 0.0570347788884
    z: 0.881065053503
    w: 0.467837499537
---
header: 
  seq: 12697
  stamp: 
    secs: 1723702581
    nsecs: 459737536
  frame_id: "map"
pose: 
  position: 
    x: -46.3416481018
    y: -44.5791091919
    z: 2.1481218338
  orientation: 
    x: 0.0403671128803
    y: 0.0564507203741
    z: 0.888670557684
    w: 0.453264446947
---
header: 
  seq: 12698
  stamp: 
    secs: 1723702581
    nsecs: 489737536
  frame_id: "map"
pose: 
  position: 
    x: -46.3542175293
    y: -44.5960998535
    z: 2.14849090576
  orientation: 
    x: 0.0416412206718
    y: 0.0528003838002
    z: 0.896622382519
    w: 0.437660187415
---
header: 
  seq: 12699
  stamp: 
    secs: 1723702581
    nsecs: 529738816
  frame_id: "map"
pose: 
  position: 
    x: -46.3683357239
    y: -44.6194381714
    z: 2.15000915527
  orientation: 
    x: 0.0422704510589
    y: 0.0504354618978
    z: 0.900298831041
    w: 0.430269337134
---
header: 
  seq: 12700
  stamp: 
    secs: 1723702581
    nsecs: 559738816
  frame_id: "map"
pose: 
  position: 
    x: -46.3781471252
    y: -44.6393623352
    z: 2.15129971504
  orientation: 
    x: 0.0424262911715
    y: 0.0459972490953
    z: 0.907776883152
    w: 0.414759360102
---
header: 
  seq: 12701
  stamp: 
    secs: 1723702581
    nsecs: 589738816
  frame_id: "map"
pose: 
  position: 
    x: -46.3852767944
    y: -44.6578788757
    z: 2.15264368057
  orientation: 
    x: 0.0405350780321
    y: 0.0428435898351
    z: 0.915812538069
    w: 0.397251706745
---
header: 
  seq: 12702
  stamp: 
    secs: 1723702581
    nsecs: 629736768
  frame_id: "map"
pose: 
  position: 
    x: -46.3923301697
    y: -44.6824836731
    z: 2.15417265892
  orientation: 
    x: 0.0388513581084
    y: 0.0416695163537
    z: 0.919941980919
    w: 0.3878931044
---
header: 
  seq: 12703
  stamp: 
    secs: 1723702581
    nsecs: 659736768
  frame_id: "map"
pose: 
  position: 
    x: -46.3963851929
    y: -44.7009124756
    z: 2.1546766758
  orientation: 
    x: 0.034256268315
    y: 0.0396603424994
    z: 0.927963031953
    w: 0.368969085125
---
header: 
  seq: 12704
  stamp: 
    secs: 1723702581
    nsecs: 689736768
  frame_id: "map"
pose: 
  position: 
    x: -46.399597168
    y: -44.7189292908
    z: 2.15420675278
  orientation: 
    x: 0.0283552617132
    y: 0.0368666649877
    z: 0.936214478734
    w: 0.348338097412
---
header: 
  seq: 12705
  stamp: 
    secs: 1723702581
    nsecs: 729736512
  frame_id: "map"
pose: 
  position: 
    x: -46.4034309387
    y: -44.7433280945
    z: 2.15277552605
  orientation: 
    x: 0.0269337288554
    y: 0.0356205025323
    z: 0.938724049608
    w: 0.341764727404
---
header: 
  seq: 12706
  stamp: 
    secs: 1723702581
    nsecs: 759736512
  frame_id: "map"
pose: 
  position: 
    x: -46.4061546326
    y: -44.7631492615
    z: 2.15148591995
  orientation: 
    x: 0.0249185181236
    y: 0.0320144985161
    z: 0.944789318284
    w: 0.325157436098
---
header: 
  seq: 12707
  stamp: 
    secs: 1723702581
    nsecs: 789736512
  frame_id: "map"
pose: 
  position: 
    x: -46.4083938599
    y: -44.7834205627
    z: 2.14933800697
  orientation: 
    x: 0.0254186130363
    y: 0.0288167840278
    z: 0.950544027906
    w: 0.308203887358
---
header: 
  seq: 12708
  stamp: 
    secs: 1723702581
    nsecs: 819734720
  frame_id: "map"
pose: 
  position: 
    x: -46.4101867676
    y: -44.8057937622
    z: 2.14604830742
  orientation: 
    x: 0.0262124158362
    y: 0.0281510971107
    z: 0.952232873199
    w: 0.302940652136
---
header: 
  seq: 12709
  stamp: 
    secs: 1723702581
    nsecs: 859734720
  frame_id: "map"
pose: 
  position: 
    x: -46.4126472473
    y: -44.8353309631
    z: 2.14145898819
  orientation: 
    x: 0.0302417588508
    y: 0.0276403521338
    z: 0.956685561304
    w: 0.288226049356
---
header: 
  seq: 12710
  stamp: 
    secs: 1723702581
    nsecs: 889734720
  frame_id: "map"
pose: 
  position: 
    x: -46.4142913818
    y: -44.8574562073
    z: 2.13802623749
  orientation: 
    x: 0.0342372130004
    y: 0.029064260938
    z: 0.959639233521
    w: 0.277625168651
---
header: 
  seq: 12711
  stamp: 
    secs: 1723702581
    nsecs: 919733184
  frame_id: "map"
pose: 
  position: 
    x: -46.4155502319
    y: -44.8783836365
    z: 2.13461899757
  orientation: 
    x: 0.0372048078362
    y: 0.0311675220339
    z: 0.961708475196
    w: 0.269742780749
---
header: 
  seq: 12712
  stamp: 
    secs: 1723702581
    nsecs: 959733184
  frame_id: "map"
pose: 
  position: 
    x: -46.416267395
    y: -44.9040641785
    z: 2.13121318817
  orientation: 
    x: 0.0412916606372
    y: 0.0351954864679
    z: 0.96481617307
    w: 0.2572665128
---
header: 
  seq: 12713
  stamp: 
    secs: 1723702581
    nsecs: 989733184
  frame_id: "map"
pose: 
  position: 
    x: -46.4164733887
    y: -44.9213142395
    z: 2.13008356094
  orientation: 
    x: 0.0454508986749
    y: 0.0402375113211
    z: 0.968559403274
    w: 0.241263017245
---
header: 
  seq: 12714
  stamp: 
    secs: 1723702582
    nsecs:  30731392
  frame_id: "map"
pose: 
  position: 
    x: -46.4161834717
    y: -44.942905426
    z: 2.13033080101
  orientation: 
    x: 0.0470176945974
    y: 0.0423738850227
    z: 0.970327337129
    w: 0.233363812751
---
header: 
  seq: 12715
  stamp: 
    secs: 1723702582
    nsecs:  59731392
  frame_id: "map"
pose: 
  position: 
    x: -46.415058136
    y: -44.9599723816
    z: 2.13183164597
  orientation: 
    x: 0.0488553131622
    y: 0.0451557401789
    z: 0.973571295765
    w: 0.218478978849
---
header: 
  seq: 12716
  stamp: 
    secs: 1723702582
    nsecs:  89731392
  frame_id: "map"
pose: 
  position: 
    x: -46.4137420654
    y: -44.9755363464
    z: 2.13418483734
  orientation: 
    x: 0.0484859380995
    y: 0.0463825823378
    z: 0.977158119014
    w: 0.20164304089
---
header: 
  seq: 12717
  stamp: 
    secs: 1723702582
    nsecs: 119732416
  frame_id: "map"
pose: 
  position: 
    x: -46.4121818542
    y: -44.9909706116
    z: 2.13702964783
  orientation: 
    x: 0.0479587459736
    y: 0.0465807550908
    z: 0.978397025626
    w: 0.195625693181
---
header: 
  seq: 12718
  stamp: 
    secs: 1723702582
    nsecs: 159732416
  frame_id: "map"
pose: 
  position: 
    x: -46.4101486206
    y: -45.0109405518
    z: 2.14092040062
  orientation: 
    x: 0.046721397375
    y: 0.0463402982033
    z: 0.982029578205
    w: 0.176882905355
---
header: 
  seq: 12719
  stamp: 
    secs: 1723702582
    nsecs: 190732416
  frame_id: "map"
pose: 
  position: 
    x: -46.4084777832
    y: -45.0250473022
    z: 2.14369654655
  orientation: 
    x: 0.0463755747245
    y: 0.045337621899
    z: 0.984711930085
    w: 0.161667513721
---
header: 
  seq: 12720
  stamp: 
    secs: 1723702582
    nsecs: 220730624
  frame_id: "map"
pose: 
  position: 
    x: -46.4065895081
    y: -45.0382499695
    z: 2.14638328552
  orientation: 
    x: 0.0460893285994
    y: 0.0446181283148
    z: 0.986226392792
    w: 0.152454760545
---
header: 
  seq: 12721
  stamp: 
    secs: 1723702582
    nsecs: 260730624
  frame_id: "map"
pose: 
  position: 
    x: -46.4037513733
    y: -45.0552749634
    z: 2.14967370033
  orientation: 
    x: 0.0456602751633
    y: 0.0424528693693
    z: 0.98947540905
    w: 0.130580883343
---
header: 
  seq: 12722
  stamp: 
    secs: 1723702582
    nsecs: 290730624
  frame_id: "map"
pose: 
  position: 
    x: -46.4017524719
    y: -45.0670967102
    z: 2.15113973618
  orientation: 
    x: 0.0457739569029
    y: 0.0404191457989
    z: 0.991741645095
    w: 0.112781089105
---
header: 
  seq: 12723
  stamp: 
    secs: 1723702582
    nsecs: 320729088
  frame_id: "map"
pose: 
  position: 
    x: -46.3999710083
    y: -45.0780639648
    z: 2.15169048309
  orientation: 
    x: 0.0458126398073
    y: 0.0392496366072
    z: 0.992918595839
    w: 0.102340008177
---
header: 
  seq: 12724
  stamp: 
    secs: 1723702582
    nsecs: 360729088
  frame_id: "map"
pose: 
  position: 
    x: -46.3976249695
    y: -45.0934715271
    z: 2.15167236328
  orientation: 
    x: 0.0450451628181
    y: 0.0372869355803
    z: 0.995030658712
    w: 0.080589452653
---
header: 
  seq: 12725
  stamp: 
    secs: 1723702582
    nsecs: 390729088
  frame_id: "map"
pose: 
  position: 
    x: -46.3961830139
    y: -45.1048431396
    z: 2.15161442757
  orientation: 
    x: 0.0426080720109
    y: 0.0360083971013
    z: 0.996787676533
    w: 0.0574662585671
---
header: 
  seq: 12726
  stamp: 
    secs: 1723702582
    nsecs: 420728064
  frame_id: "map"
pose: 
  position: 
    x: -46.3952903748
    y: -45.1158638
    z: 2.15128469467
  orientation: 
    x: 0.0408335084242
    y: 0.0356091526823
    z: 0.997494942798
    w: 0.0454799898785
---
header: 
  seq: 12727
  stamp: 
    secs: 1723702582
    nsecs: 460728064
  frame_id: "map"
pose: 
  position: 
    x: -46.3944549561
    y: -45.1311721802
    z: 2.15138626099
  orientation: 
    x: 0.0357218172176
    y: 0.0350550008967
    z: 0.998589454307
    w: 0.017727428099
---
header: 
  seq: 12728
  stamp: 
    secs: 1723702582
    nsecs: 490728064
  frame_id: "map"
pose: 
  position: 
    x: -46.3944549561
    y: -45.1419677734
    z: 2.15165257454
  orientation: 
    x: 0.0315607913139
    y: 0.0346960670572
    z: 0.998890424952
    w: -0.00425464006348
---
header: 
  seq: 12729
  stamp: 
    secs: 1723702582
    nsecs: 520726272
  frame_id: "map"
pose: 
  position: 
    x: -46.3951873779
    y: -45.1517906189
    z: 2.15230345726
  orientation: 
    x: 0.0294177049035
    y: 0.0344541528725
    z: 0.998831840832
    w: -0.016806814487
---
header: 
  seq: 12730
  stamp: 
    secs: 1723702582
    nsecs: 560726272
  frame_id: "map"
pose: 
  position: 
    x: -46.3963394165
    y: -45.1654129028
    z: 2.15375781059
  orientation: 
    x: 0.0255327228298
    y: 0.0338797771027
    z: 0.998227159997
    w: -0.0417466641843
---
header: 
  seq: 12731
  stamp: 
    secs: 1723702582
    nsecs: 590726272
  frame_id: "map"
pose: 
  position: 
    x: -46.3981323242
    y: -45.1745452881
    z: 2.15537571907
  orientation: 
    x: 0.0223438484783
    y: 0.0327926324019
    z: 0.996992173042
    w: -0.0665745297051
---
header: 
  seq: 12732
  stamp: 
    secs: 1723702582
    nsecs: 620725504
  frame_id: "map"
pose: 
  position: 
    x: -46.4010162354
    y: -45.1833229065
    z: 2.15727853775
  orientation: 
    x: 0.021498523955
    y: 0.0319909687209
    z: 0.996148477428
    w: -0.0787575820293
---
header: 
  seq: 12733
  stamp: 
    secs: 1723702582
    nsecs: 660725504
  frame_id: "map"
pose: 
  position: 
    x: -46.4045372009
    y: -45.1965103149
    z: 2.15934801102
  orientation: 
    x: 0.0215141624114
    y: 0.0303026957028
    z: 0.99405668719
    w: -0.102324287402
---
header: 
  seq: 12734
  stamp: 
    secs: 1723702582
    nsecs: 690725504
  frame_id: "map"
pose: 
  position: 
    x: -46.4078445435
    y: -45.2058753967
    z: 2.16093873978
  orientation: 
    x: 0.0223619031345
    y: 0.0294077557777
    z: 0.991454625056
    w: -0.125111739693
---
header: 
  seq: 12735
  stamp: 
    secs: 1723702582
    nsecs: 720724480
  frame_id: "map"
pose: 
  position: 
    x: -46.4115829468
    y: -45.2151145935
    z: 2.16231989861
  orientation: 
    x: 0.0228390499114
    y: 0.0295234307669
    z: 0.989964143906
    w: -0.136300969329
---
header: 
  seq: 12736
  stamp: 
    secs: 1723702582
    nsecs: 760724480
  frame_id: "map"
pose: 
  position: 
    x: -46.4154586792
    y: -45.2284889221
    z: 2.16530108452
  orientation: 
    x: 0.0232169411894
    y: 0.0310101898241
    z: 0.986656290647
    w: -0.15814197199
---
header: 
  seq: 12737
  stamp: 
    secs: 1723702582
    nsecs: 790724480
  frame_id: "map"
pose: 
  position: 
    x: -46.4181861877
    y: -45.2383728027
    z: 2.1675760746
  orientation: 
    x: 0.0229105329421
    y: 0.0338414840567
    z: 0.983017542481
    w: -0.1789037203
---
header: 
  seq: 12738
  stamp: 
    secs: 1723702582
    nsecs: 820723712
  frame_id: "map"
