header: 
  seq: 11515
  stamp: 
    secs: 1723860973
    nsecs: 492124596
  frame_id: "map"
pose: 
  position: 
    x: 0.0181298386306
    y: 0.00617857649922
    z: 0.0494982525706
  orientation: 
    x: -0.00475769562768
    y: -0.0285860907829
    z: 0.635563506827
    w: -0.771504647437
---
header: 
  seq: 11516
  stamp: 
    secs: 1723860973
    nsecs: 524792439
  frame_id: "map"
pose: 
  position: 
    x: 0.0177461877465
    y: 0.00631748558953
    z: 0.0491046011448
  orientation: 
    x: -0.00482125834359
    y: -0.0286315935742
    z: 0.635534899654
    w: -0.771526089646
---
header: 
  seq: 11517
  stamp: 
    secs: 1723860973
    nsecs: 558662794
  frame_id: "map"
pose: 
  position: 
    x: 0.0169423259795
    y: 0.00688764359802
    z: 0.0484037995338
  orientation: 
    x: -0.00465523927313
    y: -0.0284412636747
    z: 0.635528409039
    w: -0.77153940805
---
header: 
  seq: 11518
  stamp: 
    secs: 1723860973
    nsecs: 591729597
  frame_id: "map"
pose: 
  position: 
    x: 0.0161696765572
    y: 0.00744479801506
    z: 0.0477609708905
  orientation: 
    x: -0.0046572096383
    y: -0.0281362522004
    z: 0.635608113998
    w: -0.771484906907
---
header: 
  seq: 11519
  stamp: 
    secs: 1723860973
    nsecs: 623923277
  frame_id: "map"
pose: 
  position: 
    x: 0.0153920575976
    y: 0.00810727849603
    z: 0.0473139099777
  orientation: 
    x: -0.00474135318717
    y: -0.027714941766
    z: 0.635631626671
    w: -0.771480360316
---
header: 
  seq: 11520
  stamp: 
    secs: 1723860973
    nsecs: 659332286
  frame_id: "map"
pose: 
  position: 
    x: 0.0146252978593
    y: 0.00856237579137
    z: 0.0464201457798
  orientation: 
    x: -0.00474736306435
    y: -0.0270255339111
    z: 0.63563694771
    w: -0.771500411679
---
header: 
  seq: 11521
  stamp: 
    secs: 1723860973
    nsecs: 692742303
  frame_id: "map"
pose: 
  position: 
    x: 0.0146042834967
    y: 0.00851356424391
    z: 0.0461586043239
  orientation: 
    x: -0.00483128600081
    y: -0.0268881529656
    z: 0.635679500222
    w: -0.771469660284
---
header: 
  seq: 11522
  stamp: 
    secs: 1723860973
    nsecs: 725808658
  frame_id: "map"
pose: 
  position: 
    x: 0.0153570482507
    y: 0.0078771142289
    z: 0.045857436955
  orientation: 
    x: -0.00499514306966
    y: -0.0271875766898
    z: 0.635736941109
    w: -0.771410702112
---
header: 
  seq: 11523
  stamp: 
    secs: 1723860973
    nsecs: 759305014
  frame_id: "map"
pose: 
  position: 
    x: 0.0155351320282
    y: 0.00714937504381
    z: 0.0459466911852
  orientation: 
    x: -0.0046182870237
    y: -0.027979023382
    z: 0.635743004986
    w: -0.7713796873
---
header: 
  seq: 11524
  stamp: 
    secs: 1723860973
    nsecs: 792863677
  frame_id: "map"
pose: 
  position: 
    x: 0.0158609747887
    y: 0.00671970658004
    z: 0.0460285022855
  orientation: 
    x: -0.00464043650968
    y: -0.0285539762014
    z: 0.635813637836
    w: -0.771300287905
---
header: 
  seq: 11525
  stamp: 
    secs: 1723860973
    nsecs: 825943600
  frame_id: "map"
pose: 
  position: 
    x: 0.0162684544921
    y: 0.00652511138469
    z: 0.0459262393415
  orientation: 
    x: -0.00461471112702
    y: -0.0287889817604
    z: 0.635749500869
    w: -0.771344615853
---
header: 
  seq: 11526
  stamp: 
    secs: 1723860973
    nsecs: 859316495
  frame_id: "map"
pose: 
  position: 
    x: 0.0159528348595
    y: 0.00662350049242
    z: 0.0458343699574
  orientation: 
    x: -0.00467394325424
    y: -0.0289284957315
    z: 0.635691448854
    w: -0.771386820654
---
header: 
  seq: 11527
  stamp: 
    secs: 1723860973
    nsecs: 892780594
  frame_id: "map"
pose: 
  position: 
    x: 0.0152983888984
    y: 0.00693027488887
    z: 0.0457399375737
  orientation: 
    x: -0.00457497191723
    y: -0.0286390311759
    z: 0.635685226925
    w: -0.771403410707
---
header: 
  seq: 11528
  stamp: 
    secs: 1723860973
    nsecs: 925919400
  frame_id: "map"
pose: 
  position: 
    x: 0.0142200188711
    y: 0.00777112180367
    z: 0.045357439667
  orientation: 
    x: -0.00453156198035
    y: -0.0280472881057
    z: 0.635747024742
    w: -0.771374487432
---
header: 
  seq: 11529
  stamp: 
    secs: 1723860973
    nsecs: 959247526
  frame_id: "map"
pose: 
  position: 
    x: 0.013670457527
    y: 0.00809751730412
    z: 0.0456795804203
  orientation: 
    x: -0.00456075920966
    y: -0.0276704162547
    z: 0.635675006315
    w: -0.771447264503
---
header: 
  seq: 11530
  stamp: 
    secs: 1723860973
    nsecs: 991904296
  frame_id: "map"
pose: 
  position: 
    x: 0.0132212461904
    y: 0.00817158445716
    z: 0.0457967817783
  orientation: 
    x: -0.00471404466351
    y: -0.0269207239184
    z: 0.635569639193
    w: -0.771559628001
---
header: 
  seq: 11531
  stamp: 
    secs: 1723860974
    nsecs:  25682683
  frame_id: "map"
pose: 
  position: 
    x: 0.0133129376918
    y: 0.00782758649439
    z: 0.0458493828773
  orientation: 
    x: -0.00486557312062
    y: -0.0266621635395
    z: 0.635543745223
    w: -0.771589062306
---
header: 
  seq: 11532
  stamp: 
    secs: 1723860974
    nsecs:  58836887
  frame_id: "map"
pose: 
  position: 
    x: 0.0133367367089
    y: 0.00760411657393
    z: 0.0462293177843
  orientation: 
    x: -0.00494465970622
    y: -0.0266924559284
    z: 0.635458202926
    w: -0.771657914452
---
header: 
  seq: 11533
  stamp: 
    secs: 1723860974
    nsecs:  90941255
  frame_id: "map"
pose: 
  position: 
    x: 0.0136240525171
    y: 0.00708431238309
    z: 0.0464986488223
  orientation: 
    x: -0.00449690146581
    y: -0.0269967278572
    z: 0.63537566886
    w: -0.771718110688
---
header: 
  seq: 11534
  stamp: 
    secs: 1723860974
    nsecs: 123896571
  frame_id: "map"
pose: 
  position: 
    x: 0.0140535086393
    y: 0.00607049325481
    z: 0.0468962714076
  orientation: 
    x: -0.00448872366011
    y: -0.0274435489888
    z: 0.635378471625
    w: -0.771700050763
---
header: 
  seq: 11535
  stamp: 
    secs: 1723860974
    nsecs: 159449367
  frame_id: "map"
pose: 
  position: 
    x: 0.0146763818339
    y: 0.00477185565978
    z: 0.0470867976546
  orientation: 
    x: -0.00464000977284
    y: -0.0280201231448
    z: 0.635294404468
    w: -0.77174761875
---
header: 
  seq: 11536
  stamp: 
    secs: 1723860974
    nsecs: 192749208
  frame_id: "map"
pose: 
  position: 
    x: 0.0150771345943
    y: 0.00411646440625
    z: 0.0469883009791
  orientation: 
    x: -0.00494935973837
    y: -0.0284255784616
    z: 0.635213271784
    w: -0.771797647059
---
header: 
  seq: 11537
  stamp: 
    secs: 1723860974
    nsecs: 226434793
  frame_id: "map"
pose: 
  position: 
    x: 0.0149852680042
    y: 0.00392070412636
    z: 0.0464970394969
  orientation: 
    x: -0.00465085073253
    y: -0.0288705899129
    z: 0.635179032738
    w: -0.771811149856
---
header: 
  seq: 11538
  stamp: 
    secs: 1723860974
    nsecs: 259052526
  frame_id: "map"
pose: 
  position: 
    x: 0.0144562348723
    y: 0.00434759166092
    z: 0.0461362637579
  orientation: 
    x: -0.00435112605352
    y: -0.0289666004338
    z: 0.635177884237
    w: -0.771810275309
---
header: 
  seq: 11539
  stamp: 
    secs: 1723860974
    nsecs: 290959447
  frame_id: "map"
pose: 
  position: 
    x: 0.0136875351891
    y: 0.00498882168904
    z: 0.0459379442036
  orientation: 
    x: -0.00412550343673
    y: -0.0285269613886
    z: 0.635191360691
    w: -0.77181677646
---
header: 
  seq: 11540
  stamp: 
    secs: 1723860974
    nsecs: 323910250
  frame_id: "map"
pose: 
  position: 
    x: 0.0127903698012
    y: 0.00555941555649
    z: 0.045809764415
  orientation: 
    x: -0.00433797096843
    y: -0.0279919835379
    z: 0.635198357068
    w: -0.771829504809
---
header: 
  seq: 11541
  stamp: 
    secs: 1723860974
    nsecs: 359324321
  frame_id: "map"
pose: 
  position: 
    x: 0.0121071366593
    y: 0.00579912960529
    z: 0.0457375608385
  orientation: 
    x: -0.00500436137568
    y: -0.0268323986119
    z: 0.635179080153
    w: -0.771882499202
---
header: 
  seq: 11542
  stamp: 
    secs: 1723860974
    nsecs: 392814442
  frame_id: "map"
pose: 
  position: 
    x: 0.0122592160478
    y: 0.00559525052086
    z: 0.0458422936499
  orientation: 
    x: -0.00536971396617
    y: -0.0263845356629
    z: 0.635204852951
    w: -0.771874259493
---
header: 
  seq: 11543
  stamp: 
    secs: 1723860974
    nsecs: 426223311
  frame_id: "map"
pose: 
  position: 
    x: 0.0132046239451
    y: 0.0049472944811
    z: 0.0460113734007
  orientation: 
    x: -0.00498275584746
    y: -0.027045137464
    z: 0.635232685676
    w: -0.771831085315
---
header: 
  seq: 11544
  stamp: 
    secs: 1723860974
    nsecs: 458343393
  frame_id: "map"
pose: 
  position: 
    x: 0.0137801105157
    y: 0.00463863555342
    z: 0.0460559725761
  orientation: 
    x: -0.00462322874168
    y: -0.0276296655205
    z: 0.635232806848
    w: -0.771812588117
---
header: 
  seq: 11545
  stamp: 
    secs: 1723860974
    nsecs: 491867531
  frame_id: "map"
pose: 
  position: 
    x: 0.0142773902044
    y: 0.0043520340696
    z: 0.0462696701288
  orientation: 
    x: -0.0041523549305
    y: -0.0285360954009
    z: 0.635239376488
    w: -0.771776852858
---
header: 
  seq: 11546
  stamp: 
    secs: 1723860974
    nsecs: 525017414
  frame_id: "map"
pose: 
  position: 
    x: 0.0145743228495
    y: 0.00412739673629
    z: 0.0463793352246
  orientation: 
    x: -0.00420482907398
    y: -0.0286974374883
    z: 0.635247579319
    w: -0.771763845287
---
header: 
  seq: 11547
  stamp: 
    secs: 1723860974
    nsecs: 558736344
  frame_id: "map"
pose: 
  position: 
    x: 0.0141926854849
    y: 0.00403370242566
    z: 0.0462814681232
  orientation: 
    x: -0.00465151191121
    y: -0.0284929541502
    z: 0.635240308988
    w: -0.771774824541
---
header: 
  seq: 11548
  stamp: 
    secs: 1723860974
    nsecs: 592710645
  frame_id: "map"
pose: 
  position: 
    x: 0.0135390376672
    y: 0.00436310470104
    z: 0.0462203100324
  orientation: 
    x: -0.0048993788444
    y: -0.0280480875787
    z: 0.635273383727
    w: -0.771762317464
---
header: 
  seq: 11549
  stamp: 
    secs: 1723860974
    nsecs: 626645423
  frame_id: "map"
pose: 
  position: 
    x: 0.012669717893
    y: 0.00526189059019
    z: 0.0461397133768
  orientation: 
    x: -0.00470807956736
    y: -0.0276653810234
    z: 0.635307659651
    w: -0.771749114963
---
header: 
  seq: 11550
  stamp: 
    secs: 1723860974
    nsecs: 658860421
  frame_id: "map"
pose: 
  position: 
    x: 0.0125475544482
    y: 0.00560308620334
    z: 0.0459202416241
  orientation: 
    x: -0.00455996105371
    y: -0.027515047166
    z: 0.635297549676
    w: -0.771763692505
---
header: 
  seq: 11551
  stamp: 
    secs: 1723860974
    nsecs: 690954581
  frame_id: "map"
pose: 
  position: 
    x: 0.0125411199406
    y: 0.00551854586229
    z: 0.045678537339
  orientation: 
    x: -0.0045983937112
    y: -0.0273801192988
    z: 0.635273046552
    w: -0.77178844851
---
header: 
  seq: 11552
  stamp: 
    secs: 1723860974
    nsecs: 724042222
  frame_id: "map"
pose: 
  position: 
    x: 0.0128817921504
    y: 0.00524778943509
    z: 0.0454071089625
  orientation: 
    x: -0.00476555996619
    y: -0.0273347468993
    z: 0.635286259589
    w: -0.771778101458
---
header: 
  seq: 11553
  stamp: 
    secs: 1723860974
    nsecs: 758851500
  frame_id: "map"
pose: 
  position: 
    x: 0.0133713390678
    y: 0.00505266105756
    z: 0.0449729673564
  orientation: 
    x: -0.00501504955304
    y: -0.0273011571782
    z: 0.635325598404
    w: -0.771745337552
---
header: 
  seq: 11554
  stamp: 
    secs: 1723860974
    nsecs: 791883842
  frame_id: "map"
pose: 
  position: 
    x: 0.0134895471856
    y: 0.00495599070564
    z: 0.0445437170565
  orientation: 
    x: -0.0046373281796
    y: -0.0277653270063
    z: 0.635269279678
    w: -0.771777632575
---
header: 
  seq: 11555
  stamp: 
    secs: 1723860974
    nsecs: 824845974
  frame_id: "map"
pose: 
  position: 
    x: 0.0134644443169
    y: 0.00503651844338
    z: 0.0440894365311
  orientation: 
    x: -0.0044044642074
    y: -0.0280911800972
    z: 0.635288809473
    w: -0.771751022108
---
header: 
  seq: 11556
  stamp: 
    secs: 1723860974
    nsecs: 858729039
  frame_id: "map"
pose: 
  position: 
    x: 0.0130824716762
    y: 0.00543893733993
    z: 0.0434725470841
  orientation: 
    x: -0.00422668484911
    y: -0.0281565406396
    z: 0.635304198341
    w: -0.771736981939
---
header: 
  seq: 11557
  stamp: 
    secs: 1723860974
    nsecs: 890827711
  frame_id: "map"
pose: 
  position: 
    x: 0.0124978348613
    y: 0.00577632244676
    z: 0.0430921986699
  orientation: 
    x: -0.00456068808685
    y: -0.027605288837
    z: 0.635256756795
    w: -0.771794117261
---
header: 
  seq: 11558
  stamp: 
    secs: 1723860974
    nsecs: 923907095
  frame_id: "map"
pose: 
  position: 
    x: 0.0118677727878
    y: 0.00622222805396
    z: 0.0428203307092
  orientation: 
    x: -0.00476636207341
    y: -0.0272704215889
    z: 0.635242073887
    w: -0.771816723777
---
header: 
  seq: 11559
  stamp: 
    secs: 1723860974
    nsecs: 959516758
  frame_id: "map"
pose: 
  position: 
    x: 0.0116159683093
    y: 0.00674577616155
    z: 0.0420139245689
  orientation: 
    x: -0.00489584772874
    y: -0.0267598941787
    z: 0.635275280335
    w: -0.771806529508
---
header: 
  seq: 11560
  stamp: 
    secs: 1723860974
    nsecs: 992922875
  frame_id: "map"
pose: 
  position: 
    x: 0.0117118069902
    y: 0.00697728432715
    z: 0.0412432551384
  orientation: 
    x: -0.00469701206836
    y: -0.0268452389128
    z: 0.635218145014
    w: -0.771851863712
---
header: 
  seq: 11561
  stamp: 
    secs: 1723860975
    nsecs:  26593391
  frame_id: "map"
pose: 
  position: 
    x: 0.0117472670972
    y: 0.00727342162281
    z: 0.0405702777207
  orientation: 
    x: -0.0042925050556
    y: -0.0270684328174
    z: 0.635254707405
    w: -0.771816312845
---
header: 
  seq: 11562
  stamp: 
    secs: 1723860975
    nsecs:  59390465
  frame_id: "map"
pose: 
  position: 
    x: 0.01141046267
    y: 0.00754749868065
    z: 0.0398158766329
  orientation: 
    x: -0.00419602433391
    y: -0.0270198414523
    z: 0.63526552334
    w: -0.771809627301
---
header: 
  seq: 11563
  stamp: 
    secs: 1723860975
    nsecs:  92892367
  frame_id: "map"
pose: 
  position: 
    x: 0.0113511066884
    y: 0.00737809250131
    z: 0.0393435359001
  orientation: 
    x: -0.00452756724937
    y: -0.0267241865784
    z: 0.635241446952
    w: -0.771837918373
---
header: 
  seq: 11564
  stamp: 
    secs: 1723860975
    nsecs: 125840998
  frame_id: "map"
pose: 
  position: 
    x: 0.0114975040779
    y: 0.00693880859762
    z: 0.0389164239168
  orientation: 
    x: -0.00503025139447
    y: -0.0267243564829
    z: 0.635294831204
    w: -0.771790856149
---
header: 
  seq: 11565
  stamp: 
    secs: 1723860975
    nsecs: 159361173
  frame_id: "map"
pose: 
  position: 
    x: 0.0119306109846
    y: 0.00620373617858
    z: 0.0385583490133
  orientation: 
    x: -0.00506530440154
    y: -0.0269832434998
    z: 0.635333079469
    w: -0.771750079073
---
header: 
  seq: 11566
  stamp: 
    secs: 1723860975
    nsecs: 191978015
  frame_id: "map"
pose: 
  position: 
    x: 0.0123717682436
    y: 0.00591341406107
    z: 0.0382746495306
  orientation: 
    x: -0.00462245429334
    y: -0.0277634343493
    z: 0.635359495007
    w: -0.771703433048
---
header: 
  seq: 11567
  stamp: 
    secs: 1723860975
    nsecs: 224979001
  frame_id: "map"
pose: 
  position: 
    x: 0.0127896089107
    y: 0.0057725161314
    z: 0.0379833653569
  orientation: 
    x: -0.00433924854477
    y: -0.0281134217794
    z: 0.635363799254
    w: -0.77168884497
---
header: 
  seq: 11568
  stamp: 
    secs: 1723860975
    nsecs: 258688048
  frame_id: "map"
pose: 
  position: 
    x: 0.0130640175194
    y: 0.00533722992986
    z: 0.0374567657709
  orientation: 
    x: -0.00421263019222
    y: -0.0284684655141
    z: 0.635381579955
    w: -0.771661960549
---
header: 
  seq: 11569
  stamp: 
    secs: 1723860975
    nsecs: 292845560
  frame_id: "map"
pose: 
  position: 
    x: 0.0131239071488
    y: 0.00504708150402
    z: 0.0371488891542
  orientation: 
    x: -0.00464396235697
    y: -0.0283747190693
    z: 0.635398702113
    w: -0.771648800196
---
header: 
  seq: 11570
  stamp: 
    secs: 1723860975
    nsecs: 326038906
  frame_id: "map"
pose: 
  position: 
    x: 0.0130835473537
    y: 0.00512838596478
    z: 0.0367796719074
  orientation: 
    x: -0.00485762975677
    y: -0.0280681916255
    z: 0.635423726804
    w: -0.771638105433
---
header: 
  seq: 11571
  stamp: 
    secs: 1723860975
    nsecs: 359267581
  frame_id: "map"
pose: 
  position: 
    x: 0.0127372844145
    y: 0.00556624680758
    z: 0.0364216454327
  orientation: 
    x: -0.00474759618911
    y: -0.0280389456639
    z: 0.635410835137
    w: -0.771650407044
---
header: 
  seq: 11572
  stamp: 
    secs: 1723860975
    nsecs: 391890759
  frame_id: "map"
pose: 
  position: 
    x: 0.0122237019241
    y: 0.00612877774984
    z: 0.0361687019467
  orientation: 
    x: -0.00431506679044
    y: -0.0280261540954
    z: 0.635437803851
    w: -0.771631277643
---
header: 
  seq: 11573
  stamp: 
    secs: 1723860975
    nsecs: 424917218
  frame_id: "map"
pose: 
  position: 
    x: 0.0117786070332
    y: 0.00678119808435
    z: 0.0360856615007
  orientation: 
    x: -0.00423655379711
    y: -0.0277993711231
    z: 0.635454562492
    w: -0.771626067239
---
header: 
  seq: 11574
  stamp: 
    secs: 1723860975
    nsecs: 458821216
  frame_id: "map"
pose: 
  position: 
    x: 0.0115780103952
    y: 0.0069870701991
    z: 0.035394705832
  orientation: 
    x: -0.00461430414651
    y: -0.0269908088592
    z: 0.635365648447
    w: -0.771725855171
---
header: 
  seq: 11575
  stamp: 
    secs: 1723860975
    nsecs: 490947319
  frame_id: "map"
pose: 
  position: 
    x: 0.0116628753021
    y: 0.00655676890165
    z: 0.0347494706511
  orientation: 
    x: -0.00518475778984
    y: -0.0267458368876
    z: 0.635337631329
    w: -0.771753872289
---
header: 
  seq: 11576
  stamp: 
    secs: 1723860975
    nsecs: 526501912
  frame_id: "map"
pose: 
  position: 
    x: 0.0120331319049
    y: 0.00611225003377
    z: 0.03446546942
  orientation: 
    x: -0.00507171730796
    y: -0.0273747179168
    z: 0.635373493029
    w: -0.771702922017
---
header: 
  seq: 11577
  stamp: 
    secs: 1723860975
    nsecs: 559538643
  frame_id: "map"
pose: 
  position: 
    x: 0.0126947751269
    y: 0.00604716595262
    z: 0.0344223305583
  orientation: 
    x: -0.00471833837371
    y: -0.0277414152552
    z: 0.635348768634
    w: -0.771712557841
---
header: 
  seq: 11578
  stamp: 
    secs: 1723860975
    nsecs: 592946877
  frame_id: "map"
pose: 
  position: 
    x: 0.013019614853
    y: 0.00605403166264
    z: 0.03452161327
  orientation: 
    x: -0.00411873886754
    y: -0.0283601362597
    z: 0.635288456494
    w: -0.771743030012
---
header: 
  seq: 11579
  stamp: 
    secs: 1723860975
    nsecs: 625193497
  frame_id: "map"
pose: 
  position: 
    x: 0.0129692256451
    y: 0.00589028606191
    z: 0.0346436947584
  orientation: 
    x: -0.00410940992604
    y: -0.0285539788356
    z: 0.635287913853
    w: -0.771736407689
---
header: 
  seq: 11580
  stamp: 
    secs: 1723860975
    nsecs: 659477158
  frame_id: "map"
pose: 
  position: 
    x: 0.012662190944
    y: 0.00575579656288
    z: 0.0350749790668
  orientation: 
    x: -0.0045149482195
    y: -0.0283929370445
    z: 0.635332062677
    w: -0.771703807101
---
header: 
  seq: 11581
  stamp: 
    secs: 1723860975
    nsecs: 691845926
  frame_id: "map"
pose: 
  position: 
    x: 0.0121284248307
    y: 0.00611985707656
    z: 0.0356138348579
  orientation: 
    x: -0.00503445554261
    y: -0.0277559190394
    z: 0.635294314906
    w: -0.771754788983
---
header: 
  seq: 11582
  stamp: 
    secs: 1723860975
    nsecs: 725246288
  frame_id: "map"
pose: 
  position: 
    x: 0.01156616956
    y: 0.00660374341533
    z: 0.0361659675837
  orientation: 
    x: -0.00501515755434
    y: -0.0275901396792
    z: 0.635275306677
    w: -0.77177649461
---
header: 
  seq: 11583
  stamp: 
    secs: 1723860975
    nsecs: 758732958
  frame_id: "map"
pose: 
  position: 
    x: 0.0111747998744
    y: 0.00714526651427
    z: 0.036177046597
  orientation: 
    x: -0.00464770157269
    y: -0.0276139407948
    z: 0.635266192421
    w: -0.771785440278
---
header: 
  seq: 11584
  stamp: 
    secs: 1723860975
    nsecs: 793193619
  frame_id: "map"
pose: 
  position: 
    x: 0.011244780384
    y: 0.00732520129532
    z: 0.0361263230443
  orientation: 
    x: -0.00454294162945
    y: -0.0274264228803
    z: 0.635237838129
    w: -0.771816154794
---
header: 
  seq: 11585
  stamp: 
    secs: 1723860975
    nsecs: 826569692
  frame_id: "map"
pose: 
  position: 
    x: 0.0114987539127
    y: 0.00714359432459
    z: 0.0360049344599
  orientation: 
    x: -0.00487490864757
    y: -0.0272788061776
    z: 0.635196850318
    w: -0.771853012213
---
header: 
  seq: 11586
  stamp: 
    secs: 1723860975
    nsecs: 859363597
  frame_id: "map"
pose: 
  position: 
    x: 0.0117243835703
    y: 0.00660380069166
    z: 0.0360967330635
  orientation: 
    x: -0.00502081972002
    y: -0.0273575825887
    z: 0.635209525983
    w: -0.771838903556
---
header: 
  seq: 11587
  stamp: 
    secs: 1723860975
    nsecs: 892410409
  frame_id: "map"
pose: 
  position: 
    x: 0.0119729153812
    y: 0.00646197889
    z: 0.0359419547021
  orientation: 
    x: -0.00484314968013
    y: -0.0277327237848
    z: 0.635231416002
    w: -0.77180866846
---
header: 
  seq: 11588
  stamp: 
    secs: 1723860975
    nsecs: 924956624
  frame_id: "map"
pose: 
  position: 
    x: 0.0122403008863
    y: 0.00658756680787
    z: 0.0356803014874
  orientation: 
    x: -0.00460315498799
    y: -0.027942032937
    z: 0.635225568127
    w: -0.771807351371
---
header: 
  seq: 11589
  stamp: 
    secs: 1723860975
    nsecs: 958823341
  frame_id: "map"
pose: 
  position: 
    x: 0.0121029876173
    y: 0.0066016218625
    z: 0.0350180342793
  orientation: 
    x: -0.00427736116609
    y: -0.0281913723757
    z: 0.635221032073
    w: -0.771803963818
---
header: 
  seq: 11590
  stamp: 
    secs: 1723860975
    nsecs: 991086217
  frame_id: "map"
pose: 
  position: 
    x: 0.0117448307574
    y: 0.0065293754451
    z: 0.0344405211508
  orientation: 
    x: -0.0044428586693
    y: -0.0280807079224
    z: 0.635276075857
    w: -0.771761732676
---
header: 
  seq: 11591
  stamp: 
    secs: 1723860976
    nsecs:  24009347
  frame_id: "map"
pose: 
  position: 
    x: 0.0113796554506
    y: 0.00664290972054
    z: 0.0338512696326
  orientation: 
    x: -0.00463745593724
    y: -0.0278597030197
    z: 0.635285363969
    w: -0.771760958228
---
header: 
  seq: 11592
  stamp: 
    secs: 1723860976
    nsecs:  58276628
  frame_id: "map"
pose: 
  position: 
    x: 0.0112970564514
    y: 0.00722801266238
    z: 0.0332863368094
  orientation: 
    x: -0.00485305550661
    y: -0.0274482786554
    z: 0.635236737042
    w: -0.771814305601
---
header: 
  seq: 11593
  stamp: 
    secs: 1723860976
    nsecs:  92933462
  frame_id: "map"
pose: 
  position: 
    x: 0.0112281525508
    y: 0.00764272036031
    z: 0.0328334197402
  orientation: 
    x: -0.00467827647711
    y: -0.0274401061181
    z: 0.635216959633
    w: -0.771831975668
---
header: 
  seq: 11594
  stamp: 
    secs: 1723860976
    nsecs: 125907091
  frame_id: "map"
pose: 
  position: 
    x: 0.0112934233621
    y: 0.00796101149172
    z: 0.0322822332382
  orientation: 
    x: -0.00445619024432
    y: -0.0275295799262
    z: 0.635175750552
    w: -0.771864081029
---
header: 
  seq: 11595
  stamp: 
    secs: 1723860976
    nsecs: 159498250
  frame_id: "map"
pose: 
  position: 
    x: 0.0115220490843
    y: 0.00797017104924
    z: 0.0319624580443
  orientation: 
    x: -0.00448544805972
    y: -0.0275434962887
    z: 0.635150325466
    w: -0.771884279907
---
header: 
  seq: 11596
  stamp: 
    secs: 1723860976
    nsecs: 192148026
  frame_id: "map"
pose: 
  position: 
    x: 0.0116738481447
    y: 0.00781314633787
    z: 0.0317806527019
  orientation: 
    x: -0.00468869860249
    y: -0.0276011136648
    z: 0.635095039337
    w: -0.771926584806
---
header: 
  seq: 11597
  stamp: 
    secs: 1723860976
    nsecs: 224960848
  frame_id: "map"
pose: 
  position: 
    x: 0.0117695173249
    y: 0.00773995183408
    z: 0.0316572077572
  orientation: 
    x: -0.00471864393836
    y: -0.0276764195464
    z: 0.635082879972
    w: -0.77193368655
---
header: 
  seq: 11598
  stamp: 
    secs: 1723860976
    nsecs: 258840530
  frame_id: "map"
pose: 
  position: 
    x: 0.0118713118136
    y: 0.00796727929264
    z: 0.0316684283316
  orientation: 
    x: -0.00460814016992
    y: -0.0278742384141
    z: 0.635046933978
    w: -0.771956735608
---
header: 
  seq: 11599
  stamp: 
    secs: 1723860976
    nsecs: 291122675
  frame_id: "map"
pose: 
  position: 
    x: 0.0118233654648
    y: 0.00824011676013
    z: 0.0317926816642
  orientation: 
    x: -0.004443579117
    y: -0.0279674738284
    z: 0.634987796681
    w: -0.772002975969
---
header: 
  seq: 11600
  stamp: 
    secs: 1723860976
    nsecs: 325920859
  frame_id: "map"
pose: 
  position: 
    x: 0.0116358716041
    y: 0.00847502797842
    z: 0.0317700281739
  orientation: 
    x: -0.00455628505827
    y: -0.0279079335024
    z: 0.634970063395
    w: -0.772019023381
---
header: 
  seq: 11601
  stamp: 
    secs: 1723860976
    nsecs: 359517553
  frame_id: "map"
pose: 
  position: 
    x: 0.0113147078082
    y: 0.00861146114767
    z: 0.0316586382687
  orientation: 
    x: -0.00463813950643
    y: -0.0277732084669
    z: 0.634971728195
    w: -0.772022163322
---
header: 
  seq: 11602
  stamp: 
    secs: 1723860976
    nsecs: 391960025
  frame_id: "map"
pose: 
  position: 
    x: 0.0111271198839
    y: 0.00875318422914
    z: 0.0314392335713
  orientation: 
    x: -0.00480287704928
    y: -0.0275210741653
    z: 0.63495460077
    w: -0.772044179781
---
header: 
  seq: 11603
  stamp: 
    secs: 1723860976
    nsecs: 425038906
  frame_id: "map"
pose: 
  position: 
    x: 0.0109744472429
    y: 0.00888938456774
    z: 0.0313145816326
  orientation: 
    x: -0.00481088626759
    y: -0.0274611242246
    z: 0.634931988986
    w: -0.772064852811
---
header: 
  seq: 11604
  stamp: 
    secs: 1723860976
    nsecs: 459663803
  frame_id: "map"
pose: 
  position: 
    x: 0.010973717086
    y: 0.00913391914219
    z: 0.0308423582464
  orientation: 
    x: -0.00468909899755
    y: -0.0275656892387
    z: 0.634916073282
    w: -0.772075036543
---
header: 
  seq: 11605
  stamp: 
    secs: 1723860976
    nsecs: 491921595
  frame_id: "map"
pose: 
  position: 
    x: 0.0111029846594
    y: 0.0092825833708
    z: 0.0304896179587
  orientation: 
    x: -0.00459680530185
    y: -0.0276746941598
    z: 0.63492886485
    w: -0.772061064863
---
header: 
  seq: 11606
  stamp: 
    secs: 1723860976
    nsecs: 525764091
  frame_id: "map"
pose: 
  position: 
    x: 0.0112266084179
    y: 0.00941722281277
    z: 0.0301287025213
  orientation: 
    x: -0.0046260565318
    y: -0.0277285749544
    z: 0.634922411114
    w: -0.772064315438
---
header: 
  seq: 11607
  stamp: 
    secs: 1723860976
    nsecs: 558830204
  frame_id: "map"
pose: 
  position: 
    x: 0.0110030379146
    y: 0.00940235797316
    z: 0.0291158296168
  orientation: 
    x: -0.00467784974027
    y: -0.0277826572635
    z: 0.634943531954
    w: -0.772044711885
---
header: 
  seq: 11608
  stamp: 
    secs: 1723860976
    nsecs: 591930591
  frame_id: "map"
pose: 
  position: 
    x: 0.0107778077945
    y: 0.00952717848122
    z: 0.0284580755979
  orientation: 
    x: -0.00468754088125
    y: -0.0278344267644
    z: 0.634947398927
    w: -0.7720396648
---
header: 
  seq: 11609
  stamp: 
    secs: 1723860976
    nsecs: 624009912
  frame_id: "map"
pose: 
  position: 
    x: 0.0105269048363
    y: 0.00977318733931
    z: 0.0278534963727
  orientation: 
    x: -0.00464058534074
    y: -0.0278155884402
    z: 0.634957514171
    w: -0.772032246955
---
header: 
  seq: 11610
  stamp: 
    secs: 1723860976
    nsecs: 659569790
  frame_id: "map"
pose: 
  position: 
    x: 0.0102590955794
    y: 0.0102504612878
    z: 0.0268583651632
  orientation: 
    x: -0.00458674405885
    y: -0.0277735904227
    z: 0.634965511535
    w: -0.772027452751
---
header: 
  seq: 11611
  stamp: 
    secs: 1723860976
    nsecs: 693075825
  frame_id: "map"
pose: 
  position: 
    x: 0.0101391114295
    y: 0.0106619037688
    z: 0.0260136835277
  orientation: 
    x: -0.00460246615044
    y: -0.02766294836
    z: 0.634986916866
    w: -0.77201380244
---
header: 
  seq: 11612
  stamp: 
    secs: 1723860976
    nsecs: 726609029
  frame_id: "map"
pose: 
  position: 
    x: 0.0100701469928
    y: 0.0110757211223
    z: 0.0252221673727
  orientation: 
    x: -0.00469879013853
    y: -0.0275802351698
    z: 0.634999919169
    w: -0.772005520585
---
header: 
  seq: 11613
  stamp: 
    secs: 1723860976
    nsecs: 759553345
  frame_id: "map"
pose: 
  position: 
    x: 0.0100930463523
    y: 0.0112624708563
    z: 0.0240936726332
  orientation: 
    x: -0.00473618492987
    y: -0.0276052730319
    z: 0.635000393321
    w: -0.772003950615
---
header: 
  seq: 11614
  stamp: 
    secs: 1723860976
    nsecs: 793012210
  frame_id: "map"
pose: 
  position: 
    x: 0.0101399542764
    y: 0.0113822109997
    z: 0.0233254693449
  orientation: 
    x: -0.00466854845764
    y: -0.0277496773546
    z: 0.635015518771
    w: -0.771986802116
---
header: 
  seq: 11615
  stamp: 
    secs: 1723860976
    nsecs: 826710764
  frame_id: "map"
pose: 
  position: 
    x: 0.0102032506838
    y: 0.0115357320756
    z: 0.0226520933211
  orientation: 
    x: -0.00458805587951
    y: -0.0279393539779
    z: 0.635038794368
    w: -0.771961166295
---
header: 
  seq: 11616
  stamp: 
    secs: 1723860976
    nsecs: 859646888
  frame_id: "map"
pose: 
  position: 
    x: 0.0102190114558
    y: 0.0113183753565
    z: 0.0225393977016
  orientation: 
    x: -0.00458850237269
    y: -0.0279889305256
    z: 0.635032683075
    w: -0.771964411602
---
header: 
  seq: 11617
  stamp: 
    secs: 1723860976
    nsecs: 891957098
  frame_id: "map"
pose: 
  position: 
    x: 0.00936227571219
    y: 0.0114768994972
    z: 0.0225701443851
  orientation: 
    x: -0.00455514050792
    y: -0.0281942831424
    z: 0.634805063751
    w: -0.772144320694
---
header: 
  seq: 11618
  stamp: 
    secs: 1723860976
    nsecs: 925430556
  frame_id: "map"
pose: 
  position: 
    x: 0.00736500509083
    y: 0.0124729406089
    z: 0.0228329021484
  orientation: 
    x: -0.00416457751657
    y: -0.0281483601997
    z: 0.634687974538
    w: -0.772244466874
---
header: 
  seq: 11619
  stamp: 
    secs: 1723860976
    nsecs: 959296061
  frame_id: "map"
pose: 
  position: 
    x: 0.00570998247713
    y: 0.0130601003766
    z: 0.0230091102421
  orientation: 
    x: -0.00429962128755
    y: -0.0266289663109
    z: 0.635178015945
    w: -0.771894690178
---
header: 
  seq: 11620
  stamp: 
    secs: 1723860976
    nsecs: 991051593
  frame_id: "map"
pose: 
  position: 
    x: 0.00616565719247
    y: 0.0121161947027
    z: 0.022796984762
  orientation: 
    x: -0.0070600976194
    y: -0.0250250442832
    z: 0.636000743502
    w: -0.771250328085
---
header: 
  seq: 11621
  stamp: 
    secs: 1723860977
    nsecs:  24820682
  frame_id: "map"
pose: 
  position: 
    x: 0.00788250844926
    y: 0.010658737272
    z: 0.0229956898838
  orientation: 
    x: -0.00933362506862
    y: -0.0242974553348
    z: 0.635945041173
    w: -0.771295325114
---
header: 
  seq: 11622
  stamp: 
    secs: 1723860977
    nsecs:  59609750
  frame_id: "map"
pose: 
  position: 
    x: 0.00999346282333
    y: 0.00823286361992
    z: 0.0232852213085
  orientation: 
    x: -0.0122017642079
    y: -0.0239009917847
    z: 0.635833489002
    w: -0.771359588521
---
header: 
  seq: 11623
  stamp: 
    secs: 1723860977
    nsecs:  92988456
  frame_id: "map"
pose: 
  position: 
    x: 0.011478622444
    y: 0.00641417130828
    z: 0.0238655153662
  orientation: 
    x: -0.0141346957303
    y: -0.0252504647268
    z: 0.636813924797
    w: -0.770474404604
---
header: 
  seq: 11624
  stamp: 
    secs: 1723860977
    nsecs: 125987851
  frame_id: "map"
pose: 
  position: 
    x: 0.012851940468
    y: 0.00527764903381
    z: 0.0246362928301
  orientation: 
    x: -0.0152313172159
    y: -0.0277221376818
    z: 0.638528527083
    w: -0.768947861556
---
header: 
  seq: 11625
  stamp: 
    secs: 1723860977
    nsecs: 159714123
  frame_id: "map"
pose: 
  position: 
    x: 0.014149621129
    y: 0.00496010156348
    z: 0.0261252336204
  orientation: 
    x: -0.0156370853414
    y: -0.0293258048527
    z: 0.639536195011
    w: -0.768042357589
---
header: 
  seq: 11626
  stamp: 
    secs: 1723860977
    nsecs: 190938502
  frame_id: "map"
pose: 
  position: 
    x: 0.0147973913699
    y: 0.0050239590928
    z: 0.0275274906307
  orientation: 
    x: -0.0167693828172
    y: -0.0336415565295
    z: 0.641719391227
    w: -0.766017886404
---
header: 
  seq: 11627
  stamp: 
    secs: 1723860977
    nsecs: 224075086
  frame_id: "map"
pose: 
  position: 
    x: 0.0152644999325
    y: 0.00497786607593
    z: 0.0288951713592
  orientation: 
    x: -0.0173326517399
    y: -0.0360857392025
    z: 0.642775343638
    w: -0.765008042645
---
header: 
  seq: 11628
  stamp: 
    secs: 1723860977
    nsecs: 259703932
  frame_id: "map"
pose: 
  position: 
    x: 0.0165082905442
    y: 0.00391664169729
    z: 0.0308345220983
  orientation: 
    x: -0.0184702781578
    y: -0.0413318535841
    z: 0.644399514592
    w: -0.763347878283
---
header: 
  seq: 11629
  stamp: 
    secs: 1723860977
    nsecs: 293120048
  frame_id: "map"
pose: 
  position: 
    x: 0.0175140593201
    y: 0.00273505388759
    z: 0.0323235020041
  orientation: 
    x: -0.0202850872104
    y: -0.0470595181005
    z: 0.645108577366
    w: -0.762370508671
---
header: 
  seq: 11630
  stamp: 
    secs: 1723860977
    nsecs: 325080680
  frame_id: "map"
pose: 
  position: 
    x: 0.0182529129088
    y: 0.00123807298951
    z: 0.0338032357395
  orientation: 
    x: -0.0213572753776
    y: -0.0497808097171
    z: 0.645171139094
    w: -0.762115420138
---
header: 
  seq: 11631
  stamp: 
    secs: 1723860977
    nsecs: 359274076
  frame_id: "map"
pose: 
  position: 
    x: 0.0181003157049
    y: -0.00051283306675
    z: 0.0343708731234
  orientation: 
    x: -0.0235456319486
    y: -0.0548161859049
    z: 0.644935943875
    w: -0.76190444882
---
header: 
  seq: 11632
  stamp: 
    secs: 1723860977
    nsecs: 391047533
  frame_id: "map"
pose: 
  position: 
    x: 0.0171270109713
    y: -0.00144737074152
    z: 0.0343835353851
  orientation: 
    x: -0.0243988369447
    y: -0.0588229603523
    z: 0.643879259162
    w: -0.762472314383
---
header: 
  seq: 11633
  stamp: 
    secs: 1723860977
    nsecs: 424075504
  frame_id: "map"
pose: 
  position: 
    x: 0.0162613708526
    y: -0.00188733811956
    z: 0.0341604426503
  orientation: 
    x: -0.0244433005528
    y: -0.060161145183
    z: 0.643063238223
    w: -0.763054926075
---
header: 
  seq: 11634
  stamp: 
    secs: 1723860977
    nsecs: 459657533
  frame_id: "map"
pose: 
  position: 
    x: 0.0156809929758
    y: -0.00187298748642
    z: 0.0331280566752
  orientation: 
    x: -0.0248094723727
    y: -0.0615927840649
    z: 0.64110545389
    w: -0.764574888947
---
header: 
  seq: 11635
  stamp: 
    secs: 1723860977
    nsecs: 493013198
  frame_id: "map"
pose: 
  position: 
    x: 0.0152090899646
    y: -0.00201625796035
    z: 0.0321120433509
  orientation: 
    x: -0.0257223441355
    y: -0.0621551204886
    z: 0.639777933529
    w: -0.765610415941
---
header: 
  seq: 11636
  stamp: 
    secs: 1723860977
    nsecs: 526028497
  frame_id: "map"
pose: 
  position: 
    x: 0.0144838243723
    y: -0.00226826569997
    z: 0.0310474019498
  orientation: 
    x: -0.0269105559912
    y: -0.0618507491196
    z: 0.639576218712
    w: -0.765762734652
---
header: 
  seq: 11637
  stamp: 
    secs: 1723860977
    nsecs: 559494119
  frame_id: "map"
pose: 
  position: 
    x: 0.0142485247925
    y: -0.00233548250981
    z: 0.0294844266027
  orientation: 
    x: -0.0277001561247
    y: -0.061400894732
    z: 0.639709871637
    w: -0.765659174576
---
header: 
  seq: 11638
  stamp: 
    secs: 1723860977
    nsecs: 593055521
  frame_id: "map"
pose: 
  position: 
    x: 0.0144590511918
    y: -0.00214392691851
    z: 0.0277903024107
  orientation: 
    x: -0.0288609330162
    y: -0.0592404472773
    z: 0.640021284164
    w: -0.7655262961
---
header: 
  seq: 11639
  stamp: 
    secs: 1723860977
    nsecs: 625042394
  frame_id: "map"
pose: 
  position: 
    x: 0.0144320931286
    y: -0.00167932140175
    z: 0.0258169397712
  orientation: 
    x: -0.0288336113217
    y: -0.0576037534407
    z: 0.640168835012
    w: -0.765528872326
---
header: 
  seq: 11640
  stamp: 
    secs: 1723860977
    nsecs: 659271887
  frame_id: "map"
pose: 
  position: 
    x: 0.0138167515397
    y: -0.000500520982314
    z: 0.0231586750597
  orientation: 
    x: -0.0275766658585
    y: -0.053852768217
    z: 0.640469947903
    w: -0.765596375772
---
header: 
  seq: 11641
  stamp: 
    secs: 1723860977
    nsecs: 690965661
  frame_id: "map"
pose: 
  position: 
    x: 0.0130608836189
    y: 0.000605794484727
    z: 0.0214626230299
  orientation: 
    x: -0.0254835097988
    y: -0.0510948220131
    z: 0.640605118114
    w: -0.765744769557
---
header: 
  seq: 11642
  stamp: 
    secs: 1723860977
    nsecs: 724066756
  frame_id: "map"
pose: 
  position: 
    x: 0.0122168352827
    y: 0.00158892141189
    z: 0.0202270671725
  orientation: 
    x: -0.0243891655601
    y: -0.0501692574635
    z: 0.640545654179
    w: -0.765891308881
---
header: 
  seq: 11643
  stamp: 
    secs: 1723860977
    nsecs: 758006317
  frame_id: "map"
pose: 
  position: 
    x: 0.0111690415069
    y: 0.00184691487812
    z: 0.0204521864653
  orientation: 
    x: -0.0233227712674
    y: -0.0495676638845
    z: 0.639715413947
    w: -0.766657233023
---
header: 
  seq: 11644
  stamp: 
    secs: 1723860977
    nsecs: 793188361
  frame_id: "map"
pose: 
  position: 
    x: 0.00963603612036
    y: 0.00214799749665
    z: 0.021801777184
  orientation: 
    x: -0.0243183628059
    y: -0.0500724738113
    z: 0.638067941054
    w: -0.767965339492
---
header: 
  seq: 11645
  stamp: 
    secs: 1723860977
    nsecs: 829494259
  frame_id: "map"
pose: 
  position: 
    x: 0.00808660406619
    y: 0.00288908788934
    z: 0.0238730702549
  orientation: 
    x: -0.027543929611
    y: -0.0506143136958
    z: 0.636238056601
    w: -0.769337930639
---
header: 
  seq: 11646
  stamp: 
    secs: 1723860977
    nsecs: 859411288
  frame_id: "map"
pose: 
  position: 
    x: 0.00660415180027
    y: 0.0040719313547
    z: 0.0246934182942
  orientation: 
    x: -0.0297325548681
    y: -0.0506685540556
    z: 0.635371649104
    w: -0.769968568665
---
header: 
  seq: 11647
  stamp: 
    secs: 1723860977
    nsecs: 892079309
  frame_id: "map"
pose: 
  position: 
    x: 0.00465104589239
    y: 0.00560071878135
    z: 0.0253609064966
  orientation: 
    x: -0.0341429624397
    y: -0.0499587767606
    z: 0.633520606933
    w: -0.771355995502
---
header: 
  seq: 11648
  stamp: 
    secs: 1723860977
    nsecs: 925712362
  frame_id: "map"
pose: 
  position: 
    x: 0.00212169927545
    y: 0.0074240914546
    z: 0.0265679843724
  orientation: 
    x: -0.0360394902802
    y: -0.0490498549477
    z: 0.632454028248
    w: -0.772202820519
---
header: 
  seq: 11649
  stamp: 
    secs: 1723860977
    nsecs: 959614481
  frame_id: "map"
pose: 
  position: 
    x: -0.00202239095233
    y: 0.00988836959004
    z: 0.0285415388644
  orientation: 
    x: -0.0384808843466
    y: -0.0455408074517
    z: 0.629785495266
    w: -0.774477617642
---
header: 
  seq: 11650
  stamp: 
    secs: 1723860977
    nsecs: 992097887
  frame_id: "map"
pose: 
  position: 
    x: -0.00580859323964
    y: 0.0120213124901
    z: 0.0312078222632
  orientation: 
    x: -0.0385680870405
    y: -0.039162291997
    z: 0.626032634507
    w: -0.777857394498
---
header: 
  seq: 11651
  stamp: 
    secs: 1723860978
    nsecs:  24132894
  frame_id: "map"
pose: 
  position: 
    x: -0.0100236888975
    y: 0.0144110973924
    z: 0.0350136123598
  orientation: 
    x: -0.0376930082826
    y: -0.0348358437876
    z: 0.623704537426
    w: -0.779973408637
---
header: 
  seq: 11652
  stamp: 
    secs: 1723860978
    nsecs:  59576201
  frame_id: "map"
pose: 
  position: 
    x: -0.0154856583104
    y: 0.0169759560376
    z: 0.0419309400022
  orientation: 
    x: -0.0338894929391
    y: -0.0240200819857
    z: 0.618078565352
    w: -0.78501817567
---
header: 
  seq: 11653
  stamp: 
    secs: 1723860978
    nsecs:  93060004
  frame_id: "map"
pose: 
  position: 
    x: -0.0201194398105
    y: 0.019334981218
    z: 0.0492856241763
  orientation: 
    x: -0.0282228356567
    y: -0.0119907500839
    z: 0.611458512442
    w: -0.790682169469
---
header: 
  seq: 11654
  stamp: 
    secs: 1723860978
    nsecs: 126028970
  frame_id: "map"
pose: 
  position: 
    x: -0.0241979472339
    y: 0.0215883497149
    z: 0.0570602677763
  orientation: 
    x: -0.022638674574
    y: -0.00211095322508
    z: 0.60510663466
    w: -0.795819796546
---
header: 
  seq: 11655
  stamp: 
    secs: 1723860978
    nsecs: 159590665
  frame_id: "map"
pose: 
  position: 
    x: -0.0289973430336
    y: 0.0251603145152
    z: 0.0688976868987
  orientation: 
    x: -0.0186073127089
    y: 0.00385443663908
    z: 0.600530635413
    w: -0.799375926352
---
header: 
  seq: 11656
  stamp: 
    secs: 1723860978
    nsecs: 192108764
  frame_id: "map"
pose: 
  position: 
    x: -0.0317110195756
    y: 0.0285754352808
    z: 0.078627936542
  orientation: 
    x: -0.0133042011354
    y: 0.0103537363594
    z: 0.594506164887
    w: -0.803914383293
---
header: 
  seq: 11657
  stamp: 
    secs: 1723860978
    nsecs: 225289611
  frame_id: "map"
pose: 
  position: 
    x: -0.0335066728294
    y: 0.0326255969703
    z: 0.0885434523225
  orientation: 
    x: -0.00965885336543
    y: 0.0138997624466
    z: 0.590696711447
    w: -0.806716189879
---
header: 
  seq: 11658
  stamp: 
    secs: 1723860978
    nsecs: 259073971
  frame_id: "map"
pose: 
  position: 
    x: -0.0341857969761
    y: 0.0379845909774
    z: 0.100634820759
  orientation: 
    x: -0.00430904374237
    y: 0.0181477875952
    z: 0.586250608788
    w: -0.809914998703
---
header: 
  seq: 11659
  stamp: 
    secs: 1723860978
    nsecs: 291133171
  frame_id: "map"
pose: 
  position: 
    x: -0.0335965827107
    y: 0.0463461354375
    z: 0.115817315876
  orientation: 
    x: 0.00370170106988
    y: 0.023090776574
    z: 0.582127277231
    w: -0.812761365044
---
header: 
  seq: 11660
  stamp: 
    secs: 1723860978
    nsecs: 324450920
  frame_id: "map"
pose: 
  position: 
    x: -0.032032713294
    y: 0.0533928051591
    z: 0.126621171832
  orientation: 
    x: 0.00676311116846
    y: 0.0248491773382
    z: 0.58116515951
    w: -0.813378131488
---
header: 
  seq: 11661
  stamp: 
    secs: 1723860978
    nsecs: 359610408
  frame_id: "map"
pose: 
  position: 
    x: -0.0283711720258
    y: 0.0646334812045
    z: 0.141429871321
  orientation: 
    x: 0.0167511174267
    y: 0.0307291618822
    z: 0.579261007041
    w: -0.814390456643
---
header: 
  seq: 11662
  stamp: 
    secs: 1723860978
    nsecs: 391292857
  frame_id: "map"
pose: 
  position: 
    x: -0.0248902272433
    y: 0.0733990073204
    z: 0.151619106531
  orientation: 
    x: 0.0263757872284
    y: 0.0368153251871
    z: 0.578800942579
    w: -0.814210310476
---
header: 
  seq: 11663
  stamp: 
    secs: 1723860978
    nsecs: 424152155
  frame_id: "map"
pose: 
  position: 
    x: -0.0205891877413
    y: 0.0827490389347
    z: 0.161529019475
  orientation: 
    x: 0.0299176480217
    y: 0.0392766454931
    z: 0.578852530322
    w: -0.813936103079
---
header: 
  seq: 11664
  stamp: 
    secs: 1723860978
    nsecs: 459072945
  frame_id: "map"
pose: 
  position: 
    x: -0.0151506979018
    y: 0.0932804048061
    z: 0.171730533242
  orientation: 
    x: 0.0390401657823
    y: 0.0466976666619
    z: 0.579857690512
    w: -0.812440943628
---
header: 
  seq: 11665
  stamp: 
    secs: 1723860978
    nsecs: 491022093
  frame_id: "map"
pose: 
  position: 
    x: -0.00716079305857
    y: 0.108383469284
    z: 0.184935078025
  orientation: 
    x: 0.0454650843821
    y: 0.0525328079469
    z: 0.58164564412
    w: -0.810469988404
---
header: 
  seq: 11666
  stamp: 
    secs: 1723860978
    nsecs: 524207996
  frame_id: "map"
pose: 
  position: 
    x: -0.00092941703042
    y: 0.120693020523
    z: 0.194184988737
  orientation: 
    x: 0.0475842690843
    y: 0.054447782607
    z: 0.582439237667
    w: -0.80965161251
---
header: 
  seq: 11667
  stamp: 
    secs: 1723860978
    nsecs: 559638087
  frame_id: "map"
pose: 
  position: 
    x: 0.00685533182696
    y: 0.138920888305
    z: 0.205781891942
  orientation: 
    x: 0.0534297231763
    y: 0.059465921063
    z: 0.585001608006
    w: -0.807082498676
---
header: 
  seq: 11668
  stamp: 
    secs: 1723860978
    nsecs: 593958404
  frame_id: "map"
pose: 
  position: 
    x: 0.0126102864742
    y: 0.153704881668
    z: 0.213624417782
  orientation: 
    x: 0.0587888497224
    y: 0.0630356465208
    z: 0.587018977446
    w: -0.804971478938
---
header: 
  seq: 11669
  stamp: 
    secs: 1723860978
    nsecs: 626146218
  frame_id: "map"
pose: 
  position: 
    x: 0.0189269017428
    y: 0.170472770929
    z: 0.22095541656
  orientation: 
    x: 0.0634418985119
    y: 0.064920248285
    z: 0.588465741778
    w: -0.80341058094
---
header: 
  seq: 11670
  stamp: 
    secs: 1723860978
    nsecs: 659730570
  frame_id: "map"
pose: 
  position: 
    x: 0.026241119951
    y: 0.191799387336
    z: 0.229836508632
  orientation: 
    x: 0.0666081631783
    y: 0.0654096115976
    z: 0.589393604648
    w: -0.802433996313
---
header: 
  seq: 11671
  stamp: 
    secs: 1723860978
    nsecs: 692139321
  frame_id: "map"
pose: 
  position: 
    x: 0.0315874516964
    y: 0.207953691483
    z: 0.236236870289
  orientation: 
    x: 0.0706893107201
    y: 0.064656347604
    z: 0.59078759059
    w: -0.801119667915
---
header: 
  seq: 11672
  stamp: 
    secs: 1723860978
    nsecs: 725764250
  frame_id: "map"
pose: 
  position: 
    x: 0.0369191728532
    y: 0.224013820291
    z: 0.242318958044
  orientation: 
    x: 0.0732615987392
    y: 0.0632398210015
    z: 0.591775618086
    w: -0.800271989425
---
header: 
  seq: 11673
  stamp: 
    secs: 1723860978
    nsecs: 759018796
  frame_id: "map"
pose: 
  position: 
    x: 0.0419164560735
    y: 0.239858552814
    z: 0.24872840941
  orientation: 
    x: 0.0762926868144
    y: 0.0601671234501
    z: 0.593107152934
    w: -0.799239275732
---
header: 
  seq: 11674
  stamp: 
    secs: 1723860978
    nsecs: 791140783
  frame_id: "map"
pose: 
  position: 
    x: 0.0481400452554
    y: 0.260638058186
    z: 0.257239937782
  orientation: 
    x: 0.0790423379917
    y: 0.0548816228385
    z: 0.594337145488
    w: -0.798438253803
---
header: 
  seq: 11675
  stamp: 
    secs: 1723860978
    nsecs: 824264379
  frame_id: "map"
pose: 
  position: 
    x: 0.052152197808
    y: 0.276166200638
    z: 0.263395190239
  orientation: 
    x: 0.0798199894936
    y: 0.0530367709855
    z: 0.594579921872
    w: -0.798304890638
---
header: 
  seq: 11676
  stamp: 
    secs: 1723860978
    nsecs: 859003082
  frame_id: "map"
pose: 
  position: 
    x: 0.0550674833357
    y: 0.292246609926
    z: 0.268613904715
  orientation: 
    x: 0.082172517259
    y: 0.0485973841628
    z: 0.594582229412
    w: -0.79834709017
---
header: 
  seq: 11677
  stamp: 
    secs: 1723860978
    nsecs: 891067467
  frame_id: "map"
pose: 
  position: 
    x: 0.0574262626469
    y: 0.315361231565
    z: 0.274552881718
  orientation: 
    x: 0.0849092938911
    y: 0.0448533189247
    z: 0.59316106929
    w: -0.799336413682
---
header: 
  seq: 11678
  stamp: 
    secs: 1723860978
    nsecs: 924193240
  frame_id: "map"
pose: 
  position: 
    x: 0.0576036795974
    y: 0.331937342882
    z: 0.27788451314
  orientation: 
    x: 0.0857740958561
    y: 0.0440440665061
    z: 0.592327920925
    w: -0.799906565712
---
header: 
  seq: 11679
  stamp: 
    secs: 1723860978
    nsecs: 959748872
  frame_id: "map"
pose: 
  position: 
    x: 0.0556430891156
    y: 0.354221373796
    z: 0.280384689569
  orientation: 
    x: 0.0878816924798
    y: 0.0429256985638
    z: 0.588386337116
    w: -0.802643002535
---
header: 
  seq: 11680
  stamp: 
    secs: 1723860978
    nsecs: 993053531
  frame_id: "map"
pose: 
  position: 
    x: 0.0524242669344
    y: 0.371135473251
    z: 0.281276166439
  orientation: 
    x: 0.0893559497281
    y: 0.0432784755883
    z: 0.583029261936
    w: -0.806361914007
---
header: 
  seq: 11681
  stamp: 
    secs: 1723860979
    nsecs:  26840583
  frame_id: "map"
pose: 
  position: 
    x: 0.0479135811329
    y: 0.388379871845
    z: 0.281359583139
  orientation: 
    x: 0.0907605487724
    y: 0.0446347269291
    z: 0.576723935348
    w: -0.810653969935
---
header: 
  seq: 11682
  stamp: 
    secs: 1723860979
    nsecs:  58939438
  frame_id: "map"
pose: 
  position: 
    x: 0.0410312451422
    y: 0.412042409182
    z: 0.280878275633
  orientation: 
    x: 0.0916646223806
    y: 0.0462578942615
    z: 0.5713186231
    w: -0.814280600882
---
header: 
  seq: 11683
  stamp: 
    secs: 1723860979
    nsecs:  92134946
  frame_id: "map"
pose: 
  position: 
    x: 0.0351477377117
    y: 0.430815964937
    z: 0.280314803123
  orientation: 
    x: 0.0930796264282
    y: 0.049533729086
    z: 0.562351185656
    w: -0.82014864338
---
header: 
  seq: 11684
  stamp: 
    secs: 1723860979
    nsecs: 125166191
  frame_id: "map"
pose: 
  position: 
    x: 0.0287444517016
    y: 0.450761318207
    z: 0.279563933611
  orientation: 
    x: 0.0944820246168
    y: 0.0525277424226
    z: 0.555094214839
    w: -0.824732913946
---
header: 
  seq: 11685
  stamp: 
    secs: 1723860979
    nsecs: 159106785
  frame_id: "map"
pose: 
  position: 
    x: 0.0222822539508
    y: 0.471797734499
    z: 0.278643280268
  orientation: 
    x: 0.096733816146
    y: 0.0571443593774
    z: 0.543895628602
    w: -0.831597624044
---
header: 
  seq: 11686
  stamp: 
    secs: 1723860979
    nsecs: 191171271
  frame_id: "map"
pose: 
  position: 
    x: 0.0125777525827
    y: 0.503338098526
    z: 0.276496440172
  orientation: 
    x: 0.099878993106
    y: 0.0631444584884
    z: 0.527611371817
    w: -0.841227230624
---
header: 
  seq: 11687
  stamp: 
    secs: 1723860979
    nsecs: 224484416
  frame_id: "map"
pose: 
  position: 
    x: 0.00561722181737
    y: 0.526335835457
    z: 0.274439007044
  orientation: 
    x: 0.100828159891
    y: 0.0649884055013
    z: 0.521680435684
    w: -0.844665517842
---
header: 
  seq: 11688
  stamp: 
    secs: 1723860979
    nsecs: 260247581
  frame_id: "map"
pose: 
  position: 
    x: -0.00274851103313
    y: 0.55803835392
    z: 0.271709293127
  orientation: 
    x: 0.102465824422
    y: 0.0692916132222
    z: 0.502039308855
    w: -0.855953307884
---
header: 
  seq: 11689
  stamp: 
    secs: 1723860979
    nsecs: 293076930
  frame_id: "map"
pose: 
  position: 
    x: -0.00807118602097
    y: 0.582063317299
    z: 0.269663751125
  orientation: 
    x: 0.102048806381
    y: 0.0705817137671
    z: 0.482867571478
    w: -0.866858278101
---
header: 
  seq: 11690
  stamp: 
    secs: 1723860979
    nsecs: 326746633
  frame_id: "map"
pose: 
  position: 
    x: -0.0125869773328
    y: 0.606076478958
    z: 0.267765015364
  orientation: 
    x: 0.101063880629
    y: 0.0695264054127
    z: 0.465467160776
    w: -0.876523056226
---
header: 
  seq: 11691
  stamp: 
    secs: 1723860979
    nsecs: 359668562
  frame_id: "map"
pose: 
  position: 
    x: -0.0160952862352
    y: 0.639702260494
    z: 0.267152279615
  orientation: 
    x: 0.100242854752
    y: 0.0678721047302
    z: 0.453111980723
    w: -0.883195576695
---
header: 
  seq: 11692
  stamp: 
    secs: 1723860979
    nsecs: 393603844
  frame_id: "map"
pose: 
  position: 
    x: -0.017511067912
    y: 0.665044248104
    z: 0.266959220171
  orientation: 
    x: 0.0986570795765
    y: 0.0635265433778
    z: 0.43387946759
    w: -0.893297227979
---
header: 
  seq: 11693
  stamp: 
    secs: 1723860979
    nsecs: 425735885
  frame_id: "map"
pose: 
  position: 
    x: -0.0179411545396
    y: 0.693274140358
    z: 0.267352640629
  orientation: 
    x: 0.0963187434452
    y: 0.0578786417722
    z: 0.417622901284
    w: -0.90164510675
---
header: 
  seq: 11694
  stamp: 
    secs: 1723860979
    nsecs: 460102257
  frame_id: "map"
pose: 
  position: 
    x: -0.0156499948353
    y: 0.731806159019
    z: 0.267709136009
  orientation: 
    x: 0.0938253595949
    y: 0.0538968156249
    z: 0.406067794855
    w: -0.907414378108
---
header: 
  seq: 11695
  stamp: 
    secs: 1723860979
    nsecs: 492532837
  frame_id: "map"
pose: 
  position: 
    x: -0.0127069270238
    y: 0.761980354786
    z: 0.267145782709
  orientation: 
    x: 0.0903104520405
    y: 0.0502845014353
    z: 0.389375872677
    w: -0.915260604014
---
header: 
  seq: 11696
  stamp: 
    secs: 1723860979
    nsecs: 525802012
  frame_id: "map"
pose: 
  position: 
    x: -0.00923802889884
    y: 0.792618870735
    z: 0.265741974115
  orientation: 
    x: 0.0885175330074
    y: 0.0498340174792
    z: 0.376683391395
    w: -0.920755667976
---
header: 
  seq: 11697
  stamp: 
    secs: 1723860979
    nsecs: 558565246
  frame_id: "map"
pose: 
  position: 
    x: -0.00407420378178
    y: 0.824198544025
    z: 0.262188911438
  orientation: 
    x: 0.0873690893374
    y: 0.0524528698633
    z: 0.35746581932
    w: -0.928349897875
---
header: 
  seq: 11698
  stamp: 
    secs: 1723860979
    nsecs: 592619062
  frame_id: "map"
pose: 
  position: 
    x: 0.00321544939652
    y: 0.867360770702
    z: 0.256593108177
  orientation: 
    x: 0.0878045321369
    y: 0.0597104070287
    z: 0.330088617374
    w: -0.937958747133
---
header: 
  seq: 11699
  stamp: 
    secs: 1723860979
    nsecs: 624484467
  frame_id: "map"
pose: 
  position: 
    x: 0.00889718160033
    y: 0.900780916214
    z: 0.252255916595
  orientation: 
    x: 0.0883517194028
    y: 0.0628701720667
    z: 0.320382198162
    w: -0.941061513827
---
header: 
  seq: 11700
  stamp: 
    secs: 1723860979
    nsecs: 658650543
  frame_id: "map"
pose: 
  position: 
    x: 0.0155439181253
    y: 0.936745345592
    z: 0.249425008893
  orientation: 
    x: 0.0905803795561
    y: 0.0719589627996
    z: 0.293615430095
    w: -0.948897856297
---
header: 
  seq: 11701
  stamp: 
    secs: 1723860979
    nsecs: 692636003
  frame_id: "map"
pose: 
  position: 
    x: 0.0249433871359
    y: 0.990395784378
    z: 0.246712878346
  orientation: 
    x: 0.0933718061628
    y: 0.0810430008167
    z: 0.265990636487
    w: -0.95601399342
---
header: 
  seq: 11702
  stamp: 
    secs: 1723860979
    nsecs: 725211326
  frame_id: "map"
pose: 
  position: 
    x: 0.0317241698503
    y: 1.03094482422
    z: 0.24535125494
  orientation: 
    x: 0.0950963363366
    y: 0.0863772669784
    z: 0.248353676598
    w: -0.96011254263
---
header: 
  seq: 11703
  stamp: 
    secs: 1723860979
    nsecs: 758705630
  frame_id: "map"
pose: 
  position: 
    x: 0.0383521541953
    y: 1.07640433311
    z: 0.244887322187
  orientation: 
    x: 0.0976517827384
    y: 0.0935137412728
    z: 0.223125247429
    w: -0.96536758029
---
header: 
  seq: 11704
  stamp: 
    secs: 1723860979
    nsecs: 791598629
  frame_id: "map"
pose: 
  position: 
    x: 0.0465582311153
    y: 1.14017105103
    z: 0.244204327464
  orientation: 
    x: 0.101589063371
    y: 0.102099595885
    z: 0.189547443277
    w: -0.971250353111
---
header: 
  seq: 11705
  stamp: 
    secs: 1723860979
    nsecs: 824334854
  frame_id: "map"
pose: 
  position: 
    x: 0.0521170310676
    y: 1.19003069401
    z: 0.243013933301
  orientation: 
    x: 0.103160801423
    y: 0.104889866993
    z: 0.178035453074
    w: -0.972964212559
---
header: 
  seq: 11706
  stamp: 
    secs: 1723860979
    nsecs: 861805066
  frame_id: "map"
pose: 
  position: 
    x: 0.05908543244
    y: 1.26154339314
    z: 0.241194501519
  orientation: 
    x: 0.108726726256
    y: 0.113049484846
    z: 0.142159339125
    w: -0.977337748882
---
header: 
  seq: 11707
  stamp: 
    secs: 1723860979
    nsecs: 893649990
  frame_id: "map"
pose: 
  position: 
    x: 0.0642314702272
    y: 1.31643617153
    z: 0.239073514938
  orientation: 
    x: 0.113330662278
    y: 0.118824273491
    z: 0.11322637056
    w: -0.979906515005
---
header: 
  seq: 11708
  stamp: 
    secs: 1723860979
    nsecs: 926370919
  frame_id: "map"
pose: 
  position: 
    x: 0.0696525648236
    y: 1.372138381
    z: 0.236243262887
  orientation: 
    x: 0.117735174888
    y: 0.124582398654
    z: 0.0793342352107
    w: -0.981999864677
---
header: 
  seq: 11709
  stamp: 
    secs: 1723860979
    nsecs: 960531938
  frame_id: "map"
pose: 
  position: 
    x: 0.0752636045218
    y: 1.43575298786
    z: 0.234064429998
  orientation: 
    x: 0.119188949756
    y: 0.127219249389
    z: 0.0618588874126
    w: -0.982742492148
---
header: 
  seq: 11710
  stamp: 
    secs: 1723860979
    nsecs: 992791088
  frame_id: "map"
pose: 
  position: 
    x: 0.0830303579569
    y: 1.51511800289
    z: 0.232300564647
  orientation: 
    x: 0.119927151149
    y: 0.131603344156
    z: 0.0250930534916
    w: -0.983701375098
---
header: 
  seq: 11711
  stamp: 
    secs: 1723860980
    nsecs:  26653571
  frame_id: "map"
pose: 
  position: 
    x: 0.0893453061581
    y: 1.57446503639
    z: 0.2322178334
  orientation: 
    x: 0.118836359758
    y: 0.13282148225
    z: 0.00533073339966
    w: -0.983975582494
---
header: 
  seq: 11712
  stamp: 
    secs: 1723860980
    nsecs:  59812922
  frame_id: "map"
pose: 
  position: 
    x: 0.0945244058967
    y: 1.63580095768
    z: 0.233255237341
  orientation: 
    x: 0.115069927056
    y: 0.13135938766
    z: -0.0376635617942
    w: -0.983913163012
---
header: 
  seq: 11713
  stamp: 
    secs: 1723860980
    nsecs:  92642787
  frame_id: "map"
pose: 
  position: 
    x: 0.102583363652
    y: 1.71578466892
    z: 0.23634211719
  orientation: 
    x: 0.110622873458
    y: 0.125514791981
    z: -0.0846090818892
    w: -0.982267750046
---
header: 
  seq: 11714
  stamp: 
    secs: 1723860980
    nsecs: 125312486
  frame_id: "map"
pose: 
  position: 
    x: 0.109289728105
    y: 1.77476119995
    z: 0.239211112261
  orientation: 
    x: 0.107797824861
    y: 0.120253483002
    z: -0.115029370592
    w: -0.980146457014
---
header: 
  seq: 11715
  stamp: 
    secs: 1723860980
    nsecs: 158766921
  frame_id: "map"
pose: 
  position: 
    x: 0.115528672934
    y: 1.83509254456
    z: 0.240646958351
  orientation: 
    x: 0.103616721829
    y: 0.112036795517
    z: -0.158379848803
    w: -0.975513759719
---
header: 
  seq: 11716
  stamp: 
    secs: 1723860980
    nsecs: 191632948
  frame_id: "map"
pose: 
  position: 
    x: 0.123989157379
    y: 1.91604375839
    z: 0.239750042558
  orientation: 
    x: 0.0972561680521
    y: 0.102548911995
    z: -0.214888109503
    w: -0.966358241964
---
header: 
  seq: 11717
  stamp: 
    secs: 1723860980
    nsecs: 224366266
  frame_id: "map"
pose: 
  position: 
    x: 0.131591767073
    y: 1.9808318615
    z: 0.236257851124
  orientation: 
    x: 0.0948319842233
    y: 0.0998020779063
    z: -0.23367435073
    w: -0.962519043386
---
header: 
  seq: 11718
  stamp: 
    secs: 1723860980
    nsecs: 258631454
  frame_id: "map"
pose: 
  position: 
    x: 0.137437358499
    y: 2.04454565048
    z: 0.231249511242
  orientation: 
    x: 0.0874511841543
    y: 0.0933609454467
    z: -0.28272013258
    w: -0.950634306456
---
header: 
  seq: 11719
  stamp: 
    secs: 1723860980
    nsecs: 291620366
  frame_id: "map"
pose: 
  position: 
    x: 0.144412308931
