header: 
  seq: 4970
  stamp: 
    secs: 1723866689
    nsecs:  79018298
  frame_id: "map"
pose: 
  position: 
    x: 0.632149636745
    y: 1.35602974892
    z: -0.378015249968
  orientation: 
    x: 0.0820731507953
    y: -0.00517350721547
    z: 0.903880280567
    w: -0.419806740239
---
header: 
  seq: 4971
  stamp: 
    secs: 1723866689
    nsecs: 112720597
  frame_id: "map"
pose: 
  position: 
    x: 0.600459635258
    y: 1.4147002697
    z: -0.381995469332
  orientation: 
    x: 0.0804993874719
    y: -0.0107483077465
    z: 0.917815419531
    w: -0.388612129636
---
header: 
  seq: 4972
  stamp: 
    secs: 1723866689
    nsecs: 144714676
  frame_id: "map"
pose: 
  position: 
    x: 0.57136708498
    y: 1.47536039352
    z: -0.383549004793
  orientation: 
    x: 0.075491485761
    y: -0.0186800733159
    z: 0.93126047494
    w: -0.355957889374
---
header: 
  seq: 4973
  stamp: 
    secs: 1723866689
    nsecs: 178238927
  frame_id: "map"
pose: 
  position: 
    x: 0.545205593109
    y: 1.53748178482
    z: -0.382675766945
  orientation: 
    x: 0.0717972907814
    y: -0.0232277630513
    z: 0.937827375406
    w: -0.338799991639
---
header: 
  seq: 4974
  stamp: 
    secs: 1723866689
    nsecs: 211137324
  frame_id: "map"
pose: 
  position: 
    x: 0.511910140514
    y: 1.62385571003
    z: -0.379009008408
  orientation: 
    x: 0.0627475998116
    y: -0.0323739913776
    z: 0.950246239348
    w: -0.303392044884
---
header: 
  seq: 4975
  stamp: 
    secs: 1723866689
    nsecs: 244341864
  frame_id: "map"
pose: 
  position: 
    x: 0.490347892046
    y: 1.68855142593
    z: -0.374904990196
  orientation: 
    x: 0.0578811231679
    y: -0.0366637094728
    z: 0.956035277578
    w: -0.285135294514
---
header: 
  seq: 4976
  stamp: 
    secs: 1723866689
    nsecs: 276603174
  frame_id: "map"
pose: 
  position: 
    x: 0.471255749464
    y: 1.75258088112
    z: -0.370741337538
  orientation: 
    x: 0.0485259767001
    y: -0.0445145822337
    z: 0.966721463504
    w: -0.247211286269
---
header: 
  seq: 4977
  stamp: 
    secs: 1723866689
    nsecs: 311481694
  frame_id: "map"
pose: 
  position: 
    x: 0.446639508009
    y: 1.83930766582
    z: -0.367602139711
  orientation: 
    x: 0.0410585566255
    y: -0.0507115171701
    z: 0.975846761969
    w: -0.20848431734
---
header: 
  seq: 4978
  stamp: 
    secs: 1723866689
    nsecs: 343159646
  frame_id: "map"
pose: 
  position: 
    x: 0.430451691151
    y: 1.90334427357
    z: -0.365972757339
  orientation: 
    x: 0.0380619331478
    y: -0.0533119602717
    z: 0.979778683613
    w: -0.189058286953
---
header: 
  seq: 4979
  stamp: 
    secs: 1723866689
    nsecs: 379153236
  frame_id: "map"
pose: 
  position: 
    x: 0.416051328182
    y: 1.96655857563
    z: -0.365544766188
  orientation: 
    x: 0.033418128183
    y: -0.057954542978
    z: 0.986278907766
    w: -0.15092542
---
header: 
  seq: 4980
  stamp: 
    secs: 1723866689
    nsecs: 412508400
  frame_id: "map"
pose: 
  position: 
    x: 0.399118185043
    y: 2.05255460739
    z: -0.366476923227
  orientation: 
    x: 0.0320910569494
    y: -0.0619342736366
    z: 0.991041290913
    w: -0.113892712235
---
header: 
  seq: 4981
  stamp: 
    secs: 1723866689
    nsecs: 449996099
  frame_id: "map"
pose: 
  position: 
    x: 0.388312995434
    y: 2.11571478844
    z: -0.368891060352
  orientation: 
    x: 0.0349141068633
    y: -0.0655150474956
    z: 0.994145912068
    w: -0.078503942295
---
header: 
  seq: 4982
  stamp: 
    secs: 1723866689
    nsecs: 479426887
  frame_id: "map"
pose: 
  position: 
    x: 0.379325658083
    y: 2.17764019966
    z: -0.372305929661
  orientation: 
    x: 0.0378609789498
    y: -0.0672440942969
    z: 0.99513299126
    w: -0.0612794525393
---
header: 
  seq: 4983
  stamp: 
    secs: 1723866689
    nsecs: 512381060
  frame_id: "map"
pose: 
  position: 
    x: 0.371050924063
    y: 2.26181268692
    z: -0.375792205334
  orientation: 
    x: 0.0463458889787
    y: -0.0708094740194
    z: 0.995996158718
    w: -0.0288048842931
---
header: 
  seq: 4984
  stamp: 
    secs: 1723866689
    nsecs: 544655938
  frame_id: "map"
pose: 
  position: 
    x: 0.367083460093
    y: 2.32366681099
    z: -0.377546548843
  orientation: 
    x: 0.0567572833792
    y: -0.0742927892181
    z: 0.995619955948
    w: -0.00041662159753
---
header: 
  seq: 4985
  stamp: 
    secs: 1723866689
    nsecs: 578131229
  frame_id: "map"
pose: 
  position: 
    x: 0.365008443594
    y: 2.38425183296
    z: -0.378011643887
  orientation: 
    x: 0.0621697540061
    y: -0.0760531853722
    z: 0.995090802265
    w: 0.0120550101985
---
header: 
  seq: 4986
  stamp: 
    secs: 1723866689
    nsecs: 611048090
  frame_id: "map"
pose: 
  position: 
    x: 0.366555333138
    y: 2.46491265297
    z: -0.374797791243
  orientation: 
    x: 0.0731177653747
    y: -0.0794357557735
    z: 0.993586581242
    w: 0.033608908527
---
header: 
  seq: 4987
  stamp: 
    secs: 1723866689
    nsecs: 644218870
  frame_id: "map"
pose: 
  position: 
    x: 0.36808770895
    y: 2.52412652969
    z: -0.37063986063
  orientation: 
    x: 0.0788420938692
    y: -0.0810099127418
    z: 0.992672205363
    w: 0.042701037422
---
header: 
  seq: 4988
  stamp: 
    secs: 1723866689
    nsecs: 676677268
  frame_id: "map"
pose: 
  position: 
    x: 0.370082557201
    y: 2.58260631561
    z: -0.364407211542
  orientation: 
    x: 0.0903037286303
    y: -0.0842470230091
    z: 0.990670440793
    w: 0.0576171864316
---
header: 
  seq: 4989
  stamp: 
    secs: 1723866689
    nsecs: 711669100
  frame_id: "map"
pose: 
  position: 
    x: 0.372939586639
    y: 2.64032673836
    z: -0.355541199446
  orientation: 
    x: 0.100049357253
    y: -0.0874645427296
    z: 0.988661806287
    w: 0.0699144567153
---
header: 
  seq: 4990
  stamp: 
    secs: 1723866689
    nsecs: 743152076
  frame_id: "map"
pose: 
  position: 
    x: 0.375089675188
    y: 2.71582937241
    z: -0.342032164335
  orientation: 
    x: 0.103725555528
    y: -0.0888515085862
    z: 0.987742962842
    w: 0.0755673184782
---
header: 
  seq: 4991
  stamp: 
    secs: 1723866689
    nsecs: 779081602
  frame_id: "map"
pose: 
  position: 
    x: 0.375548988581
    y: 2.77108478546
    z: -0.331684440374
  orientation: 
    x: 0.10817147182
    y: -0.0905405297109
    z: 0.986206668067
    w: 0.0865890143917
---
header: 
  seq: 4992
  stamp: 
    secs: 1723866689
    nsecs: 812085887
  frame_id: "map"
pose: 
  position: 
    x: 0.379653513432
    y: 2.84116601944
    z: -0.318357586861
  orientation: 
    x: 0.108970196087
    y: -0.0911008937938
    z: 0.985066680109
    w: 0.0973128585268
---
header: 
  seq: 4993
  stamp: 
    secs: 1723866689
    nsecs: 845380059
  frame_id: "map"
pose: 
  position: 
    x: 0.382550776005
    y: 2.89292240143
    z: -0.311431199312
  orientation: 
    x: 0.107575649725
    y: -0.0907951941405
    z: 0.98421636744
    w: 0.10724674428
---
header: 
  seq: 4994
  stamp: 
    secs: 1723866689
    nsecs: 878372567
  frame_id: "map"
pose: 
  position: 
    x: 0.385499626398
    y: 2.9442820549
    z: -0.30815038085
  orientation: 
    x: 0.106741242223
    y: -0.0904991388715
    z: 0.983824907511
    w: 0.111825493609
---
header: 
  seq: 4995
  stamp: 
    secs: 1723866689
    nsecs: 911117716
  frame_id: "map"
pose: 
  position: 
    x: 0.390465646982
    y: 3.01049923897
    z: -0.307461023331
  orientation: 
    x: 0.105271215465
    y: -0.0897575729744
    z: 0.983087927718
    w: 0.119998779059
---
header: 
  seq: 4996
  stamp: 
    secs: 1723866689
    nsecs: 943654226
  frame_id: "map"
pose: 
  position: 
    x: 0.394027888775
    y: 3.06022953987
    z: -0.310946673155
  orientation: 
    x: 0.104478076313
    y: -0.0889491951029
    z: 0.98239929036
    w: 0.126744087136
---
header: 
  seq: 4997
  stamp: 
    secs: 1723866689
    nsecs: 979104969
  frame_id: "map"
pose: 
  position: 
    x: 0.397137731314
    y: 3.11042881012
    z: -0.317104876041
  orientation: 
    x: 0.104383919595
    y: -0.0885913057973
    z: 0.982078932165
    w: 0.129524556879
---
header: 
  seq: 4998
  stamp: 
    secs: 1723866690
    nsecs:  12261509
  frame_id: "map"
pose: 
  position: 
    x: 0.399677187204
    y: 3.17718720436
    z: -0.32664296031
  orientation: 
    x: 0.104591569215
    y: -0.0883878497887
    z: 0.981438847976
    w: 0.134260724686
---
header: 
  seq: 4999
  stamp: 
    secs: 1723866690
    nsecs:  44708771
  frame_id: "map"
pose: 
  position: 
    x: 0.401161491871
    y: 3.22853803635
    z: -0.333557873964
  orientation: 
    x: 0.105372365926
    y: -0.0897306852607
    z: 0.980736344305
    w: 0.137845567033
---
header: 
  seq: 5000
  stamp: 
    secs: 1723866690
    nsecs:  78129790
  frame_id: "map"
pose: 
  position: 
    x: 0.402728229761
    y: 3.28109502792
    z: -0.339106976986
  orientation: 
    x: 0.105874587114
    y: -0.091181380445
    z: 0.980319511974
    w: 0.139464680366
---
header: 
  seq: 5001
  stamp: 
    secs: 1723866690
    nsecs: 111694937
  frame_id: "map"
pose: 
  position: 
    x: 0.407030075788
    y: 3.3502831459
    z: -0.3455119133
  orientation: 
    x: 0.106385450711
    y: -0.0960176453716
    z: 0.979279959955
    w: 0.143085811149
---
header: 
  seq: 5002
  stamp: 
    secs: 1723866690
    nsecs: 143693784
  frame_id: "map"
pose: 
  position: 
    x: 0.411068797112
    y: 3.40219855309
    z: -0.347810298204
  orientation: 
    x: 0.105489113025
    y: -0.102184509684
    z: 0.978079997031
    w: 0.147613857819
---
header: 
  seq: 5003
  stamp: 
    secs: 1723866690
    nsecs: 177388499
  frame_id: "map"
pose: 
  position: 
    x: 0.415289133787
    y: 3.4541554451
    z: -0.346986234188
  orientation: 
    x: 0.103320430142
    y: -0.107327369226
    z: 0.977038843432
    w: 0.152318499784
---
header: 
  seq: 5004
  stamp: 
    secs: 1723866690
    nsecs: 211688748
  frame_id: "map"
pose: 
  position: 
    x: 0.419727325439
    y: 3.50398373604
    z: -0.343663394451
  orientation: 
    x: 0.0968322000613
    y: -0.116614065754
    z: 0.974979548414
    w: 0.162602583702
---
header: 
  seq: 5005
  stamp: 
    secs: 1723866690
    nsecs: 243267084
  frame_id: "map"
pose: 
  position: 
    x: 0.42685085535
    y: 3.5689599514
    z: -0.335181921721
  orientation: 
    x: 0.0925610779459
    y: -0.121788036585
    z: 0.973703974044
    w: 0.168821814815
---
header: 
  seq: 5006
  stamp: 
    secs: 1723866690
    nsecs: 279645953
  frame_id: "map"
pose: 
  position: 
    x: 0.4332690835
    y: 3.61628055573
    z: -0.327119201422
  orientation: 
    x: 0.0840248475435
    y: -0.13160723813
    z: 0.971041641917
    w: 0.18082431004
---
header: 
  seq: 5007
  stamp: 
    secs: 1723866690
    nsecs: 312135294
  frame_id: "map"
pose: 
  position: 
    x: 0.443538188934
    y: 3.67701268196
    z: -0.316014677286
  orientation: 
    x: 0.0724720486552
    y: -0.144675047634
    z: 0.966901135519
    w: 0.197279535517
---
header: 
  seq: 5008
  stamp: 
    secs: 1723866690
    nsecs: 344771452
  frame_id: "map"
pose: 
  position: 
    x: 0.451860964298
    y: 3.7213716507
    z: -0.308831185102
  orientation: 
    x: 0.0636849523079
    y: -0.155837645731
    z: 0.962654208329
    w: 0.212027350014
---
header: 
  seq: 5009
  stamp: 
    secs: 1723866690
    nsecs: 378104983
  frame_id: "map"
pose: 
  position: 
    x: 0.46048566699
    y: 3.76491141319
    z: -0.303575396538
  orientation: 
    x: 0.0603091161827
    y: -0.160901821387
    z: 0.960382240313
    w: 0.219407263188
---
header: 
  seq: 5010
  stamp: 
    secs: 1723866690
    nsecs: 411080596
  frame_id: "map"
pose: 
  position: 
    x: 0.469440072775
    y: 3.80805039406
    z: -0.299888789654
  orientation: 
    x: 0.0557023286632
    y: -0.16959179559
    z: 0.955668199601
    w: 0.234167005243
---
header: 
  seq: 5011
  stamp: 
    secs: 1723866690
    nsecs: 443641937
  frame_id: "map"
pose: 
  position: 
    x: 0.481378912926
    y: 3.86518597603
    z: -0.299406498671
  orientation: 
    x: 0.0537956157733
    y: -0.17522005413
    z: 0.951549440977
    w: 0.246896112136
---
header: 
  seq: 5012
  stamp: 
    secs: 1723866690
    nsecs: 479091624
  frame_id: "map"
pose: 
  position: 
    x: 0.490225076675
    y: 3.90794372559
    z: -0.302808701992
  orientation: 
    x: 0.0536853490809
    y: -0.177909560438
    z: 0.948722630774
    w: 0.255717890072
---
header: 
  seq: 5013
  stamp: 
    secs: 1723866690
    nsecs: 512526948
  frame_id: "map"
pose: 
  position: 
    x: 0.502648711205
    y: 3.96433401108
    z: -0.309961766005
  orientation: 
    x: 0.0553948674033
    y: -0.179940912095
    z: 0.944601785881
    w: 0.268849899763
---
header: 
  seq: 5014
  stamp: 
    secs: 1723866690
    nsecs: 544701410
  frame_id: "map"
pose: 
  position: 
    x: 0.511457800865
    y: 4.00733041763
    z: -0.31696626544
  orientation: 
    x: 0.0581119324812
    y: -0.180347834649
    z: 0.941469706055
    w: 0.27880547007
---
header: 
  seq: 5015
  stamp: 
    secs: 1723866690
    nsecs: 578236253
  frame_id: "map"
pose: 
  position: 
    x: 0.519763767719
    y: 4.05094528198
    z: -0.324094027281
  orientation: 
    x: 0.0602173361517
    y: -0.180345095104
    z: 0.939663755743
    w: 0.284396881728
---
header: 
  seq: 5016
  stamp: 
    secs: 1723866690
    nsecs: 611055546
  frame_id: "map"
pose: 
  position: 
    x: 0.528540611267
    y: 4.09487199783
    z: -0.330727636814
  orientation: 
    x: 0.0637243016593
    y: -0.179270318857
    z: 0.938180418483
    w: 0.289169527633
---
header: 
  seq: 5017
  stamp: 
    secs: 1723866690
    nsecs: 644109302
  frame_id: "map"
pose: 
  position: 
    x: 0.539091646671
    y: 4.15384149551
    z: -0.336992383003
  orientation: 
    x: 0.0655474320803
    y: -0.177857256199
    z: 0.938287829726
    w: 0.289286084743
---
header: 
  seq: 5018
  stamp: 
    secs: 1723866690
    nsecs: 676764339
  frame_id: "map"
pose: 
  position: 
    x: 0.545866549015
    y: 4.19767093658
    z: -0.33906981349
  orientation: 
    x: 0.0685540512758
    y: -0.175102464423
    z: 0.93949400931
    w: 0.286339914665
---
header: 
  seq: 5019
  stamp: 
    secs: 1723866690
    nsecs: 711707659
  frame_id: "map"
pose: 
  position: 
    x: 0.551898598671
    y: 4.24048185349
    z: -0.340040951967
  orientation: 
    x: 0.0737558047823
    y: -0.171493208514
    z: 0.942225736223
    w: 0.278138116871
---
header: 
  seq: 5020
  stamp: 
    secs: 1723866690
    nsecs: 743286730
  frame_id: "map"
pose: 
  position: 
    x: 0.557463467121
    y: 4.29650640488
    z: -0.337718725204
  orientation: 
    x: 0.0755393435075
    y: -0.170242890643
    z: 0.943234436749
    w: 0.274990716665
---
header: 
  seq: 5021
  stamp: 
    secs: 1723866690
    nsecs: 779110337
  frame_id: "map"
pose: 
  position: 
    x: 0.55893009901
    y: 4.33785295486
    z: -0.333225011826
  orientation: 
    x: 0.079599431084
    y: -0.16550525033
    z: 0.945903975986
    w: 0.267465270423
---
header: 
  seq: 5022
  stamp: 
    secs: 1723866690
    nsecs: 812090269
  frame_id: "map"
pose: 
  position: 
    x: 0.55767083168
    y: 4.37718105316
    z: -0.327204853296
  orientation: 
    x: 0.0827725619413
    y: -0.157462135421
    z: 0.948443913665
    w: 0.26231391401
---
header: 
  seq: 5023
  stamp: 
    secs: 1723866690
    nsecs: 844945658
  frame_id: "map"
pose: 
  position: 
    x: 0.553807854652
    y: 4.42793798447
    z: -0.319383561611
  orientation: 
    x: 0.0839668929926
    y: -0.149906411936
    z: 0.95026680701
    w: 0.259751427768
---
header: 
  seq: 5024
  stamp: 
    secs: 1723866690
    nsecs: 878167190
  frame_id: "map"
pose: 
  position: 
    x: 0.549995243549
    y: 4.46515321732
    z: -0.315407693386
  orientation: 
    x: 0.08424614484
    y: -0.144324391123
    z: 0.951548640187
    w: 0.258124664782
---
header: 
  seq: 5025
  stamp: 
    secs: 1723866690
    nsecs: 911465714
  frame_id: "map"
pose: 
  position: 
    x: 0.545592486858
    y: 4.50058603287
    z: -0.313254356384
  orientation: 
    x: 0.0845571121908
    y: -0.136235791862
    z: 0.953419939188
    w: 0.255500370186
---
header: 
  seq: 5026
  stamp: 
    secs: 1723866690
    nsecs: 944225070
  frame_id: "map"
pose: 
  position: 
    x: 0.539355754852
    y: 4.5481762886
    z: -0.315828323364
  orientation: 
    x: 0.0847964378017
    y: -0.130462016059
    z: 0.95481183886
    w: 0.253226505562
---
header: 
  seq: 5027
  stamp: 
    secs: 1723866690
    nsecs: 977891017
  frame_id: "map"
pose: 
  position: 
    x: 0.534388959408
    y: 4.5843091011
    z: -0.321050971746
  orientation: 
    x: 0.0848314947601
    y: -0.122717331131
    z: 0.956817670601
    w: 0.249487511117
---
header: 
  seq: 5028
  stamp: 
    secs: 1723866691
    nsecs:  11592484
  frame_id: "map"
pose: 
  position: 
    x: 0.528781592846
    y: 4.62110280991
    z: -0.327982634306
  orientation: 
    x: 0.0841751313515
    y: -0.113061646188
    z: 0.959539303343
    w: 0.243753811699
---
header: 
  seq: 5029
  stamp: 
    secs: 1723866691
    nsecs:  43212099
  frame_id: "map"
pose: 
  position: 
    x: 0.52307754755
    y: 4.65898227692
    z: -0.337336927652
  orientation: 
    x: 0.0838861554359
    y: -0.110177807347
    z: 0.960420973267
    w: 0.241693463009
---
header: 
  seq: 5030
  stamp: 
    secs: 1723866691
    nsecs:  76003776
  frame_id: "map"
pose: 
  position: 
    x: 0.514882028103
    y: 4.71193504333
    z: -0.351425379515
  orientation: 
    x: 0.0831209971819
    y: -0.103724221976
    z: 0.962592842518
    w: 0.236108373379
---
header: 
  seq: 5031
  stamp: 
    secs: 1723866691
    nsecs: 112329973
  frame_id: "map"
pose: 
  position: 
    x: 0.507805466652
    y: 4.75312280655
    z: -0.361612260342
  orientation: 
    x: 0.0819810118576
    y: -0.0996538452998
    z: 0.964340588032
    w: 0.231074606674
---
header: 
  seq: 5032
  stamp: 
    secs: 1723866691
    nsecs: 144706611
  frame_id: "map"
pose: 
  position: 
    x: 0.497508257627
    y: 4.8102183342
    z: -0.372795760632
  orientation: 
    x: 0.0790020383605
    y: -0.0980316473449
    z: 0.965526094587
    w: 0.22783342973
---
header: 
  seq: 5033
  stamp: 
    secs: 1723866691
    nsecs: 178264526
  frame_id: "map"
pose: 
  position: 
    x: 0.489865869284
    y: 4.85441207886
    z: -0.37834662199
  orientation: 
    x: 0.0764648007143
    y: -0.0981133990601
    z: 0.965905964132
    w: 0.227051985011
---
header: 
  seq: 5034
  stamp: 
    secs: 1723866691
    nsecs: 211102442
  frame_id: "map"
pose: 
  position: 
    x: 0.48329898715
    y: 4.89827775955
    z: -0.383813560009
  orientation: 
    x: 0.0698112351321
    y: -0.100062406971
    z: 0.966195765863
    w: 0.227112170711
---
header: 
  seq: 5035
  stamp: 
    secs: 1723866691
    nsecs: 243848999
  frame_id: "map"
pose: 
  position: 
    x: 0.476124644279
    y: 4.95584106445
    z: -0.385787338018
  orientation: 
    x: 0.0619948636826
    y: -0.102686181317
    z: 0.966099038845
    w: 0.228614916595
---
header: 
  seq: 5036
  stamp: 
    secs: 1723866691
    nsecs: 277331394
  frame_id: "map"
pose: 
  position: 
    x: 0.472455859184
    y: 4.99760961533
    z: -0.382626146078
  orientation: 
    x: 0.0577665390577
    y: -0.103685551584
    z: 0.965985748117
    w: 0.229747486708
---
header: 
  seq: 5037
  stamp: 
    secs: 1723866691
    nsecs: 311823259
  frame_id: "map"
pose: 
  position: 
    x: 0.469110250473
    y: 5.03808927536
    z: -0.377502143383
  orientation: 
    x: 0.0491310264852
    y: -0.104828871777
    z: 0.965617890423
    w: 0.232764442418
---
header: 
  seq: 5038
  stamp: 
    secs: 1723866691
    nsecs: 346091349
  frame_id: "map"
pose: 
  position: 
    x: 0.467541247606
    y: 5.07699632645
    z: -0.370156913996
  orientation: 
    x: 0.0452306096101
    y: -0.105030112442
    z: 0.965339636929
    w: 0.234610811558
---
header: 
  seq: 5039
  stamp: 
    secs: 1723866691
    nsecs: 379401968
  frame_id: "map"
pose: 
  position: 
    x: 0.467627972364
    y: 5.12722158432
    z: -0.359844267368
  orientation: 
    x: 0.0389698691195
    y: -0.106123575548
    z: 0.964289421758
    w: 0.239509876935
---
header: 
  seq: 5040
  stamp: 
    secs: 1723866691
    nsecs: 412193581
  frame_id: "map"
pose: 
  position: 
    x: 0.468157947063
    y: 5.1651930809
    z: -0.353930264711
  orientation: 
    x: 0.036833895813
    y: -0.108024738225
    z: 0.962981478608
    w: 0.244214350312
---
header: 
  seq: 5041
  stamp: 
    secs: 1723866691
    nsecs: 445350761
  frame_id: "map"
pose: 
  position: 
    x: 0.469074130058
    y: 5.21607923508
    z: -0.349467694759
  orientation: 
    x: 0.0366909310686
    y: -0.111472163407
    z: 0.960777788487
    w: 0.251264506544
---
header: 
  seq: 5042
  stamp: 
    secs: 1723866691
    nsecs: 478318565
  frame_id: "map"
pose: 
  position: 
    x: 0.470004498959
    y: 5.25489473343
    z: -0.348539292812
  orientation: 
    x: 0.0373506425175
    y: -0.113624710962
    z: 0.9593763847
    w: 0.255521696492
---
header: 
  seq: 5043
  stamp: 
    secs: 1723866691
    nsecs: 511210529
  frame_id: "map"
pose: 
  position: 
    x: 0.471572488546
    y: 5.29432201385
    z: -0.349115729332
  orientation: 
    x: 0.0400671623205
    y: -0.118603036122
    z: 0.956076476123
    w: 0.265038855281
---
header: 
  seq: 5044
  stamp: 
    secs: 1723866691
    nsecs: 543687199
  frame_id: "map"
pose: 
  position: 
    x: 0.472703039646
    y: 5.33440923691
    z: -0.351958364248
  orientation: 
    x: 0.044675074634
    y: -0.123866547932
    z: 0.952420258088
    w: 0.274876330118
---
header: 
  seq: 5045
  stamp: 
    secs: 1723866691
    nsecs: 577119162
  frame_id: "map"
pose: 
  position: 
    x: 0.473282366991
    y: 5.38912153244
    z: -0.357225298882
  orientation: 
    x: 0.0476826315969
    y: -0.126793867832
    z: 0.950503166536
    w: 0.279631000392
---
header: 
  seq: 5046
  stamp: 
    secs: 1723866691
    nsecs: 613379215
  frame_id: "map"
pose: 
  position: 
    x: 0.474582284689
    y: 5.43106889725
    z: -0.35969927907
  orientation: 
    x: 0.0549278592484
    y: -0.132438273883
    z: 0.946789944889
    w: 0.288152587399
---
header: 
  seq: 5047
  stamp: 
    secs: 1723866691
    nsecs: 643205170
  frame_id: "map"
pose: 
  position: 
    x: 0.47587376833
    y: 5.4730257988
    z: -0.360877305269
  orientation: 
    x: 0.0590790050912
    y: -0.13525419176
    z: 0.945091131866
    w: 0.291579926973
---
header: 
  seq: 5048
  stamp: 
    secs: 1723866691
    nsecs: 679174056
  frame_id: "map"
pose: 
  position: 
    x: 0.478334903717
    y: 5.52813005447
    z: -0.360073059797
  orientation: 
    x: 0.0687960953584
    y: -0.140903926754
    z: 0.942267208722
    w: 0.295881012864
---
header: 
  seq: 5049
  stamp: 
    secs: 1723866691
    nsecs: 712210916
  frame_id: "map"
pose: 
  position: 
    x: 0.481524378061
    y: 5.56933403015
    z: -0.359266191721
  orientation: 
    x: 0.0814103389189
    y: -0.146745387761
    z: 0.940392917295
    w: 0.295803062267
---
header: 
  seq: 5050
  stamp: 
    secs: 1723866691
    nsecs: 745130785
  frame_id: "map"
pose: 
  position: 
    x: 0.486837208271
    y: 5.62219762802
    z: -0.356107413769
  orientation: 
    x: 0.0965951898929
    y: -0.152553776663
    z: 0.939488087678
    w: 0.2911335497
---
header: 
  seq: 5051
  stamp: 
    secs: 1723866691
    nsecs: 778135197
  frame_id: "map"
pose: 
  position: 
    x: 0.491275250912
    y: 5.66002035141
    z: -0.351759314537
  orientation: 
    x: 0.104348592634
    y: -0.154965034745
    z: 0.939383268466
    w: 0.287500280625
---
header: 
  seq: 5052
  stamp: 
    secs: 1723866691
    nsecs: 811164665
  frame_id: "map"
pose: 
  position: 
    x: 0.495831727982
    y: 5.69636392593
    z: -0.345178633928
  orientation: 
    x: 0.116989546759
    y: -0.157695815988
    z: 0.939915962484
    w: 0.279291296793
---
header: 
  seq: 5053
  stamp: 
    secs: 1723866691
    nsecs: 843783446
  frame_id: "map"
pose: 
  position: 
    x: 0.499520838261
    y: 5.73168945312
    z: -0.337407320738
  orientation: 
    x: 0.124332094118
    y: -0.156845927422
    z: 0.94136967051
    w: 0.27159555621
---
header: 
  seq: 5054
  stamp: 
    secs: 1723866691
    nsecs: 876699730
  frame_id: "map"
pose: 
  position: 
    x: 0.50199007988
    y: 5.7772898674
    z: -0.325202077627
  orientation: 
    x: 0.12628645402
    y: -0.155018050212
    z: 0.942317279178
    w: 0.26843877833
---
header: 
  seq: 5055
  stamp: 
    secs: 1723866691
    nsecs: 911695050
  frame_id: "map"
pose: 
  position: 
    x: 0.50223582983
    y: 5.80996322632
    z: -0.314724028111
  orientation: 
    x: 0.12764338893
    y: -0.149428096572
    z: 0.94430490348
    w: 0.263944343772
---
header: 
  seq: 5056
  stamp: 
    secs: 1723866691
    nsecs: 943315881
  frame_id: "map"
pose: 
  position: 
    x: 0.501292705536
    y: 5.8427157402
    z: -0.306422412395
  orientation: 
    x: 0.127433103815
    y: -0.146238353271
    z: 0.94530993723
    w: 0.262229219918
---
header: 
  seq: 5057
  stamp: 
    secs: 1723866691
    nsecs: 979270143
  frame_id: "map"
pose: 
  position: 
    x: 0.499386429787
    y: 5.88685941696
    z: -0.300382941961
  orientation: 
    x: 0.125508178218
    y: -0.140379050976
    z: 0.947296655375
    w: 0.259172983345
---
header: 
  seq: 5058
  stamp: 
    secs: 1723866692
    nsecs:  11275325
  frame_id: "map"
pose: 
  position: 
    x: 0.497954964638
    y: 5.92022562027
    z: -0.299260884523
  orientation: 
    x: 0.121489820632
    y: -0.135484424847
    z: 0.949436282287
    w: 0.255841527852
---
header: 
  seq: 5059
  stamp: 
    secs: 1723866692
    nsecs:  44193146
  frame_id: "map"
pose: 
  position: 
    x: 0.49658870697
    y: 5.95453453064
    z: -0.301694124937
  orientation: 
    x: 0.118802471716
    y: -0.133331945781
    z: 0.950618290653
    w: 0.253837571645
---
header: 
  seq: 5060
  stamp: 
    secs: 1723866692
    nsecs:  76665303
  frame_id: "map"
pose: 
  position: 
    x: 0.494777202606
    y: 6.00169420242
    z: -0.309531539679
  orientation: 
    x: 0.112747930731
    y: -0.129126679434
    z: 0.95333170476
    w: 0.248541482955
---
header: 
  seq: 5061
  stamp: 
    secs: 1723866692
    nsecs: 111713647
  frame_id: "map"
pose: 
  position: 
    x: 0.491799890995
    y: 6.03929281235
    z: -0.317998319864
  orientation: 
    x: 0.106747591251
    y: -0.125862846583
    z: 0.956199629214
    w: 0.241755587464
---
header: 
  seq: 5062
  stamp: 
    secs: 1723866692
    nsecs: 143343245
  frame_id: "map"
pose: 
  position: 
    x: 0.48807913065
    y: 6.07831001282
    z: -0.327565789223
  orientation: 
    x: 0.103870348392
    y: -0.124586264639
    z: 0.957588831488
    w: 0.23814448763
---
header: 
  seq: 5063
  stamp: 
    secs: 1723866692
    nsecs: 176826504
  frame_id: "map"
pose: 
  position: 
    x: 0.481487244368
    y: 6.1332321167
    z: -0.340891629457
  orientation: 
    x: 0.0977298805194
    y: -0.12292090436
    z: 0.960169103701
    w: 0.231116458494
---
header: 
  seq: 5064
  stamp: 
    secs: 1723866692
    nsecs: 212157728
  frame_id: "map"
pose: 
  position: 
    x: 0.475464642048
    y: 6.17629241943
    z: -0.350960731506
  orientation: 
    x: 0.0902989209261
    y: -0.122101576211
    z: 0.962400526448
    w: 0.22521674264
---
header: 
  seq: 5065
  stamp: 
    secs: 1723866692
    nsecs: 245108092
  frame_id: "map"
pose: 
  position: 
    x: 0.469400852919
    y: 6.22003221512
    z: -0.358694016933
  orientation: 
    x: 0.0803420216763
    y: -0.122021898911
    z: 0.964307502756
    w: 0.22083245887
---
header: 
  seq: 5066
  stamp: 
    secs: 1723866692
    nsecs: 278874774
  frame_id: "map"
pose: 
  position: 
    x: 0.462049633265
    y: 6.27856016159
    z: -0.365078270435
  orientation: 
    x: 0.0747449965852
    y: -0.122138253189
    z: 0.96513821714
    w: 0.219097188823
---
header: 
  seq: 5067
  stamp: 
    secs: 1723866692
    nsecs: 311070708
  frame_id: "map"
pose: 
  position: 
    x: 0.457150757313
    y: 6.32144927979
    z: -0.36880338192
  orientation: 
    x: 0.062489177727
    y: -0.122340263034
    z: 0.966537576804
    w: 0.216640701905
---
header: 
  seq: 5068
  stamp: 
    secs: 1723866692
    nsecs: 344221647
  frame_id: "map"
pose: 
  position: 
    x: 0.453673779964
    y: 6.36262273788
    z: -0.369159132242
  orientation: 
    x: 0.0558883516816
    y: -0.121992022064
    z: 0.967106643553
    w: 0.216099957838
---
header: 
  seq: 5069
  stamp: 
    secs: 1723866692
    nsecs: 376807916
  frame_id: "map"
pose: 
  position: 
    x: 0.450751066208
    y: 6.41494941711
    z: -0.36530828476
  orientation: 
    x: 0.0423857026039
    y: -0.120913326159
    z: 0.967754356321
    w: 0.216875291264
---
header: 
  seq: 5070
  stamp: 
    secs: 1723866692
    nsecs: 411513669
  frame_id: "map"
pose: 
  position: 
    x: 0.44908067584
    y: 6.45348501205
    z: -0.361279547215
  orientation: 
    x: 0.0307841687878
    y: -0.120068558435
    z: 0.967630950348
    w: 0.219832567036
---
header: 
  seq: 5071
  stamp: 
    secs: 1723866692
    nsecs: 443192099
  frame_id: "map"
pose: 
  position: 
    x: 0.448699444532
    y: 6.49087142944
    z: -0.356807947159
  orientation: 
    x: 0.0264191039813
    y: -0.120136362178
    z: 0.967290488106
    w: 0.221852159723
---
header: 
  seq: 5072
  stamp: 
    secs: 1723866692
    nsecs: 479172537
  frame_id: "map"
pose: 
  position: 
    x: 0.449430346489
    y: 6.54003810883
    z: -0.351646721363
  orientation: 
    x: 0.0215327142687
    y: -0.120852774309
    z: 0.966391158652
    w: 0.225874064889
---
header: 
  seq: 5073
  stamp: 
    secs: 1723866692
    nsecs: 512365621
  frame_id: "map"
pose: 
  position: 
    x: 0.450308024883
    y: 6.57741260529
    z: -0.349389463663
  orientation: 
    x: 0.0201092466071
    y: -0.121899501829
    z: 0.964786164514
    w: 0.232215353276
---
header: 
  seq: 5074
  stamp: 
    secs: 1723866692
    nsecs: 544810738
  frame_id: "map"
pose: 
  position: 
    x: 0.451113909483
    y: 6.61488056183
    z: -0.349106162786
  orientation: 
    x: 0.0225223749553
    y: -0.121920322372
    z: 0.962971531952
    w: 0.239403540436
---
header: 
  seq: 5075
  stamp: 
    secs: 1723866692
    nsecs: 578227917
  frame_id: "map"
pose: 
  position: 
    x: 0.451899111271
    y: 6.66558265686
    z: -0.352099835873
  orientation: 
    x: 0.0246605319955
    y: -0.121515285889
    z: 0.961937711905
    w: 0.24351922234
---
header: 
  seq: 5076
  stamp: 
    secs: 1723866692
    nsecs: 611140137
  frame_id: "map"
pose: 
  position: 
    x: 0.45397529006
    y: 6.70477771759
    z: -0.355337679386
  orientation: 
    x: 0.0302403901483
    y: -0.120065808354
    z: 0.959682349747
    w: 0.252348481341
---
header: 
  seq: 5077
  stamp: 
    secs: 1723866692
    nsecs: 644280165
  frame_id: "map"
pose: 
  position: 
    x: 0.455759972334
    y: 6.74462795258
    z: -0.359969109297
  orientation: 
    x: 0.0335357521346
    y: -0.118993344915
    z: 0.958516757578
    w: 0.256829766082
---
header: 
  seq: 5078
  stamp: 
    secs: 1723866692
    nsecs: 676845602
  frame_id: "map"
pose: 
  position: 
    x: 0.457271635532
    y: 6.78490924835
    z: -0.365105092525
  orientation: 
    x: 0.0396745617924
    y: -0.116599008793
    z: 0.956583418417
    w: 0.264156890329
---
header: 
  seq: 5079
  stamp: 
    secs: 1723866692
    nsecs: 711574490
  frame_id: "map"
pose: 
  position: 
    x: 0.4605730474
    y: 6.84034729004
    z: -0.370772451162
  orientation: 
    x: 0.0473109806867
    y: -0.113058336343
    z: 0.954618384825
    w: 0.271446335293
---
header: 
  seq: 5080
  stamp: 
    secs: 1723866692
    nsecs: 743206585
  frame_id: "map"
pose: 
  position: 
    x: 0.463403344154
    y: 6.88175773621
    z: -0.374490469694
  orientation: 
    x: 0.049680963833
    y: -0.111892435975
    z: 0.954163662476
    w: 0.273100135481
---
header: 
  seq: 5081
  stamp: 
    secs: 1723866692
    nsecs: 776454453
  frame_id: "map"
pose: 
  position: 
    x: 0.467011928558
    y: 6.92270851135
    z: -0.377515286207
  orientation: 
    x: 0.0556225341423
    y: -0.109241027785
    z: 0.953532471273
    w: 0.27522442094
---
header: 
  seq: 5082
  stamp: 
    secs: 1723866692
    nsecs: 812248299
  frame_id: "map"
pose: 
  position: 
    x: 0.474411547184
    y: 6.97867393494
    z: -0.381449222565
  orientation: 
    x: 0.0622605416105
    y: -0.107363970471
    z: 0.953827330625
    w: 0.273514270415
---
header: 
  seq: 5083
  stamp: 
    secs: 1723866692
    nsecs: 845306279
  frame_id: "map"
pose: 
  position: 
    x: 0.480423510075
    y: 7.01918315887
    z: -0.382965564728
  orientation: 
    x: 0.0673261805527
    y: -0.105954623321
    z: 0.954787077586
    w: 0.269485642826
---
header: 
  seq: 5084
  stamp: 
    secs: 1723866692
    nsecs: 878373923
  frame_id: "map"
pose: 
  position: 
    x: 0.487623929977
    y: 7.07161951065
    z: -0.382501929998
  orientation: 
    x: 0.0703474958274
    y: -0.104706763138
    z: 0.955750048781
    w: 0.26576264311
---
header: 
  seq: 5085
  stamp: 
    secs: 1723866692
    nsecs: 913659130
  frame_id: "map"
pose: 
  position: 
    x: 0.491377174854
    y: 7.11074113846
    z: -0.379711419344
  orientation: 
    x: 0.0729821519627
    y: -0.10183974089
    z: 0.957225019891
    w: 0.260811315641
---
header: 
  seq: 5086
  stamp: 
    secs: 1723866692
    nsecs: 943671036
  frame_id: "map"
pose: 
  position: 
    x: 0.49326685071
    y: 7.1493229866
    z: -0.374965012074
  orientation: 
    x: 0.0735338845027
    y: -0.0966152715491
    z: 0.958677547805
    w: 0.257284994193
---
header: 
  seq: 5087
  stamp: 
    secs: 1723866692
    nsecs: 976680312
  frame_id: "map"
pose: 
  position: 
    x: 0.493625491858
    y: 7.18704032898
    z: -0.369142085314
  orientation: 
    x: 0.072888844767
    y: -0.0933303494689
    z: 0.959267793345
    w: 0.256480305488
---
header: 
  seq: 5088
  stamp: 
    secs: 1723866693
    nsecs:  12707502
  frame_id: "map"
pose: 
  position: 
    x: 0.493373841047
    y: 7.23507404327
    z: -0.35945084691
  orientation: 
    x: 0.0699798528191
    y: -0.0860214912714
    z: 0.960190282492
    w: 0.256394009815
---
header: 
  seq: 5089
  stamp: 
    secs: 1723866693
    nsecs:  45075307
  frame_id: "map"
pose: 
  position: 
    x: 0.492386490107
    y: 7.27009105682
    z: -0.353764861822
  orientation: 
    x: 0.0667431572703
    y: -0.0790403788218
    z: 0.960789779265
    w: 0.257256840098
---
header: 
  seq: 5090
  stamp: 
    secs: 1723866693
    nsecs:  78601542
  frame_id: "map"
pose: 
  position: 
    x: 0.490886211395
    y: 7.31620693207
    z: -0.350252091885
  orientation: 
    x: 0.0654341825105
    y: -0.0752315882074
    z: 0.961095069962
    w: 0.257594541722
---
header: 
  seq: 5091
  stamp: 
    secs: 1723866693
    nsecs: 111180610
  frame_id: "map"
pose: 
  position: 
    x: 0.489895671606
    y: 7.35175275803
    z: -0.350636869669
  orientation: 
    x: 0.0648162576863
    y: -0.0707680150206
    z: 0.961526801205
    w: 0.257404311921
---
header: 
  seq: 5092
  stamp: 
    secs: 1723866693
    nsecs: 143696607
  frame_id: "map"
pose: 
  position: 
    x: 0.489274531603
    y: 7.38751840591
    z: -0.354132890701
  orientation: 
    x: 0.065519782019
    y: -0.0670589357004
    z: 0.96198765592
    w: 0.256495604794
---
header: 
  seq: 5093
  stamp: 
    secs: 1723866693
    nsecs: 177533497
  frame_id: "map"
pose: 
  position: 
    x: 0.48885473609
    y: 7.42384147644
    z: -0.360279411077
  orientation: 
    x: 0.06611558693
    y: -0.0657473297878
    z: 0.962198305869
    w: 0.255891556161
---
header: 
  seq: 5094
  stamp: 
    secs: 1723866693
    nsecs: 211603827
  frame_id: "map"
pose: 
  position: 
    x: 0.487437278032
    y: 7.47538042068
    z: -0.370562911034
  orientation: 
    x: 0.0670884145398
    y: -0.0642929217501
    z: 0.962549094089
    w: 0.254686114147
---
header: 
  seq: 5095
  stamp: 
    secs: 1723866693
    nsecs: 243315090
  frame_id: "map"
pose: 
  position: 
    x: 0.485734760761
    y: 7.51575565338
    z: -0.379386126995
  orientation: 
    x: 0.0673995414231
    y: -0.0642670974211
    z: 0.962647464833
    w: 0.254238008853
---
header: 
  seq: 5096
  stamp: 
    secs: 1723866693
    nsecs: 276098798
  frame_id: "map"
pose: 
  position: 
    x: 0.483289897442
    y: 7.55769968033
    z: -0.387904703617
  orientation: 
    x: 0.0675462770756
    y: -0.0658038544121
    z: 0.962601314034
    w: 0.253980365168
---
header: 
  seq: 5097
  stamp: 
    secs: 1723866693
    nsecs: 312169891
  frame_id: "map"
pose: 
  position: 
    x: 0.480312943459
    y: 7.61490488052
    z: -0.39758810401
  orientation: 
    x: 0.0664091817738
    y: -0.0679179874194
    z: 0.962304389487
    w: 0.25484762087
---
header: 
  seq: 5098
  stamp: 
    secs: 1723866693
    nsecs: 344924064
  frame_id: "map"
pose: 
  position: 
    x: 0.477901756763
    y: 7.65839529037
    z: -0.402179777622
  orientation: 
    x: 0.0639209660985
    y: -0.0712429971617
    z: 0.961650080737
    w: 0.257036664961
---
header: 
  seq: 5099
  stamp: 
    secs: 1723866693
    nsecs: 378144731
  frame_id: "map"
pose: 
  position: 
    x: 0.475986987352
    y: 7.70177650452
    z: -0.404514163733
  orientation: 
    x: 0.0623203716962
    y: -0.0733382585883
    z: 0.961154981707
    w: 0.258686503346
---
header: 
  seq: 5100
  stamp: 
    secs: 1723866693
    nsecs: 411193527
  frame_id: "map"
pose: 
  position: 
    x: 0.475363433361
    y: 7.75940179825
    z: -0.406774580479
  orientation: 
    x: 0.0583628412315
    y: -0.0780822281728
    z: 0.959721188068
    w: 0.263499715593
---
header: 
  seq: 5101
  stamp: 
    secs: 1723866693
    nsecs: 443892819
  frame_id: "map"
pose: 
  position: 
    x: 0.475790023804
    y: 7.80132961273
    z: -0.405205488205
  orientation: 
    x: 0.0538448788538
    y: -0.0824463861636
    z: 0.957703049447
    w: 0.270385478042
---
header: 
  seq: 5102
  stamp: 
    secs: 1723866693
    nsecs: 477499150
  frame_id: "map"
pose: 
  position: 
    x: 0.476879447699
    y: 7.84214544296
    z: -0.401881694794
  orientation: 
    x: 0.0514989325821
    y: -0.0845207697536
    z: 0.956427411857
    w: 0.274682876083
---
header: 
  seq: 5103
  stamp: 
    secs: 1723866693
    nsecs: 511782727
  frame_id: "map"
pose: 
  position: 
    x: 0.479006648064
    y: 7.89695119858
    z: -0.396430909634
  orientation: 
    x: 0.0473300574041
    y: -0.0886809416074
    z: 0.953326520698
    w: 0.284717766759
---
header: 
  seq: 5104
  stamp: 
    secs: 1723866693
    nsecs: 544245028
  frame_id: "map"
pose: 
  position: 
    x: 0.481738448143
    y: 7.9367275238
    z: -0.391814261675
  orientation: 
    x: 0.0455314459122
    y: -0.0908675675233
    z: 0.951565182825
    w: 0.290161643374
---
header: 
  seq: 5105
  stamp: 
    secs: 1723866693
    nsecs: 576758689
  frame_id: "map"
pose: 
  position: 
    x: 0.485391139984
    y: 7.97549390793
    z: -0.387650072575
  orientation: 
    x: 0.0426988984694
    y: -0.0949592415287
    z: 0.947901125477
    w: 0.301069816751
---
header: 
  seq: 5106
  stamp: 
    secs: 1723866693
    nsecs: 611235097
  frame_id: "map"
pose: 
  position: 
    x: 0.492789983749
    y: 8.02719211578
    z: -0.383432120085
  orientation: 
    x: 0.041359800896
    y: -0.0984581227439
    z: 0.944160887699
    w: 0.311697945393
---
header: 
  seq: 5107
  stamp: 
    secs: 1723866693
    nsecs: 644308597
  frame_id: "map"
pose: 
  position: 
    x: 0.498538553715
    y: 8.06561470032
    z: -0.382240056992
  orientation: 
    x: 0.0414097422773
    y: -0.099914193627
    z: 0.942255576192
    w: 0.31694921091
---
header: 
  seq: 5108
  stamp: 
    secs: 1723866693
    nsecs: 677054450
  frame_id: "map"
pose: 
  position: 
    x: 0.50442057848
    y: 8.10399341583
    z: -0.38306748867
  orientation: 
    x: 0.0428132876504
    y: -0.102025210731
    z: 0.938443351597
    w: 0.32723392703
---
header: 
  seq: 5109
  stamp: 
    secs: 1723866693
    nsecs: 711714858
  frame_id: "map"
pose: 
  position: 
    x: 0.514517664909
    y: 8.15668773651
    z: -0.386765450239
  orientation: 
    x: 0.0456800003823
    y: -0.103100102882
    z: 0.934807258683
    w: 0.336777912288
---
header: 
  seq: 5110
  stamp: 
    secs: 1723866693
    nsecs: 743401704
  frame_id: "map"
pose: 
  position: 
    x: 0.521915793419
    y: 8.19661808014
    z: -0.391972362995
  orientation: 
    x: 0.0475972078375
    y: -0.103367524636
    z: 0.933113292547
    w: 0.341100408778
---
header: 
  seq: 5111
  stamp: 
    secs: 1723866693
    nsecs: 779143807
  frame_id: "map"
pose: 
  position: 
    x: 0.529283940792
    y: 8.23710727692
    z: -0.398472487926
  orientation: 
    x: 0.0521715712596
    y: -0.10362396977
    z: 0.930156733271
    w: 0.348351479036
---
header: 
  seq: 5112
  stamp: 
    secs: 1723866693
    nsecs: 812147162
  frame_id: "map"
pose: 
  position: 
    x: 0.540382325649
    y: 8.29318714142
    z: -0.406933277845
  orientation: 
    x: 0.0573460847311
    y: -0.103691333604
    z: 0.927976898266
    w: 0.353296568772
---
header: 
  seq: 5113
  stamp: 
    secs: 1723866693
    nsecs: 844896311
  frame_id: "map"
pose: 
  position: 
    x: 0.548429131508
    y: 8.33556747437
    z: -0.412506788969
  orientation: 
    x: 0.0623841293413
    y: -0.10358988614
    z: 0.926828396644
    w: 0.355480534168
---
header: 
  seq: 5114
  stamp: 
    secs: 1723866693
    nsecs: 878247570
  frame_id: "map"
pose: 
  position: 
    x: 0.556046009064
    y: 8.37788963318
    z: -0.416708171368
  orientation: 
    x: 0.0647440762692
    y: -0.103628284553
    z: 0.926646870168
    w: 0.355520615821
---
header: 
  seq: 5115
  stamp: 
    secs: 1723866693
    nsecs: 912224236
  frame_id: "map"
pose: 
  position: 
    x: 0.565953373909
    y: 8.43465423584
    z: -0.419218599796
  orientation: 
    x: 0.0690755447691
    y: -0.104092442528
    z: 0.926785132904
    w: 0.354207298948
---
header: 
  seq: 5116
  stamp: 
    secs: 1723866693
    nsecs: 944747881
  frame_id: "map"
pose: 
  position: 
    x: 0.571731448174
    y: 8.47609519958
    z: -0.418331623077
  orientation: 
    x: 0.0734236770793
    y: -0.104390968656
    z: 0.927382838436
    w: 0.351671175559
---
header: 
  seq: 5117
  stamp: 
    secs: 1723866693
    nsecs: 978472547
  frame_id: "map"
pose: 
  position: 
    x: 0.576034128666
    y: 8.51638317108
    z: -0.414709568024
  orientation: 
    x: 0.0753558611537
    y: -0.104500883685
    z: 0.927889022087
    w: 0.349889881154
---
header: 
  seq: 5118
  stamp: 
    secs: 1723866694
    nsecs:  12258013
  frame_id: "map"
pose: 
  position: 
    x: 0.580164670944
    y: 8.569231987
    z: -0.406227886677
  orientation: 
    x: 0.0778565350917
    y: -0.103998813304
    z: 0.929429004711
    w: 0.345375679724
---
header: 
  seq: 5119
  stamp: 
    secs: 1723866694
    nsecs:  44949753
  frame_id: "map"
pose: 
  position: 
    x: 0.581542015076
    y: 8.60780906677
    z: -0.397810399532
  orientation: 
    x: 0.0790134555466
    y: -0.102405167204
    z: 0.931232405139
    w: 0.340699802983
---
header: 
  seq: 5120
  stamp: 
    secs: 1723866694
    nsecs:  78483380
  frame_id: "map"
pose: 
  position: 
    x: 0.581479549408
    y: 8.64520549774
    z: -0.388781398535
  orientation: 
    x: 0.0796011051042
    y: -0.101156549695
    z: 0.932124569628
    w: 0.338489032191
---
header: 
  seq: 5121
  stamp: 
    secs: 1723866694
    nsecs: 111358544
  frame_id: "map"
pose: 
  position: 
    x: 0.580022096634
    y: 8.69394397736
    z: -0.377412229776
  orientation: 
    x: 0.0812750580719
    y: -0.0981611033658
    z: 0.933843465624
    w: 0.334208282155
---
header: 
  seq: 5122
  stamp: 
    secs: 1723866694
    nsecs: 144390923
  frame_id: "map"
pose: 
  position: 
    x: 0.57791030407
    y: 8.72985649109
    z: -0.370821326971
  orientation: 
    x: 0.0825371843047
    y: -0.0965182435769
    z: 0.934700374275
    w: 0.33197435167
---
header: 
  seq: 5123
  stamp: 
    secs: 1723866694
    nsecs: 176756904
  frame_id: "map"
pose: 
  position: 
    x: 0.575186491013
    y: 8.76535224915
    z: -0.366575837135
  orientation: 
    x: 0.0852852859267
    y: -0.0934505845495
    z: 0.936399566619
    w: 0.32733651246
---
header: 
  seq: 5124
  stamp: 
    secs: 1723866694
    nsecs: 211532128
  frame_id: "map"
pose: 
  position: 
    x: 0.572029948235
    y: 8.8007440567
    z: -0.364683240652
  orientation: 
    x: 0.0869879851854
    y: -0.0902138242987
    z: 0.938130348027
    w: 0.322809624828
---
header: 
  seq: 5125
  stamp: 
    secs: 1723866694
    nsecs: 243219903
  frame_id: "map"
pose: 
  position: 
    x: 0.567522168159
    y: 8.84805011749
    z: -0.367605537176
  orientation: 
    x: 0.0872349436153
    y: -0.0885341048272
    z: 0.939021479918
    w: 0.32060983329
---
header: 
  seq: 5126
  stamp: 
    secs: 1723866694
    nsecs: 276504186
  frame_id: "map"
pose: 
  position: 
    x: 0.563937008381
    y: 8.88385677338
    z: -0.373460024595
  orientation: 
    x: 0.0865228118178
    y: -0.08505854683
    z: 0.940846944221
    w: 0.316363622597
---
header: 
  seq: 5127
  stamp: 
    secs: 1723866694
    nsecs: 311656305
  frame_id: "map"
pose: 
  position: 
    x: 0.560064435005
    y: 8.92050647736
    z: -0.380593061447
  orientation: 
    x: 0.0845635935859
    y: -0.0817366068929
    z: 0.942680585012
    w: 0.31228448201
---
header: 
  seq: 5128
  stamp: 
    secs: 1723866694
    nsecs: 343227120
  frame_id: "map"
pose: 
  position: 
    x: 0.554484844208
    y: 8.97127723694
    z: -0.391916453838
  orientation: 
    x: 0.0833341896065
    y: -0.0803602082061
    z: 0.943576142323
    w: 0.310261075034
---
header: 
  seq: 5129
  stamp: 
    secs: 1723866694
    nsecs: 379208005
  frame_id: "map"
pose: 
  position: 
    x: 0.550036072731
    y: 9.01105594635
    z: -0.400287747383
  orientation: 
    x: 0.0809254453537
    y: -0.0788158730965
    z: 0.945146091356
    w: 0.306493252144
---
header: 
  seq: 5130
  stamp: 
    secs: 1723866694
    nsecs: 412234369
  frame_id: "map"
pose: 
  position: 
    x: 0.544289827347
    y: 9.06604003906
    z: -0.411509364843
  orientation: 
    x: 0.0782851173393
    y: -0.0788932091061
    z: 0.946227326608
    w: 0.303811279586
---
header: 
  seq: 5131
  stamp: 
    secs: 1723866694
    nsecs: 444788349
  frame_id: "map"
pose: 
  position: 
    x: 0.540128827095
    y: 9.10793495178
    z: -0.417214900255
  orientation: 
    x: 0.074963269516
    y: -0.0802767760499
    z: 0.946828087787
    w: 0.302411582747
---
header: 
  seq: 5132
  stamp: 
    secs: 1723866694
    nsecs: 478194424
  frame_id: "map"
pose: 
  position: 
    x: 0.53638702631
    y: 9.14980792999
    z: -0.420333534479
  orientation: 
    x: 0.0732739000213
    y: -0.08155794278
    z: 0.946917354812
    w: 0.302203293021
---
header: 
  seq: 5133
  stamp: 
    secs: 1723866694
    nsecs: 512255890
  frame_id: "map"
pose: 
  position: 
    x: 0.532613515854
    y: 9.20536231995
    z: -0.423205018044
  orientation: 
    x: 0.0702822584328
    y: -0.0852111213028
    z: 0.946628691047
    w: 0.302809744024
---
header: 
  seq: 5134
  stamp: 
    secs: 1723866694
    nsecs: 544750350
  frame_id: "map"
pose: 
  position: 
    x: 0.530326485634
    y: 9.24657058716
    z: -0.42172062397
  orientation: 
    x: 0.0674735022275
    y: -0.0898921037392
    z: 0.945628567405
    w: 0.305210407442
---
header: 
  seq: 5135
  stamp: 
    secs: 1723866694
    nsecs: 578330441
  frame_id: "map"
pose: 
  position: 
    x: 0.528602838516
    y: 9.28709697723
    z: -0.417366415262
  orientation: 
    x: 0.0656038206123
    y: -0.0922568633104
    z: 0.944855404542
    w: 0.307299984971
---
header: 
  seq: 5136
  stamp: 
    secs: 1723866694
    nsecs: 611175685
  frame_id: "map"
pose: 
  position: 
    x: 0.527663052082
    y: 9.32799816132
    z: -0.411764711142
  orientation: 
    x: 0.0607680295085
    y: -0.0969047216167
    z: 0.942826876723
    w: 0.313040470032
---
header: 
  seq: 5137
  stamp: 
    secs: 1723866694
    nsecs: 643812161
  frame_id: "map"
pose: 
  position: 
    x: 0.527635455132
    y: 9.38087654114
    z: -0.403719395399
  orientation: 
    x: 0.0560013026015
    y: -0.100713766758
    z: 0.940772618254
    w: 0.318853468746
---
header: 
  seq: 5138
  stamp: 
    secs: 1723866694
    nsecs: 677789531
  frame_id: "map"
pose: 
  position: 
    x: 0.528470814228
    y: 9.41933441162
    z: -0.398255437613
  orientation: 
    x: 0.0527998385253
    y: -0.103244484814
    z: 0.939257312609
    w: 0.323030347874
---
header: 
  seq: 5139
  stamp: 
    secs: 1723866694
    nsecs: 711547093
  frame_id: "map"
pose: 
  position: 
    x: 0.530896008015
    y: 9.45759010315
    z: -0.39333614707
  orientation: 
    x: 0.0488314440518
    y: -0.106612413137
    z: 0.936842382483
    w: 0.32950831849
---
header: 
  seq: 5140
  stamp: 
    secs: 1723866694
    nsecs: 743299379
  frame_id: "map"
pose: 
  position: 
    x: 0.534283399582
    y: 9.50769329071
    z: -0.389927178621
  orientation: 
    x: 0.0474476207696
    y: -0.107991684559
    z: 0.935659678694
    w: 0.332607270894
---
header: 
  seq: 5141
  stamp: 
    secs: 1723866694
    nsecs: 775935824
  frame_id: "map"
pose: 
  position: 
    x: 0.536871373653
    y: 9.54475593567
    z: -0.39001840353
  orientation: 
    x: 0.0460085614082
    y: -0.110088793203
    z: 0.933414136752
    w: 0.338381178406
---
header: 
  seq: 5142
  stamp: 
    secs: 1723866694
    nsecs: 812246212
  frame_id: "map"
pose: 
  position: 
    x: 0.540608882904
    y: 9.58268547058
    z: -0.391209036112
  orientation: 
    x: 0.0464207707576
    y: -0.111463694524
    z: 0.931426828551
    w: 0.343314972786
---
header: 
  seq: 5143
  stamp: 
    secs: 1723866694
    nsecs: 844856225
  frame_id: "map"
pose: 
  position: 
    x: 0.545539438725
    y: 9.63335609436
    z: -0.396243155003
  orientation: 
    x: 0.0480960632048
    y: -0.112639162227
    z: 0.930019840307
    w: 0.346500136568
---
header: 
  seq: 5144
  stamp: 
    secs: 1723866694
    nsecs: 878171932
  frame_id: "map"
pose: 
  position: 
    x: 0.549234986305
    y: 9.67207241058
    z: -0.402132540941
  orientation: 
    x: 0.0498315466202
    y: -0.11375713636
    z: 0.929299108124
    w: 0.347821039874
---
header: 
  seq: 5145
  stamp: 
    secs: 1723866694
    nsecs: 911166968
  frame_id: "map"
pose: 
  position: 
    x: 0.553498506546
    y: 9.71212768555
    z: -0.408435851336
  orientation: 
    x: 0.0529421657985
    y: -0.115663045825
    z: 0.928781881999
    w: 0.348113960471
---
header: 
  seq: 5146
  stamp: 
    secs: 1723866694
    nsecs: 944333939
  frame_id: "map"
pose: 
  position: 
    x: 0.558266401291
    y: 9.76582431793
    z: -0.416047692299
  orientation: 
    x: 0.0555918644074
    y: -0.117047411748
    z: 0.928797434186
    w: 0.347195538495
---
header: 
  seq: 5147
  stamp: 
    secs: 1723866694
    nsecs: 977911021
  frame_id: "map"
pose: 
  position: 
    x: 0.560753762722
    y: 9.80596446991
    z: -0.420210957527
  orientation: 
    x: 0.0590787179658
    y: -0.118869470059
    z: 0.929421755453
    w: 0.344318468176
---
header: 
  seq: 5148
  stamp: 
    secs: 1723866695
    nsecs:  11522152
  frame_id: "map"
pose: 
  position: 
    x: 0.563011586666
    y: 9.84591197968
    z: -0.423012882471
  orientation: 
    x: 0.0624270163938
    y: -0.120833571151
    z: 0.931131463436
    w: 0.338373170504
---
header: 
  seq: 5149
  stamp: 
    secs: 1723866695
    nsecs:  43361638
  frame_id: "map"
pose: 
  position: 
    x: 0.564275145531
    y: 9.89795398712
    z: -0.423564702272
  orientation: 
    x: 0.0636191637115
    y: -0.121578830166
    z: 0.93181219826
    w: 0.33600200988
---
header: 
  seq: 5150
  stamp: 
    secs: 1723866695
    nsecs:  78904668
  frame_id: "map"
pose: 
  position: 
    x: 0.564152956009
    y: 9.93615627289
    z: -0.421862751245
  orientation: 
    x: 0.0686390957136
    y: -0.12475036998
    z: 0.934084398084
    w: 0.327432902302
---
header: 
  seq: 5151
  stamp: 
    secs: 1723866695
    nsecs: 111346840
  frame_id: "map"
pose: 
  position: 
    x: 0.563737273216
    y: 9.97452068329
    z: -0.41900652647
  orientation: 
    x: 0.0742394240639
    y: -0.128320942984
    z: 0.936106856756
    w: 0.318945369949
---
header: 
  seq: 5152
  stamp: 
    secs: 1723866695
    nsecs: 143798517
  frame_id: "map"
pose: 
  position: 
    x: 0.561021924019
    y: 10.0249452591
    z: -0.412497729063
  orientation: 
    x: 0.0815769454111
    y: -0.131557623386
    z: 0.938649491833
    w: 0.308180221902
---
header: 
  seq: 5153
  stamp: 
    secs: 1723866695
    nsecs: 177382031
  frame_id: "map"
pose: 
  position: 
    x: 0.557190597057
    y: 10.0614538193
    z: -0.405411362648
  orientation: 
    x: 0.084729105577
    y: -0.131534824575
    z: 0.940031086601
    w: 0.30308616413
---
header: 
  seq: 5154
  stamp: 
    secs: 1723866695
    nsecs: 211518889
  frame_id: "map"
pose: 
  position: 
    x: 0.552684664726
    y: 10.096373558
    z: -0.395878493786
  orientation: 
    x: 0.0887123410095
    y: -0.127374551306
    z: 0.942900928736
    w: 0.294692724617
---
header: 
  seq: 5155
  stamp: 
    secs: 1723866695
    nsecs: 243280839
  frame_id: "map"
pose: 
  position: 
    x: 0.547606468201
    y: 10.1305685043
    z: -0.387052416801
  orientation: 
    x: 0.0898866931376
    y: -0.123982748111
    z: 0.944337967683
    w: 0.291160818711
---
header: 
  seq: 5156
  stamp: 
    secs: 1723866695
    nsecs: 279330428
  frame_id: "map"
pose: 
  position: 
    x: 0.54067581892
    y: 10.1761837006
    z: -0.379579722881
  orientation: 
    x: 0.0918770806927
    y: -0.116823492127
    z: 0.947024829276
    w: 0.284701139828
---
header: 
  seq: 5157
  stamp: 
    secs: 1723866695
    nsecs: 312388023
  frame_id: "map"
pose: 
  position: 
    x: 0.536263585091
    y: 10.2106542587
    z: -0.376417964697
  orientation: 
    x: 0.0937700425147
    y: -0.110460878094
    z: 0.949379847657
    w: 0.278717783552
---
header: 
  seq: 5158
  stamp: 
    secs: 1723866695
    nsecs: 344916020
  frame_id: "map"
pose: 
  position: 
    x: 0.530976235867
    y: 10.2576322556
    z: -0.379075169563
  orientation: 
    x: 0.0955348176605
    y: -0.105595106422
    z: 0.951304314906
    w: 0.273391475572
---
header: 
  seq: 5159
  stamp: 
    secs: 1723866695
    nsecs: 378875917
  frame_id: "map"
pose: 
  position: 
    x: 0.527426481247
    y: 10.2937822342
    z: -0.386193335056
  orientation: 
    x: 0.0960284682213
    y: -0.103700873939
    z: 0.952096085602
    w: 0.271178344556
---
header: 
  seq: 5160
  stamp: 
    secs: 1723866695
    nsecs: 411230826
  frame_id: "map"
pose: 
  position: 
    x: 0.52450710535
    y: 10.3317871094
    z: -0.395215690136
  orientation: 
    x: 0.0946089821198
    y: -0.10018127623
    z: 0.953451823279
    w: 0.268220773756
---
header: 
  seq: 5161
  stamp: 
    secs: 1723866695
    nsecs: 444294405
  frame_id: "map"
pose: 
  position: 
    x: 0.521132290363
    y: 10.3842039108
    z: -0.409805655479
  orientation: 
    x: 0.0923399268463
    y: -0.0982665613662
    z: 0.954061372075
    w: 0.267551545022
---
header: 
  seq: 5162
  stamp: 
    secs: 1723866695
    nsecs: 477407937
  frame_id: "map"
pose: 
  position: 
    x: 0.51866298914
    y: 10.4251976013
    z: -0.421021848917
  orientation: 
    x: 0.0847457792654
    y: -0.0956260211358
    z: 0.954918280726
    w: 0.267964436623
---
header: 
  seq: 5163
  stamp: 
    secs: 1723866695
    nsecs: 511544058
  frame_id: "map"
pose: 
  position: 
    x: 0.517461895943
    y: 10.4677934647
    z: -0.432325303555
  orientation: 
    x: 0.0732033926243
    y: -0.0942452146459
    z: 0.955180918812
    w: 0.270903441737
---
header: 
  seq: 5164
  stamp: 
    secs: 1723866695
    nsecs: 543388024
  frame_id: "map"
pose: 
  position: 
    x: 0.517048835754
    y: 10.5112304688
    z: -0.442001849413
  orientation: 
    x: 0.0691433327066
    y: -0.0945510334958
    z: 0.955035470038
    w: 0.272372132967
---
header: 
  seq: 5165
  stamp: 
    secs: 1723866695
    nsecs: 579400109
  frame_id: "map"
pose: 
  position: 
    x: 0.51797068119
    y: 10.569934845
    z: -0.451629698277
  orientation: 
    x: 0.0571570442617
    y: -0.0980287793836
    z: 0.953833736946
    w: 0.278073295018
---
header: 
  seq: 5166
  stamp: 
    secs: 1723866695
    nsecs: 612382120
  frame_id: "map"
pose: 
  position: 
    x: 0.520671665668
    y: 10.6140975952
    z: -0.45834171772
  orientation: 
    x: 0.0475926902222
    y: -0.101272117671
    z: 0.952299254486
    w: 0.283910549243
---
header: 
  seq: 5167
  stamp: 
    secs: 1723866695
    nsecs: 644781381
  frame_id: "map"
pose: 
  position: 
    x: 0.526536107063
    y: 10.6697092056
    z: -0.459806442261
  orientation: 
    x: 0.0355817261146
    y: -0.103283710359
    z: 0.950166328923
    w: 0.291976570964
---
header: 
  seq: 5168
  stamp: 
    secs: 1723866695
    nsecs: 678206048
  frame_id: "map"
pose: 
  position: 
    x: 0.532807707787
    y: 10.7087459564
    z: -0.456410437822
  orientation: 
    x: 0.0295530698795
    y: -0.103621614815
    z: 0.948908814478
    w: 0.296582989699
---
header: 
  seq: 5169
  stamp: 
    secs: 1723866695
    nsecs: 711250875
  frame_id: "map"
pose: 
  position: 
    x: 0.540785372257
    y: 10.7477273941
    z: -0.452737003565
  orientation: 
    x: 0.0201587296415
    y: -0.104093003608
    z: 0.945875168615
    w: 0.306722341339
---
header: 
  seq: 5170
  stamp: 
    secs: 1723866695
    nsecs: 744463094
  frame_id: "map"
pose: 
  position: 
    x: 0.54995650053
    y: 10.785528183
    z: -0.448520869017
  orientation: 
    x: 0.0172590738791
    y: -0.104684834923
    z: 0.944127760276
    w: 0.312035457356
---
header: 
  seq: 5171
  stamp: 
    secs: 1723866695
    nsecs: 777291250
  frame_id: "map"
pose: 
  position: 
    x: 0.56396073103
    y: 10.8353776932
    z: -0.442676246166
  orientation: 
    x: 0.0143859100452
    y: -0.106245145499
    z: 0.9404062357
    w: 0.322708936007
---
header: 
  seq: 5172
  stamp: 
    secs: 1723866695
    nsecs: 811503851
  frame_id: "map"
pose: 
  position: 
    x: 0.575928509235
    y: 10.8734645844
    z: -0.439320117235
  orientation: 
    x: 0.0141051172037
    y: -0.107541782757
    z: 0.936422346991
    w: 0.333690044505
---
header: 
  seq: 5173
  stamp: 
    secs: 1723866695
    nsecs: 843400681
  frame_id: "map"
pose: 
  position: 
    x: 0.588011205196
    y: 10.9115438461
    z: -0.43760228157
  orientation: 
    x: 0.0146560028556
    y: -0.107888382634
    z: 0.93430518435
    w: 0.339439506845
---
header: 
  seq: 5174
  stamp: 
    secs: 1723866695
    nsecs: 879427582
  frame_id: "map"
pose: 
  position: 
    x: 0.604160785675
    y: 10.962310791
    z: -0.438608467579
  orientation: 
    x: 0.0166288441508
    y: -0.108234903485
    z: 0.929775072484
    w: 0.3514643399
---
header: 
  seq: 5175
  stamp: 
    secs: 1723866695
    nsecs: 912256762
  frame_id: "map"
pose: 
  position: 
    x: 0.618563115597
    y: 11.0008497238
    z: -0.439919829369
  orientation: 
    x: 0.0185401247054
    y: -0.108140794841
    z: 0.92507302255
    w: 0.363595614821
---
header: 
  seq: 5176
  stamp: 
    secs: 1723866695
    nsecs: 945156438
  frame_id: "map"
pose: 
  position: 
    x: 0.637891590595
    y: 11.0516653061
    z: -0.444724887609
  orientation: 
    x: 0.0191565908535
    y: -0.107330305676
    z: 0.920665789822
    w: 0.374817065723
---
header: 
  seq: 5177
  stamp: 
    secs: 1723866695
    nsecs: 978270097
  frame_id: "map"
pose: 
  position: 
    x: 0.653212070465
    y: 11.0898923874
    z: -0.449182152748
  orientation: 
    x: 0.0193170649792
    y: -0.106883559618
    z: 0.918759867185
    w: 0.379582736325
---
header: 
  seq: 5178
  stamp: 
    secs: 1723866696
    nsecs:  11238988
  frame_id: "map"
pose: 
  position: 
    x: 0.669975280762
    y: 11.128651619
    z: -0.453474938869
  orientation: 
    x: 0.0204781606063
    y: -0.106005300955
    z: 0.9158646105
    w: 0.386698241245
---
header: 
  seq: 5179
  stamp: 
    secs: 1723866696
    nsecs:  44449895
  frame_id: "map"
pose: 
