header: 
  seq: 14897
  stamp: 
    secs: 1723616329
    nsecs: 453487604
  frame_id: "map"
pose: 
  position: 
    x: 0.685924828053
    y: 0.140553385019
    z: -0.797461867332
  orientation: 
    x: 0.0555167539181
    y: -0.0555959732621
    z: -0.727083112439
    w: -0.682039026341
---
header: 
  seq: 14898
  stamp: 
    secs: 1723616329
    nsecs: 490105721
  frame_id: "map"
pose: 
  position: 
    x: 0.697783350945
    y: 0.143350571394
    z: -0.827031731606
  orientation: 
    x: 0.0546244838868
    y: -0.0537231992969
    z: -0.727623118935
    w: -0.681685140327
---
header: 
  seq: 14899
  stamp: 
    secs: 1723616329
    nsecs: 522943161
  frame_id: "map"
pose: 
  position: 
    x: 0.706838548183
    y: 0.146264329553
    z: -0.85048943758
  orientation: 
    x: 0.0530090089716
    y: -0.0506131484836
    z: -0.728992425262
    w: -0.680586838236
---
header: 
  seq: 14900
  stamp: 
    secs: 1723616329
    nsecs: 554608170
  frame_id: "map"
pose: 
  position: 
    x: 0.714838504791
    y: 0.1488904953
    z: -0.871719658375
  orientation: 
    x: 0.051434459593
    y: -0.0483975582161
    z: -0.730775539885
    w: -0.678954525038
---
header: 
  seq: 14901
  stamp: 
    secs: 1723616329
    nsecs: 588223210
  frame_id: "map"
pose: 
  position: 
    x: 0.72561943531
    y: 0.152765437961
    z: -0.899583339691
  orientation: 
    x: 0.0506332675945
    y: -0.0477759358292
    z: -0.731767884799
    w: -0.677989322694
---
header: 
  seq: 14902
  stamp: 
    secs: 1723616329
    nsecs: 621438074
  frame_id: "map"
pose: 
  position: 
    x: 0.732512056828
    y: 0.155161380768
    z: -0.917910277843
  orientation: 
    x: 0.0488656642059
    y: -0.0475996422708
    z: -0.734293950896
    w: -0.675395400171
---
header: 
  seq: 14903
  stamp: 
    secs: 1723616329
    nsecs: 653686738
  frame_id: "map"
pose: 
  position: 
    x: 0.739493191242
    y: 0.157761961222
    z: -0.937408983707
  orientation: 
    x: 0.0467071660018
    y: -0.0488973543143
    z: -0.737274913197
    w: -0.672200247585
---
header: 
  seq: 14904
  stamp: 
    secs: 1723616329
    nsecs: 686614991
  frame_id: "map"
pose: 
  position: 
    x: 0.747006237507
    y: 0.160479828715
    z: -0.959543406963
  orientation: 
    x: 0.0455285307003
    y: -0.050008596805
    z: -0.738921954085
    w: -0.670388496813
---
header: 
  seq: 14905
  stamp: 
    secs: 1723616329
    nsecs: 720965585
  frame_id: "map"
pose: 
  position: 
    x: 0.751792907715
    y: 0.161856144667
    z: -0.976693809032
  orientation: 
    x: 0.0425218007047
    y: -0.0526565306793
    z: -0.742253059233
    w: -0.666692990013
---
header: 
  seq: 14906
  stamp: 
    secs: 1723616329
    nsecs: 753434208
  frame_id: "map"
pose: 
  position: 
    x: 0.754128396511
    y: 0.161450117826
    z: -0.991978049278
  orientation: 
    x: 0.0389337268798
    y: -0.0553958407321
    z: -0.745147796985
    w: -0.663453238159
---
header: 
  seq: 14907
  stamp: 
    secs: 1723616329
    nsecs: 790128002
  frame_id: "map"
pose: 
  position: 
    x: 0.757183015347
    y: 0.161296099424
    z: -1.01169145107
  orientation: 
    x: 0.036789803624
    y: -0.0567540308279
    z: -0.746203333196
    w: -0.662273368745
---
header: 
  seq: 14908
  stamp: 
    secs: 1723616329
    nsecs: 822224065
  frame_id: "map"
pose: 
  position: 
    x: 0.758767962456
    y: 0.161189183593
    z: -1.02358043194
  orientation: 
    x: 0.0316449154357
    y: -0.0590238295981
    z: -0.747526362283
    w: -0.66084733276
---
header: 
  seq: 14909
  stamp: 
    secs: 1723616329
    nsecs: 854564149
  frame_id: "map"
pose: 
  position: 
    x: 0.760314464569
    y: 0.161275789142
    z: -1.03390014172
  orientation: 
    x: 0.0251862046123
    y: -0.0610795645248
    z: -0.748063170888
    w: -0.660330670349
---
header: 
  seq: 14910
  stamp: 
    secs: 1723616329
    nsecs: 888242675
  frame_id: "map"
pose: 
  position: 
    x: 0.762054204941
    y: 0.161645755172
    z: -1.04489457607
  orientation: 
    x: 0.0217667372793
    y: -0.062049377997
    z: -0.748052684225
    w: -0.660373694379
---
header: 
  seq: 14911
  stamp: 
    secs: 1723616329
    nsecs: 921758487
  frame_id: "map"
pose: 
  position: 
    x: 0.76310646534
    y: 0.162034839392
    z: -1.05126428604
  orientation: 
    x: 0.0156665710132
    y: -0.0640550622239
    z: -0.747717996101
    w: -0.660734007787
---
header: 
  seq: 14912
  stamp: 
    secs: 1723616329
    nsecs: 953675869
  frame_id: "map"
pose: 
  position: 
    x: 0.763827443123
    y: 0.162247806787
    z: -1.05634593964
  orientation: 
    x: 0.0104771638991
    y: -0.0661585455786
    z: -0.746727034131
    w: -0.661749162048
---
header: 
  seq: 14913
  stamp: 
    secs: 1723616329
    nsecs: 988248182
  frame_id: "map"
pose: 
  position: 
    x: 0.763985455036
    y: 0.161783054471
    z: -1.06127953529
  orientation: 
    x: 0.00823653469935
    y: -0.0673828298684
    z: -0.745957501165
    w: -0.662524932747
---
header: 
  seq: 14914
  stamp: 
    secs: 1723616330
    nsecs:  21895506
  frame_id: "map"
pose: 
  position: 
    x: 0.763190150261
    y: 0.160598471761
    z: -1.06280374527
  orientation: 
    x: 0.00497406305996
    y: -0.070523223161
    z: -0.743832111986
    w: -0.664616857329
---
header: 
  seq: 14915
  stamp: 
    secs: 1723616330
    nsecs:  53643514
  frame_id: "map"
pose: 
  position: 
    x: 0.762685656548
    y: 0.159135207534
    z: -1.06397628784
  orientation: 
    x: 0.00359240507207
    y: -0.074018224232
    z: -0.741280191432
    w: -0.6670923235
---
header: 
  seq: 14916
  stamp: 
    secs: 1723616330
    nsecs:  86576049
  frame_id: "map"
pose: 
  position: 
    x: 0.763120353222
    y: 0.157408192754
    z: -1.06523549557
  orientation: 
    x: 0.00324180124438
    y: -0.0746589775016
    z: -0.740106765217
    w: -0.668324502421
---
header: 
  seq: 14917
  stamp: 
    secs: 1723616330
    nsecs: 121995746
  frame_id: "map"
pose: 
  position: 
    x: 0.76357793808
    y: 0.154784142971
    z: -1.06462240219
  orientation: 
    x: 0.00138897836863
    y: -0.0717534580589
    z: -0.738916822706
    w: -0.669963730337
---
header: 
  seq: 14918
  stamp: 
    secs: 1723616330
    nsecs: 153523571
  frame_id: "map"
pose: 
  position: 
    x: 0.763811886311
    y: 0.153461307287
    z: -1.06278061867
  orientation: 
    x: -0.000170644687086
    y: -0.0660274451722
    z: -0.739332092971
    w: -0.670095947635
---
header: 
  seq: 14919
  stamp: 
    secs: 1723616330
    nsecs: 190064630
  frame_id: "map"
pose: 
  position: 
    x: 0.764310598373
    y: 0.151948660612
    z: -1.06056451797
  orientation: 
    x: -0.000223899864358
    y: -0.0636975805574
    z: -0.739767195961
    w: -0.669841233156
---
header: 
  seq: 14920
  stamp: 
    secs: 1723616330
    nsecs: 222070899
  frame_id: "map"
pose: 
  position: 
    x: 0.765719234943
    y: 0.151411652565
    z: -1.05926203728
  orientation: 
    x: 0.000808313334166
    y: -0.0593851835064
    z: -0.74084220665
    w: -0.669048353471
---
header: 
  seq: 14921
  stamp: 
    secs: 1723616330
    nsecs: 254661656
  frame_id: "map"
pose: 
  position: 
    x: 0.767396330833
    y: 0.151221945882
    z: -1.05797553062
  orientation: 
    x: 0.00215097495047
    y: -0.054090986156
    z: -0.742383174457
    w: -0.667785133396
---
header: 
  seq: 14922
  stamp: 
    secs: 1723616330
    nsecs: 288281875
  frame_id: "map"
pose: 
  position: 
    x: 0.769250810146
    y: 0.150914207101
    z: -1.05549526215
  orientation: 
    x: 0.0029991381299
    y: -0.0510861318598
    z: -0.743418553938
    w: -0.666865994924
---
header: 
  seq: 14923
  stamp: 
    secs: 1723616330
    nsecs: 321422658
  frame_id: "map"
pose: 
  position: 
    x: 0.769650816917
    y: 0.150489255786
    z: -1.0534774065
  orientation: 
    x: 0.00507614140996
    y: -0.0443024161508
    z: -0.745555728429
    w: -0.664949838505
---
header: 
  seq: 14924
  stamp: 
    secs: 1723616330
    nsecs: 353583801
  frame_id: "map"
pose: 
  position: 
    x: 0.770717978477
    y: 0.149940997362
    z: -1.05236685276
  orientation: 
    x: 0.00690568473735
    y: -0.0359228389988
    z: -0.747738748156
    w: -0.662984717986
---
header: 
  seq: 14925
  stamp: 
    secs: 1723616330
    nsecs: 388513694
  frame_id: "map"
pose: 
  position: 
    x: 0.770317554474
    y: 0.148314118385
    z: -1.05240654945
  orientation: 
    x: 0.00747939159054
    y: -0.0310024855119
    z: -0.748799149693
    w: -0.662029346395
---
header: 
  seq: 14926
  stamp: 
    secs: 1723616330
    nsecs: 421510291
  frame_id: "map"
pose: 
  position: 
    x: 0.76923841238
    y: 0.146692425013
    z: -1.05291652679
  orientation: 
    x: 0.00873514969794
    y: -0.020211803719
    z: -0.750736566562
    w: -0.660234638755
---
header: 
  seq: 14927
  stamp: 
    secs: 1723616330
    nsecs: 453552783
  frame_id: "map"
pose: 
  position: 
    x: 0.767673254013
    y: 0.145283803344
    z: -1.05312800407
  orientation: 
    x: 0.0100491955386
    y: -0.00869547177395
    z: -0.752148728332
    w: -0.658859481918
---
header: 
  seq: 14928
  stamp: 
    secs: 1723616330
    nsecs: 488604655
  frame_id: "map"
pose: 
  position: 
    x: 0.764583528042
    y: 0.143738672137
    z: -1.05280959606
  orientation: 
    x: 0.0107878892349
    y: -0.00286041408293
    z: -0.752577414465
    w: -0.658409216599
---
header: 
  seq: 14929
  stamp: 
    secs: 1723616330
    nsecs: 522402595
  frame_id: "map"
pose: 
  position: 
    x: 0.761252522469
    y: 0.142976775765
    z: -1.05192816257
  orientation: 
    x: 0.0128554023947
    y: 0.00860185452726
    z: -0.752996359407
    w: -0.65784284198
---
header: 
  seq: 14930
  stamp: 
    secs: 1723616330
    nsecs: 553589441
  frame_id: "map"
pose: 
  position: 
    x: 0.758235871792
    y: 0.142258018255
    z: -1.05119276047
  orientation: 
    x: 0.0150961209919
    y: 0.0192510422703
    z: -0.752953564551
    w: -0.657618847286
---
header: 
  seq: 14931
  stamp: 
    secs: 1723616330
    nsecs: 586752207
  frame_id: "map"
pose: 
  position: 
    x: 0.754865169525
    y: 0.14133310318
    z: -1.0498431921
  orientation: 
    x: 0.0159275136769
    y: 0.0241371672479
    z: -0.752779361089
    w: -0.657637528876
---
header: 
  seq: 14932
  stamp: 
    secs: 1723616330
    nsecs: 621096397
  frame_id: "map"
pose: 
  position: 
    x: 0.750311017036
    y: 0.139633908868
    z: -1.0467351675
  orientation: 
    x: 0.0167987157066
    y: 0.0324470002559
    z: -0.752452512279
    w: -0.657632344814
---
header: 
  seq: 14933
  stamp: 
    secs: 1723616330
    nsecs: 653702545
  frame_id: "map"
pose: 
  position: 
    x: 0.747143089771
    y: 0.138759478927
    z: -1.0438041687
  orientation: 
    x: 0.0170112102387
    y: 0.037411366248
    z: -0.75207726835
    w: -0.657792471228
---
header: 
  seq: 14934
  stamp: 
    secs: 1723616330
    nsecs: 690061916
  frame_id: "map"
pose: 
  position: 
    x: 0.743077099323
    y: 0.138421311975
    z: -1.04002165794
  orientation: 
    x: 0.0171381651075
    y: 0.038438681851
    z: -0.751773579233
    w: -0.658076941382
---
header: 
  seq: 14935
  stamp: 
    secs: 1723616330
    nsecs: 722019163
  frame_id: "map"
pose: 
  position: 
    x: 0.7399122715
    y: 0.138715669513
    z: -1.03744542599
  orientation: 
    x: 0.0172427235361
    y: 0.0382694543517
    z: -0.75139424706
    w: -0.658517217898
---
header: 
  seq: 14936
  stamp: 
    secs: 1723616330
    nsecs: 754285742
  frame_id: "map"
pose: 
  position: 
    x: 0.737287282944
    y: 0.139160200953
    z: -1.03512585163
  orientation: 
    x: 0.0159142364318
    y: 0.0366399860655
    z: -0.751700854846
    w: -0.658293386523
---
header: 
  seq: 14937
  stamp: 
    secs: 1723616330
    nsecs: 790215018
  frame_id: "map"
pose: 
  position: 
    x: 0.733901441097
    y: 0.139328375459
    z: -1.03281104565
  orientation: 
    x: 0.0146965184893
    y: 0.0356007666119
    z: -0.752040995719
    w: -0.657990081996
---
header: 
  seq: 14938
  stamp: 
    secs: 1723616330
    nsecs: 820857631
  frame_id: "map"
pose: 
  position: 
    x: 0.731640398502
    y: 0.139477491379
    z: -1.03127348423
  orientation: 
    x: 0.0117482818986
    y: 0.0330926195109
    z: -0.752678951491
    w: -0.657450581261
---
header: 
  seq: 14939
  stamp: 
    secs: 1723616330
    nsecs: 853782807
  frame_id: "map"
pose: 
  position: 
    x: 0.729317843914
    y: 0.139674678445
    z: -1.02977705002
  orientation: 
    x: 0.00837282641218
    y: 0.0304347272912
    z: -0.753140433141
    w: -0.657102053166
---
header: 
  seq: 14940
  stamp: 
    secs: 1723616330
    nsecs: 890108386
  frame_id: "map"
pose: 
  position: 
    x: 0.72621101141
    y: 0.140404120088
    z: -1.02692353725
  orientation: 
    x: 0.00667975787299
    y: 0.029244888172
    z: -0.753342558889
    w: -0.65694376014
---
header: 
  seq: 14941
  stamp: 
    secs: 1723616330
    nsecs: 921986501
  frame_id: "map"
pose: 
  position: 
    x: 0.723684191704
    y: 0.141257613897
    z: -1.02428805828
  orientation: 
    x: 0.00366930858263
    y: 0.0272160310809
    z: -0.753685623699
    w: -0.656661218204
---
header: 
  seq: 14942
  stamp: 
    secs: 1723616330
    nsecs: 954514445
  frame_id: "map"
pose: 
  position: 
    x: 0.721093714237
    y: 0.142177984118
    z: -1.02170014381
  orientation: 
    x: 0.00162607809911
    y: 0.0258024033913
    z: -0.754026918342
    w: -0.656334506371
---
header: 
  seq: 14943
  stamp: 
    secs: 1723616330
    nsecs: 990235857
  frame_id: "map"
pose: 
  position: 
    x: 0.717667400837
    y: 0.143504753709
    z: -1.01819574833
  orientation: 
    x: 0.000993988641103
    y: 0.0253317284606
    z: -0.754162857733
    w: -0.656197976924
---
header: 
  seq: 14944
  stamp: 
    secs: 1723616331
    nsecs:  21988566
  frame_id: "map"
pose: 
  position: 
    x: 0.715094029903
    y: 0.144474074244
    z: -1.01571846008
  orientation: 
    x: 0.000578460227456
    y: 0.0250011391176
    z: -0.754404227467
    w: -0.655933510717
---
header: 
  seq: 14945
  stamp: 
    secs: 1723616331
    nsecs:  54594262
  frame_id: "map"
pose: 
  position: 
    x: 0.712356686592
    y: 0.145581647754
    z: -1.01328015327
  orientation: 
    x: 0.00107338013281
    y: 0.0253462928309
    z: -0.754571097377
    w: -0.655727781413
---
header: 
  seq: 14946
  stamp: 
    secs: 1723616331
    nsecs:  88132655
  frame_id: "map"
pose: 
  position: 
    x: 0.709674715996
    y: 0.146478548646
    z: -1.01131749153
  orientation: 
    x: 0.00148647983431
    y: 0.0257190764376
    z: -0.754614250481
    w: -0.655662711947
---
header: 
  seq: 14947
  stamp: 
    secs: 1723616331
    nsecs: 121425330
  frame_id: "map"
pose: 
  position: 
    x: 0.70615696907
    y: 0.147345975041
    z: -1.0090982914
  orientation: 
    x: 0.00231987054334
    y: 0.0265363249037
    z: -0.75474958928
    w: -0.65547199219
---
header: 
  seq: 14948
  stamp: 
    secs: 1723616331
    nsecs: 154147693
  frame_id: "map"
pose: 
  position: 
    x: 0.703606069088
    y: 0.14803789556
    z: -1.00774085522
  orientation: 
    x: 0.00293904857772
    y: 0.0271422056074
    z: -0.754885539208
    w: -0.655288163441
---
header: 
  seq: 14949
  stamp: 
    secs: 1723616331
    nsecs: 186575573
  frame_id: "map"
pose: 
  position: 
    x: 0.700779557228
    y: 0.148726627231
    z: -1.00743460655
  orientation: 
    x: 0.00309863235125
    y: 0.0273163879955
    z: -0.754998392663
    w: -0.655150190464
---
header: 
  seq: 14950
  stamp: 
    secs: 1723616331
    nsecs: 220810609
  frame_id: "map"
pose: 
  position: 
    x: 0.697096884251
    y: 0.149550154805
    z: -1.00776648521
  orientation: 
    x: 0.0030952816768
    y: 0.0274050913066
    z: -0.755224089037
    w: -0.654886309046
---
header: 
  seq: 14951
  stamp: 
    secs: 1723616331
    nsecs: 253522637
  frame_id: "map"
pose: 
  position: 
    x: 0.694166779518
    y: 0.150350242853
    z: -1.00784730911
  orientation: 
    x: 0.0028114674331
    y: 0.0271941621349
    z: -0.755475921725
    w: -0.654605900794
---
header: 
  seq: 14952
  stamp: 
    secs: 1723616331
    nsecs: 286591449
  frame_id: "map"
pose: 
  position: 
    x: 0.691777050495
    y: 0.150480762124
    z: -1.00863194466
  orientation: 
    x: 0.00264127319046
    y: 0.0270520824744
    z: -0.755606492662
    w: -0.654461674279
---
header: 
  seq: 14953
  stamp: 
    secs: 1723616331
    nsecs: 320816918
  frame_id: "map"
pose: 
  position: 
    x: 0.688516795635
    y: 0.150448560715
    z: -1.0096861124
  orientation: 
    x: 0.00227796472212
    y: 0.0269484038612
    z: -0.755888275955
    w: -0.654141874529
---
header: 
  seq: 14954
  stamp: 
    secs: 1723616331
    nsecs: 353586447
  frame_id: "map"
pose: 
  position: 
    x: 0.686058282852
    y: 0.150467559695
    z: -1.01072072983
  orientation: 
    x: 0.00214011160026
    y: 0.0270129767844
    z: -0.756159132677
    w: -0.653826510735
---
header: 
  seq: 14955
  stamp: 
    secs: 1723616331
    nsecs: 388136319
  frame_id: "map"
pose: 
  position: 
    x: 0.683733046055
    y: 0.15097938478
    z: -1.01107978821
  orientation: 
    x: 0.00214661143456
    y: 0.027095962612
    z: -0.756247351299
    w: -0.653720927611
---
header: 
  seq: 14956
  stamp: 
    secs: 1723616331
    nsecs: 421407075
  frame_id: "map"
pose: 
  position: 
    x: 0.681038796902
    y: 0.15186676383
    z: -1.01155519485
  orientation: 
    x: 0.00224169209062
    y: 0.0273006909286
    z: -0.756514799394
    w: -0.65340273471
---
header: 
  seq: 14957
  stamp: 
    secs: 1723616331
    nsecs: 453735247
  frame_id: "map"
pose: 
  position: 
    x: 0.678613305092
    y: 0.152723029256
    z: -1.0117149353
  orientation: 
    x: 0.00233751558489
    y: 0.0274342648283
    z: -0.75678272691
    w: -0.653086338318
---
header: 
  seq: 14958
  stamp: 
    secs: 1723616331
    nsecs: 488194018
  frame_id: "map"
pose: 
  position: 
    x: 0.676606595516
    y: 0.153226613998
    z: -1.0120882988
  orientation: 
    x: 0.00236988041328
    y: 0.0274382990719
    z: -0.756861098975
    w: -0.652995322199
---
header: 
  seq: 14959
  stamp: 
    secs: 1723616331
    nsecs: 522319971
  frame_id: "map"
pose: 
  position: 
    x: 0.67418628931
    y: 0.153268739581
    z: -1.01259768009
  orientation: 
    x: 0.00226582116139
    y: 0.0274088134001
    z: -0.757119564524
    w: -0.652697322906
---
header: 
  seq: 14960
  stamp: 
    secs: 1723616331
    nsecs: 553663191
  frame_id: "map"
pose: 
  position: 
    x: 0.672372639179
    y: 0.153338015079
    z: -1.01298737526
  orientation: 
    x: 0.00208250739506
    y: 0.0273543135738
    z: -0.757418116993
    w: -0.652353589015
---
header: 
  seq: 14961
  stamp: 
    secs: 1723616331
    nsecs: 588127626
  frame_id: "map"
pose: 
  position: 
    x: 0.670635461807
    y: 0.153164356947
    z: -1.01360654831
  orientation: 
    x: 0.00200174086242
    y: 0.0273529306303
    z: -0.757513621752
    w: -0.652243079978
---
header: 
  seq: 14962
  stamp: 
    secs: 1723616331
    nsecs: 621547305
  frame_id: "map"
pose: 
  position: 
    x: 0.668754041195
    y: 0.152663767338
    z: -1.0150706768
  orientation: 
    x: 0.0018651192188
    y: 0.0273645605263
    z: -0.757775580221
    w: -0.651938637486
---
header: 
  seq: 14963
  stamp: 
    secs: 1723616331
    nsecs: 652539627
  frame_id: "map"
pose: 
  position: 
    x: 0.666773498058
    y: 0.152500912547
    z: -1.01617276669
  orientation: 
    x: 0.00175482091624
    y: 0.0274374455983
    z: -0.758063459001
    w: -0.651601194012
---
header: 
  seq: 14964
  stamp: 
    secs: 1723616331
    nsecs: 690162940
  frame_id: "map"
pose: 
  position: 
    x: 0.665241360664
    y: 0.152434572577
    z: -1.0172328949
  orientation: 
    x: 0.00172643764795
    y: 0.0274886961661
    z: -0.75818415177
    w: -0.651458584882
---
header: 
  seq: 14965
  stamp: 
    secs: 1723616331
    nsecs: 723515677
  frame_id: "map"
pose: 
  position: 
    x: 0.662736356258
    y: 0.152644470334
    z: -1.01840806007
  orientation: 
    x: 0.00166541559675
    y: 0.0275388970139
    z: -0.758443291668
    w: -0.651154853618
---
header: 
  seq: 14966
  stamp: 
    secs: 1723616331
    nsecs: 755274975
  frame_id: "map"
pose: 
  position: 
    x: 0.660849928856
    y: 0.152845054865
    z: -1.01921117306
  orientation: 
    x: 0.00163595231546
    y: 0.0275362233232
    z: -0.758633121074
    w: -0.650934004132
---
header: 
  seq: 14967
  stamp: 
    secs: 1723616331
    nsecs: 790100644
  frame_id: "map"
pose: 
  position: 
    x: 0.658896803856
    y: 0.152814686298
    z: -1.02021539211
  orientation: 
    x: 0.00158790622525
    y: 0.0275571558189
    z: -0.758773127636
    w: -0.650769889572
---
header: 
  seq: 14968
  stamp: 
    secs: 1723616331
    nsecs: 821943523
  frame_id: "map"
pose: 
  position: 
    x: 0.656709551811
    y: 0.152559742332
    z: -1.02142107487
  orientation: 
    x: 0.00150233758606
    y: 0.02754311565
    z: -0.758989762438
    w: -0.650517935712
---
header: 
  seq: 14969
  stamp: 
    secs: 1723616331
    nsecs: 854583489
  frame_id: "map"
pose: 
  position: 
    x: 0.65439927578
    y: 0.15258435905
    z: -1.02181100845
  orientation: 
    x: 0.00147090393961
    y: 0.0275371255292
    z: -0.759196787758
    w: -0.650276687151
---
header: 
  seq: 14970
  stamp: 
    secs: 1723616331
    nsecs: 888116475
  frame_id: "map"
pose: 
  position: 
    x: 0.653176367283
    y: 0.152692079544
    z: -1.02281832695
  orientation: 
    x: 0.00146371526776
    y: 0.0275488844999
    z: -0.759326173314
    w: -0.650125216646
---
header: 
  seq: 14971
  stamp: 
    secs: 1723616331
    nsecs: 921393567
  frame_id: "map"
pose: 
  position: 
    x: 0.651354134083
    y: 0.153111964464
    z: -1.02436363697
  orientation: 
    x: 0.00140585027893
    y: 0.0275137182232
    z: -0.759513568739
    w: -0.649907896958
---
header: 
  seq: 14972
  stamp: 
    secs: 1723616331
    nsecs: 953527346
  frame_id: "map"
pose: 
  position: 
    x: 0.649924755096
    y: 0.15348097682
    z: -1.02533590794
  orientation: 
    x: 0.00135707847267
    y: 0.0274767449003
    z: -0.7597710333
    w: -0.649608454136
---
header: 
  seq: 14973
  stamp: 
    secs: 1723616331
    nsecs: 988115104
  frame_id: "map"
pose: 
  position: 
    x: 0.648563563824
    y: 0.153706565499
    z: -1.02629458904
  orientation: 
    x: 0.0013416184818
    y: 0.0274621752616
    z: -0.759844732333
    w: -0.649522869692
---
header: 
  seq: 14974
  stamp: 
    secs: 1723616332
    nsecs:  21461854
  frame_id: "map"
pose: 
  position: 
    x: 0.647277474403
    y: 0.153832942247
    z: -1.02773964405
  orientation: 
    x: 0.00121939657238
    y: 0.0274048041812
    z: -0.76008612314
    w: -0.64924304096
---
header: 
  seq: 14975
  stamp: 
    secs: 1723616332
    nsecs:  53522480
  frame_id: "map"
pose: 
  position: 
    x: 0.645860493183
    y: 0.154060170054
    z: -1.0286976099
  orientation: 
    x: 0.00109286383062
    y: 0.0273545177226
    z: -0.760317799098
    w: -0.648974107188
---
header: 
  seq: 14976
  stamp: 
    secs: 1723616332
    nsecs:  86561945
  frame_id: "map"
pose: 
  position: 
    x: 0.643780589104
    y: 0.154464185238
    z: -1.02959167957
  orientation: 
    x: 0.0010742441432
    y: 0.0273313593464
    z: -0.760401961086
    w: -0.648876542502
---
header: 
  seq: 14977
  stamp: 
    secs: 1723616332
    nsecs: 120916428
  frame_id: "map"
pose: 
  position: 
    x: 0.643216192722
    y: 0.154712364078
    z: -1.03053212166
  orientation: 
    x: 0.00100613351892
    y: 0.0272457920243
    z: -0.760644410832
    w: -0.648595992004
---
header: 
  seq: 14978
  stamp: 
    secs: 1723616332
    nsecs: 153521735
  frame_id: "map"
pose: 
  position: 
    x: 0.641483545303
    y: 0.155282974243
    z: -1.03200078011
  orientation: 
    x: 0.000938894807565
    y: 0.0271777340836
    z: -0.760871719322
    w: -0.648332437224
---
header: 
  seq: 14979
  stamp: 
    secs: 1723616332
    nsecs: 186553648
  frame_id: "map"
pose: 
  position: 
    x: 0.641101241112
    y: 0.155219197273
    z: -1.03319895267
  orientation: 
    x: 0.00094388130658
    y: 0.0271322049505
    z: -0.760954790761
    w: -0.648236637437
---
header: 
  seq: 14980
  stamp: 
    secs: 1723616332
    nsecs: 220837766
  frame_id: "map"
pose: 
  position: 
    x: 0.640387117863
    y: 0.155096635222
    z: -1.03430235386
  orientation: 
    x: 0.000786325850134
    y: 0.0270376853743
    z: -0.761227164769
    w: -0.647920936469
---
header: 
  seq: 14981
  stamp: 
    secs: 1723616332
    nsecs: 253500543
  frame_id: "map"
pose: 
  position: 
    x: 0.639458596706
    y: 0.15497609973
    z: -1.03590917587
  orientation: 
    x: 0.000699832614455
    y: 0.0269869642763
    z: -0.761433621107
    w: -0.647680594065
---
header: 
  seq: 14982
  stamp: 
    secs: 1723616332
    nsecs: 285978655
  frame_id: "map"
pose: 
  position: 
    x: 0.638646245003
    y: 0.15490745008
    z: -1.03782618046
  orientation: 
    x: 0.00065265843717
    y: 0.0269648911815
    z: -0.761571135737
    w: -0.647519814375
---
header: 
  seq: 14983
  stamp: 
    secs: 1723616332
    nsecs: 322009964
  frame_id: "map"
pose: 
  position: 
    x: 0.638080239296
    y: 0.154744759202
    z: -1.04031980038
  orientation: 
    x: 0.000519660105427
    y: 0.0269018829601
    z: -0.761786606231
    w: -0.647269024821
---
header: 
  seq: 14984
  stamp: 
    secs: 1723616332
    nsecs: 354728035
  frame_id: "map"
pose: 
  position: 
    x: 0.636773347855
    y: 0.154835358262
    z: -1.04202008247
  orientation: 
    x: 0.000410177080975
    y: 0.0268242076353
    z: -0.761986708931
    w: -0.647036721929
---
header: 
  seq: 14985
  stamp: 
    secs: 1723616332
    nsecs: 388285655
  frame_id: "map"
pose: 
  position: 
    x: 0.636188685894
    y: 0.154667109251
    z: -1.04336416721
  orientation: 
    x: 0.000382829044648
    y: 0.0268019699044
    z: -0.762083683562
    w: -0.646923562909
---
header: 
  seq: 14986
  stamp: 
    secs: 1723616332
    nsecs: 421907912
  frame_id: "map"
pose: 
  position: 
    x: 0.636004626751
    y: 0.153974026442
    z: -1.04454982281
  orientation: 
    x: 0.000262429986431
    y: 0.0267158941859
    z: -0.762282511319
    w: -0.64669278784
---
header: 
  seq: 14987
  stamp: 
    secs: 1723616332
    nsecs: 453661062
  frame_id: "map"
pose: 
  position: 
    x: 0.635750949383
    y: 0.153518393636
    z: -1.04538810253
  orientation: 
    x: 0.000120865307728
    y: 0.0266013561738
    z: -0.762507275194
    w: -0.646432704906
---
header: 
  seq: 14988
  stamp: 
    secs: 1723616332
    nsecs: 486529398
  frame_id: "map"
pose: 
  position: 
    x: 0.635076761246
    y: 0.153270676732
    z: -1.04637849331
  orientation: 
    x: 7.42640641653e-05
    y: 0.0265691454449
    z: -0.762581337744
    w: -0.646346588358
---
header: 
  seq: 14989
  stamp: 
    secs: 1723616332
    nsecs: 521715558
  frame_id: "map"
pose: 
  position: 
    x: 0.635283052921
    y: 0.153100341558
    z: -1.0469840765
  orientation: 
    x: -3.71577153183e-05
    y: 0.0264086146843
    z: -0.762801950154
    w: -0.646092848525
---
header: 
  seq: 14990
  stamp: 
    secs: 1723616332
    nsecs: 554516313
  frame_id: "map"
pose: 
  position: 
    x: 0.634473025799
    y: 0.153092473745
    z: -1.04775214195
  orientation: 
    x: -0.000114723721647
    y: 0.0263152804883
    z: -0.762973603731
    w: -0.645893799496
---
header: 
  seq: 14991
  stamp: 
    secs: 1723616332
    nsecs: 585777356
  frame_id: "map"
pose: 
  position: 
    x: 0.634500741959
    y: 0.152872428298
    z: -1.04872250557
  orientation: 
    x: -0.000150032243987
    y: 0.0262668168809
    z: -0.763047692622
    w: -0.645808162368
---
header: 
  seq: 14992
  stamp: 
    secs: 1723616332
    nsecs: 622001841
  frame_id: "map"
pose: 
  position: 
    x: 0.633945524693
    y: 0.152648568153
    z: -1.05029034615
  orientation: 
    x: -0.000272899527019
    y: 0.0261621096212
    z: -0.763246625747
    w: -0.645577450519
---
header: 
  seq: 14993
  stamp: 
    secs: 1723616332
    nsecs: 654600109
  frame_id: "map"
pose: 
  position: 
    x: 0.633393466473
    y: 0.152547463775
    z: -1.05149507523
  orientation: 
    x: -0.000375635104442
    y: 0.026024739871
    z: -0.763435469971
    w: -0.645359524971
---
header: 
  seq: 14994
  stamp: 
    secs: 1723616332
    nsecs: 688280283
  frame_id: "map"
pose: 
  position: 
    x: 0.633286595345
    y: 0.15215086937
    z: -1.05276715755
  orientation: 
    x: -0.00041682311215
    y: 0.0259976368132
    z: -0.7635269339
    w: -0.645252382413
---
header: 
  seq: 14995
  stamp: 
    secs: 1723616332
    nsecs: 721420768
  frame_id: "map"
pose: 
  position: 
    x: 0.633839726448
    y: 0.151571795344
    z: -1.05426037312
  orientation: 
    x: -0.000556485914314
    y: 0.0258707603112
    z: -0.763704672429
    w: -0.645046911258
---
header: 
  seq: 14996
  stamp: 
    secs: 1723616332
    nsecs: 753585134
  frame_id: "map"
pose: 
  position: 
    x: 0.63347440958
    y: 0.151039227843
    z: -1.05628120899
  orientation: 
    x: -0.000640938979106
    y: 0.0257139516443
    z: -0.763870852184
    w: -0.644856370625
---
header: 
  seq: 14997
  stamp: 
    secs: 1723616332
    nsecs: 786628599
  frame_id: "map"
pose: 
  position: 
    x: 0.633750379086
    y: 0.150614872575
    z: -1.05744588375
  orientation: 
    x: -0.000691268901673
    y: 0.0256652074969
    z: -0.763953818255
    w: -0.644759917562
---
header: 
  seq: 14998
  stamp: 
    secs: 1723616332
    nsecs: 820967594
  frame_id: "map"
pose: 
  position: 
    x: 0.633957326412
    y: 0.150242090225
    z: -1.05826246738
  orientation: 
    x: -0.000827790446534
    y: 0.0255463718233
    z: -0.76412439182
    w: -0.644562454308
---
header: 
  seq: 14999
  stamp: 
    secs: 1723616332
    nsecs: 853516935
  frame_id: "map"
pose: 
  position: 
    x: 0.633126199245
    y: 0.149973392487
    z: -1.05931699276
  orientation: 
    x: -0.000876570155329
    y: 0.0254122210387
    z: -0.764263276222
    w: -0.64440291795
---
header: 
  seq: 15000
  stamp: 
    secs: 1723616332
    nsecs: 890057728
  frame_id: "map"
pose: 
  position: 
    x: 0.632512807846
    y: 0.149833321571
    z: -1.06048822403
  orientation: 
    x: -0.000935374228625
    y: 0.0253795822558
    z: -0.764333503408
    w: -0.644320889646
---
header: 
  seq: 15001
  stamp: 
    secs: 1723616332
    nsecs: 922322537
  frame_id: "map"
pose: 
  position: 
    x: 0.632030546665
    y: 0.149683102965
    z: -1.06248617172
  orientation: 
    x: -0.000999860223936
    y: 0.025269856887
    z: -0.764497802361
    w: -0.644130038179
---
header: 
  seq: 15002
  stamp: 
    secs: 1723616332
    nsecs: 954557555
  frame_id: "map"
pose: 
  position: 
    x: 0.630777239799
    y: 0.149733379483
    z: -1.06396877766
  orientation: 
    x: -0.00103326423556
    y: 0.0251803633225
    z: -0.764639073329
    w: -0.64396592362
---
header: 
  seq: 15003
  stamp: 
    secs: 1723616332
    nsecs: 988243330
  frame_id: "map"
pose: 
  position: 
    x: 0.630312621593
    y: 0.149665161967
    z: -1.06539046764
  orientation: 
    x: -0.0010518575812
    y: 0.025150068958
    z: -0.764708436504
    w: -0.643884590739
---
header: 
  seq: 15004
  stamp: 
    secs: 1723616333
    nsecs:  21392803
  frame_id: "map"
pose: 
  position: 
    x: 0.630900084972
    y: 0.149380579591
    z: -1.06675815582
  orientation: 
    x: -0.00111899882796
    y: 0.0250324621285
    z: -0.764837595522
    w: -0.64373579129
---
header: 
  seq: 15005
  stamp: 
    secs: 1723616333
    nsecs:  54034840
  frame_id: "map"
pose: 
  position: 
    x: 0.630567133427
    y: 0.149201378226
    z: -1.068557024
  orientation: 
    x: -0.00117003471024
    y: 0.0248435507339
    z: -0.764985383446
    w: -0.643567267116
---
header: 
  seq: 15006
  stamp: 
    secs: 1723616333
    nsecs:  87118234
  frame_id: "map"
pose: 
  position: 
    x: 0.630736172199
    y: 0.148991212249
    z: -1.06975877285
  orientation: 
    x: -0.00121237253666
    y: 0.024765725261
    z: -0.765049989296
    w: -0.643493473253
---
header: 
  seq: 15007
  stamp: 
    secs: 1723616333
    nsecs: 120749574
  frame_id: "map"
pose: 
  position: 
    x: 0.631122410297
    y: 0.148659065366
    z: -1.07110202312
  orientation: 
    x: -0.00133669783724
    y: 0.0245579412979
    z: -0.765201312288
    w: -0.643321161131
---
header: 
  seq: 15008
  stamp: 
    secs: 1723616333
    nsecs: 153504374
  frame_id: "map"
pose: 
  position: 
    x: 0.631582379341
    y: 0.14828749001
    z: -1.07286429405
  orientation: 
    x: -0.00144549334122
    y: 0.0243845136017
    z: -0.765336914504
    w: -0.643166171364
---
header: 
  seq: 15009
  stamp: 
    secs: 1723616333
    nsecs: 190299327
  frame_id: "map"
pose: 
  position: 
    x: 0.631367862225
    y: 0.148031353951
    z: -1.07411420345
  orientation: 
    x: -0.00147978243666
    y: 0.0243051036707
    z: -0.765401446598
    w: -0.643092366964
---
header: 
  seq: 15010
  stamp: 
    secs: 1723616333
    nsecs: 221960188
  frame_id: "map"
pose: 
  position: 
    x: 0.632151246071
    y: 0.147508189082
    z: -1.07522153854
  orientation: 
    x: -0.00159026776586
    y: 0.0241268620142
    z: -0.765544308609
    w: -0.642928768703
---
header: 
  seq: 15011
  stamp: 
    secs: 1723616333
    nsecs: 254595441
  frame_id: "map"
pose: 
  position: 
    x: 0.632104873657
    y: 0.146994784474
    z: -1.07647931576
  orientation: 
    x: -0.00170512187931
    y: 0.0239830372108
    z: -0.765670849254
    w: -0.642783177683
---
header: 
  seq: 15012
  stamp: 
    secs: 1723616333
    nsecs: 288123777
  frame_id: "map"
pose: 
  position: 
    x: 0.63244754076
    y: 0.146508082747
    z: -1.07754516602
  orientation: 
    x: -0.00174196481036
    y: 0.0238964715352
    z: -0.76573921671
    w: -0.642704779277
---
header: 
  seq: 15013
  stamp: 
    secs: 1723616333
    nsecs: 321611699
  frame_id: "map"
pose: 
  position: 
    x: 0.632994711399
    y: 0.145812496543
    z: -1.07891452312
  orientation: 
    x: -0.00185624269737
    y: 0.0237033447971
    z: -0.765875472203
    w: -0.642549220527
---
header: 
  seq: 15014
  stamp: 
    secs: 1723616333
    nsecs: 353532870
  frame_id: "map"
pose: 
  position: 
    x: 0.633618831635
    y: 0.144967913628
    z: -1.08090627193
  orientation: 
    x: -0.00197800230854
    y: 0.0235058578359
    z: -0.766002897931
    w: -0.642404177416
---
header: 
  seq: 15015
  stamp: 
    secs: 1723616333
    nsecs: 386682310
  frame_id: "map"
pose: 
  position: 
    x: 0.633562445641
    y: 0.14451995492
    z: -1.08248639107
  orientation: 
    x: -0.00204292491886
    y: 0.023428172633
    z: -0.766069890347
    w: -0.642326985463
---
header: 
  seq: 15016
  stamp: 
    secs: 1723616333
    nsecs: 420752127
  frame_id: "map"
pose: 
  position: 
    x: 0.634206473827
    y: 0.144233599305
    z: -1.08395802975
  orientation: 
    x: -0.00215118963598
    y: 0.0232646823735
    z: -0.766192953876
    w: -0.642185798789
---
header: 
  seq: 15017
  stamp: 
    secs: 1723616333
    nsecs: 453773028
  frame_id: "map"
pose: 
  position: 
    x: 0.634063780308
    y: 0.143991068006
    z: -1.08643507957
  orientation: 
    x: -0.0021962722759
    y: 0.0231054818728
    z: -0.766301950895
    w: -0.642061207437
---
header: 
  seq: 15018
  stamp: 
    secs: 1723616333
    nsecs: 490339062
  frame_id: "map"
pose: 
  position: 
    x: 0.634342253208
    y: 0.143816530704
    z: -1.08819961548
  orientation: 
    x: -0.00226173555126
    y: 0.0230512296592
    z: -0.766359001923
    w: -0.641994968396
---
header: 
  seq: 15019
  stamp: 
    secs: 1723616333
    nsecs: 522949484
  frame_id: "map"
pose: 
  position: 
    x: 0.634889781475
    y: 0.143621876836
    z: -1.08964788914
  orientation: 
    x: -0.0023126021876
    y: 0.0228974167112
    z: -0.766455723672
    w: -0.641884759655
---
header: 
  seq: 15020
  stamp: 
    secs: 1723616333
    nsecs: 554664712
  frame_id: "map"
pose: 
  position: 
    x: 0.635503828526
    y: 0.143441319466
    z: -1.09163784981
  orientation: 
    x: -0.00236502035481
    y: 0.0227541905247
    z: -0.766551966
    w: -0.64177469316
---
header: 
  seq: 15021
  stamp: 
    secs: 1723616333
    nsecs: 588379792
  frame_id: "map"
pose: 
  position: 
    x: 0.636138141155
    y: 0.142916724086
    z: -1.09339725971
  orientation: 
    x: -0.00236346487268
    y: 0.022697881018
    z: -0.766588986738
    w: -0.641732446213
---
header: 
  seq: 15022
  stamp: 
    secs: 1723616333
    nsecs: 621462226
  frame_id: "map"
pose: 
  position: 
    x: 0.637214541435
    y: 0.142205968499
    z: -1.0951179266
  orientation: 
    x: -0.00243071543783
    y: 0.0224879791757
    z: -0.766691003185
    w: -0.641617701418
---
header: 
  seq: 15023
  stamp: 
    secs: 1723616333
    nsecs: 653505696
  frame_id: "map"
pose: 
  position: 
    x: 0.637675821781
    y: 0.141380041838
    z: -1.09737575054
  orientation: 
    x: -0.00253291364294
    y: 0.0223292014606
    z: -0.766779769716
    w: -0.641516796594
---
header: 
  seq: 15024
  stamp: 
    secs: 1723616333
    nsecs: 688526770
  frame_id: "map"
pose: 
  position: 
    x: 0.638835072517
    y: 0.14079977572
    z: -1.09798932076
  orientation: 
    x: -0.00258694261001
    y: 0.0222622781921
    z: -0.766835861903
    w: -0.641451937863
---
header: 
  seq: 15025
  stamp: 
    secs: 1723616333
    nsecs: 721348031
  frame_id: "map"
pose: 
  position: 
    x: 0.640093326569
    y: 0.140270531178
    z: -1.09829568863
  orientation: 
    x: -0.00271294851616
    y: 0.0220742663692
    z: -0.766934190501
    w: -0.641340375155
---
header: 
  seq: 15026
  stamp: 
    secs: 1723616333
    nsecs: 753501513
  frame_id: "map"
pose: 
  position: 
    x: 0.640794813633
    y: 0.139692172408
    z: -1.09893858433
  orientation: 
    x: -0.00285223265524
    y: 0.0218857204668
    z: -0.76703760833
    w: -0.641222458809
---
header: 
  seq: 15027
  stamp: 
    secs: 1723616333
    nsecs: 786476880
  frame_id: "map"
pose: 
  position: 
    x: 0.641538202763
    y: 0.139024972916
    z: -1.09973371029
  orientation: 
    x: -0.0028992836847
    y: 0.0218053576219
    z: -0.767096445331
    w: -0.64115451809
---
header: 
  seq: 15028
  stamp: 
    secs: 1723616333
    nsecs: 820753152
  frame_id: "map"
pose: 
  position: 
    x: 0.642577588558
    y: 0.138281002641
    z: -1.10062158108
  orientation: 
    x: -0.00302295636766
    y: 0.0216293938709
    z: -0.767215204613
    w: -0.641017888543
---
header: 
  seq: 15029
  stamp: 
    secs: 1723616333
    nsecs: 853625516
  frame_id: "map"
pose: 
  position: 
    x: 0.643248021603
    y: 0.137607529759
    z: -1.10148775578
  orientation: 
    x: -0.00312406863287
    y: 0.0214992740372
    z: -0.76734145023
    w: -0.64087073809
---
header: 
  seq: 15030
  stamp: 
    secs: 1723616333
    nsecs: 890087842
  frame_id: "map"
pose: 
  position: 
    x: 0.643743395805
    y: 0.136739209294
    z: -1.10316574574
  orientation: 
    x: -0.00318136266361
    y: 0.0214427886991
    z: -0.767389139389
    w: -0.640815293911
---
header: 
  seq: 15031
  stamp: 
    secs: 1723616333
    nsecs: 924264407
  frame_id: "map"
pose: 
  position: 
    x: 0.645039141178
    y: 0.135986432433
    z: -1.10462677479
  orientation: 
    x: -0.003293988921
    y: 0.0213044291565
    z: -0.767513788693
    w: -0.640669824063
---
header: 
  seq: 15032
  stamp: 
    secs: 1723616333
    nsecs: 954521647
  frame_id: "map"
pose: 
  position: 
    x: 0.645875155926
    y: 0.135092332959
    z: -1.10669803619
  orientation: 
    x: -0.00338341333829
    y: 0.0211426201611
    z: -0.767616700761
    w: -0.640551401956
---
header: 
  seq: 15033
  stamp: 
    secs: 1723616333
    nsecs: 986293064
  frame_id: "map"
pose: 
  position: 
    x: 0.646745681763
    y: 0.134613275528
    z: -1.10785126686
  orientation: 
    x: -0.00340594280445
    y: 0.0210887413422
    z: -0.767659500885
    w: -0.640501942629
---
header: 
  seq: 15034
  stamp: 
    secs: 1723616334
    nsecs:  21931709
  frame_id: "map"
pose: 
  position: 
    x: 0.647769570351
    y: 0.134422942996
    z: -1.10881948471
  orientation: 
    x: -0.00342719798699
    y: 0.0208997654101
    z: -0.767746017829
    w: -0.640404214624
---
header: 
  seq: 15035
  stamp: 
    secs: 1723616334
    nsecs:  54488977
  frame_id: "map"
pose: 
  position: 
    x: 0.648981392384
    y: 0.134234592319
    z: -1.10995543003
  orientation: 
    x: -0.0035072539501
    y: 0.0207445984946
    z: -0.767826428747
    w: -0.64031250835
---
header: 
  seq: 15036
  stamp: 
    secs: 1723616334
    nsecs:  88121271
  frame_id: "map"
pose: 
  position: 
    x: 0.649585723877
    y: 0.133979678154
    z: -1.11094367504
  orientation: 
    x: -0.00352330531394
    y: 0.0206758108866
    z: -0.767863976321
    w: -0.64026956598
---
header: 
  seq: 15037
  stamp: 
    secs: 1723616334
    nsecs: 121388397
  frame_id: "map"
pose: 
  position: 
    x: 0.650916695595
    y: 0.133461922407
    z: -1.11183905602
  orientation: 
    x: -0.00357613177874
    y: 0.0205345392602
    z: -0.767933592378
    w: -0.640190340441
---
header: 
  seq: 15038
  stamp: 
    secs: 1723616334
    nsecs: 153734474
  frame_id: "map"
pose: 
  position: 
    x: 0.651874423027
    y: 0.132834851742
    z: -1.11324942112
  orientation: 
    x: -0.00364784266584
    y: 0.0203992156078
    z: -0.76800053211
    w: -0.640113959815
---
header: 
  seq: 15039
  stamp: 
    secs: 1723616334
    nsecs: 187230262
  frame_id: "map"
pose: 
  position: 
    x: 0.652425169945
    y: 0.132416978478
    z: -1.1142885685
  orientation: 
    x: -0.00369056244808
    y: 0.0203404378763
    z: -0.768013623975
    w: -0.640099772132
---
header: 
  seq: 15040
  stamp: 
    secs: 1723616334
    nsecs: 220738498
  frame_id: "map"
pose: 
  position: 
    x: 0.65349650383
    y: 0.131860405207
    z: -1.11565959454
  orientation: 
    x: -0.00376577086507
    y: 0.0201864385602
    z: -0.768065791237
    w: -0.640041704312
---
header: 
  seq: 15041
  stamp: 
    secs: 1723616334
    nsecs: 253495310
  frame_id: "map"
pose: 
  position: 
    x: 0.654496312141
    y: 0.131363034248
    z: -1.11694419384
  orientation: 
    x: -0.00382035432661
    y: 0.0200471056888
    z: -0.76811215277
    w: -0.639990116569
---
header: 
  seq: 15042
  stamp: 
    secs: 1723616334
    nsecs: 286658312
  frame_id: "map"
pose: 
  position: 
    x: 0.655761778355
    y: 0.130844429135
    z: -1.11841785908
  orientation: 
    x: -0.00385252817709
    y: 0.0199837747806
    z: -0.768133236731
    w: -0.639966503797
---
header: 
  seq: 15043
  stamp: 
    secs: 1723616334
    nsecs: 320836312
  frame_id: "map"
pose: 
  position: 
    x: 0.656989276409
    y: 0.130570217967
    z: -1.11937987804
  orientation: 
    x: -0.00391884360905
    y: 0.0198334132643
    z: -0.768199022693
    w: -0.639891951291
---
header: 
  seq: 15044
  stamp: 
    secs: 1723616334
    nsecs: 353732862
  frame_id: "map"
pose: 
  position: 
    x: 0.657717168331
    y: 0.130306363106
    z: -1.1205496788
  orientation: 
    x: -0.00395625749818
    y: 0.0197213757457
    z: -0.768249045734
    w: -0.63983510046
---
header: 
  seq: 15045
  stamp: 
    secs: 1723616334
    nsecs: 389986743
  frame_id: "map"
pose: 
  position: 
    x: 0.659294247627
    y: 0.129905536771
    z: -1.12152123451
  orientation: 
    x: -0.00400268027618
    y: 0.01967161283
    z: -0.768283074046
    w: -0.639795424471
---
header: 
  seq: 15046
  stamp: 
    secs: 1723616334
    nsecs: 422342291
  frame_id: "map"
pose: 
  position: 
    x: 0.660470724106
    y: 0.129510268569
    z: -1.12191426754
  orientation: 
    x: -0.00409125978086
    y: 0.0195279895412
    z: -0.768340330539
    w: -0.639730497251
---
header: 
  seq: 15047
  stamp: 
    secs: 1723616334
    nsecs: 454560949
  frame_id: "map"
pose: 
  position: 
    x: 0.661866307259
    y: 0.12906268239
    z: -1.12231385708
  orientation: 
    x: -0.00412339082595
    y: 0.0194002878829
    z: -0.768398856707
    w: -0.639663878888
---
header: 
  seq: 15048
  stamp: 
    secs: 1723616334
    nsecs: 488230042
  frame_id: "map"
pose: 
  position: 
    x: 0.662667274475
    y: 0.1286919415
    z: -1.12243926525
  orientation: 
    x: -0.00418165950256
    y: 0.0193434047839
    z: -0.768448026274
    w: -0.639606195658
---
header: 
  seq: 15049
  stamp: 
    secs: 1723616334
    nsecs: 522256369
  frame_id: "map"
pose: 
  position: 
    x: 0.663950324059
    y: 0.128322213888
    z: -1.12214243412
  orientation: 
    x: -0.00425943097477
    y: 0.0192582786866
    z: -0.768515092447
    w: -0.639527581248
---
header: 
  seq: 15050
  stamp: 
    secs: 1723616334
    nsecs: 553520730
  frame_id: "map"
pose: 
  position: 
    x: 0.664950847626
    y: 0.127959549427
    z: -1.12204372883
  orientation: 
    x: -0.00436507336765
    y: 0.0191273692581
    z: -0.768599549463
    w: -0.639429300066
---
header: 
  seq: 15051
  stamp: 
    secs: 1723616334
    nsecs: 588161655
  frame_id: "map"
pose: 
  position: 
    x: 0.66606336832
    y: 0.127456441522
    z: -1.12240505219
  orientation: 
    x: -0.00439511880229
    y: 0.0190846481588
    z: -0.768630127001
    w: -0.639393580612
---
header: 
  seq: 15052
  stamp: 
    secs: 1723616334
    nsecs: 621494186
  frame_id: "map"
pose: 
  position: 
    x: 0.667025446892
    y: 0.127100944519
    z: -1.12283551693
  orientation: 
    x: -0.00452154485984
    y: 0.0190004532434
    z: -0.768705064098
    w: -0.639305325111
---
header: 
  seq: 15053
  stamp: 
    secs: 1723616334
    nsecs: 653488597
  frame_id: "map"
pose: 
  position: 
    x: 0.667542219162
    y: 0.126734405756
    z: -1.12343633175
  orientation: 
    x: -0.00455762651343
    y: 0.0188668516849
    z: -0.768767457239
    w: -0.639233912545
---
header: 
  seq: 15054
  stamp: 
    secs: 1723616334
    nsecs: 686638128
  frame_id: "map"
pose: 
  position: 
    x: 0.668798089027
    y: 0.126357749104
    z: -1.12365221977
  orientation: 
    x: -0.00456076513656
    y: 0.0188304223198
    z: -0.768785907022
    w: -0.639212765363
---
header: 
  seq: 15055
  stamp: 
    secs: 1723616334
    nsecs: 721393352
  frame_id: "map"
pose: 
  position: 
    x: 0.669787883759
    y: 0.126082092524
    z: -1.12367606163
  orientation: 
    x: -0.00460448063809
    y: 0.0187410617813
    z: -0.768839949818
    w: -0.639149956022
---
header: 
  seq: 15056
  stamp: 
    secs: 1723616334
    nsecs: 753579819
  frame_id: "map"
pose: 
  position: 
    x: 0.670695006847
    y: 0.125837102532
    z: -1.12376451492
  orientation: 
    x: -0.00468228503753
    y: 0.0186297532715
    z: -0.768879135851
    w: -0.639105543781
---
header: 
  seq: 15057
  stamp: 
    secs: 1723616334
    nsecs: 788130572
  frame_id: "map"
pose: 
  position: 
    x: 0.671814620495
    y: 0.125588536263
    z: -1.12382102013
  orientation: 
    x: -0.00470670716061
    y: 0.0185823505793
    z: -0.768894703843
    w: -0.639088037034
---
header: 
  seq: 15058
  stamp: 
    secs: 1723616334
    nsecs: 826451695
  frame_id: "map"
pose: 
  position: 
    x: 0.672817230225
    y: 0.125498920679
    z: -1.12359189987
  orientation: 
    x: -0.00475113652438
    y: 0.0185345152233
    z: -0.768927894486
    w: -0.639049283006
---
header: 
  seq: 15059
  stamp: 
    secs: 1723616334
    nsecs: 854183244
  frame_id: "map"
pose: 
  position: 
    x: 0.673443257809
    y: 0.125361829996
    z: -1.12359559536
  orientation: 
    x: -0.00481663206842
    y: 0.0183699798536
    z: -0.768978976467
    w: -0.638991878999
---
header: 
  seq: 15060
  stamp: 
    secs: 1723616334
    nsecs: 888259648
  frame_id: "map"
pose: 
  position: 
    x: 0.67464774847
    y: 0.125380173326
    z: -1.12263083458
  orientation: 
    x: -0.00484629752287
    y: 0.0182641787515
    z: -0.769019595492
    w: -0.638945865177
---
header: 
  seq: 15061
  stamp: 
    secs: 1723616334
    nsecs: 920962350
  frame_id: "map"
pose: 
  position: 
    x: 0.675529062748
    y: 0.125458493829
    z: -1.12146234512
  orientation: 
    x: -0.00483754283218
    y: 0.0182223519556
    z: -0.769022140108
    w: -0.638944163498
---
header: 
  seq: 15062
  stamp: 
    secs: 1723616334
    nsecs: 954072458
  frame_id: "map"
pose: 
  position: 
    x: 0.676328539848
    y: 0.125562235713
    z: -1.12030589581
  orientation: 
    x: -0.00490600248506
    y: 0.018165451076
    z: -0.769058491765
    w: -0.638901489814
---
header: 
  seq: 15063
  stamp: 
    secs: 1723616334
    nsecs: 989230482
  frame_id: "map"
pose: 
  position: 
    x: 0.677475035191
    y: 0.125759214163
    z: -1.11909008026
  orientation: 
    x: -0.00491069329759
    y: 0.0180698047302
    z: -0.769071336017
    w: -0.638888561268
---
header: 
  seq: 15064
  stamp: 
    secs: 1723616335
    nsecs:  21973914
  frame_id: "map"
pose: 
  position: 
    x: 0.678583860397
    y: 0.126001417637
    z: -1.11843860149
  orientation: 
    x: -0.00490112464589
    y: 0.0180426397692
    z: -0.769074223076
    w: -0.638886095677
---
header: 
  seq: 15065
  stamp: 
    secs: 1723616335
    nsecs:  54977335
  frame_id: "map"
pose: 
  position: 
    x: 0.679386019707
    y: 0.126170963049
    z: -1.11810183525
  orientation: 
    x: -0.00494694880693
    y: 0.0179445877603
    z: -0.769104305389
    w: -0.638852220148
---
header: 
  seq: 15066
  stamp: 
    secs: 1723616335
    nsecs:  88188586
  frame_id: "map"
pose: 
  position: 
    x: 0.680510997772
    y: 0.126355946064
    z: -1.11802589893
  orientation: 
    x: -0.00496120761262
    y: 0.017849947012
    z: -0.769140720266
    w: -0.638810916236
---
header: 
  seq: 15067
  stamp: 
    secs: 1723616335
    nsecs: 121170248
  frame_id: "map"
pose: 
  position: 
    x: 0.681467413902
    y: 0.126292750239
    z: -1.11883640289
  orientation: 
    x: -0.00497685397158
    y: 0.0177797494602
    z: -0.769168426551
    w: -0.638779332442
---
header: 
  seq: 15068
  stamp: 
    secs: 1723616335
    nsecs: 154019498
  frame_id: "map"
pose: 
  position: 
    x: 0.682329237461
    y: 0.12625592947
    z: -1.11962282658
  orientation: 
    x: -0.00503681049777
    y: 0.0176837784519
    z: -0.769212306688
    w: -0.638728708808
---
header: 
  seq: 15069
  stamp: 
    secs: 1723616335
    nsecs: 186670933
  frame_id: "map"
pose: 
  position: 
    x: 0.683299839497
    y: 0.126027628779
    z: -1.12111902237
  orientation: 
    x: -0.00511294680397
    y: 0.0176196487292
    z: -0.76925367382
    w: -0.638680176712
---
header: 
  seq: 15070
  stamp: 
    secs: 1723616335
    nsecs: 220360629
  frame_id: "map"
pose: 
  position: 
    x: 0.684284329414
    y: 0.125647544861
    z: -1.12195837498
  orientation: 
    x: -0.00515345321811
    y: 0.0175939569323
    z: -0.769284367263
    w: -0.638643414124
---
header: 
  seq: 15071
  stamp: 
    secs: 1723616335
    nsecs: 252641264
  frame_id: "map"
pose: 
  position: 
    x: 0.685011565685
    y: 0.125199645758
    z: -1.12296903133
  orientation: 
    x: -0.0052231753008
    y: 0.0174972635008
    z: -0.769310219086
    w: -0.638614443434
---
header: 
  seq: 15072
  stamp: 
    secs: 1723616335
    nsecs: 287831889
  frame_id: "map"
pose: 
  position: 
    x: 0.686232328415
    y: 0.124767713249
    z: -1.12388622761
  orientation: 
    x: -0.00527539788029
    y: 0.0174559385158
    z: -0.769327467683
    w: -0.63859432885
---
header: 
  seq: 15073
  stamp: 
    secs: 1723616335
    nsecs: 321964318
  frame_id: "map"
pose: 
  position: 
    x: 0.687198400497
    y: 0.124466493726
    z: -1.12453103065
  orientation: 
    x: -0.00534149269983
    y: 0.0173786958548
    z: -0.769359873342
    w: -0.638556949864
---
header: 
  seq: 15074
  stamp: 
    secs: 1723616335
    nsecs: 354996441
  frame_id: "map"
pose: 
  position: 
    x: 0.688064992428
    y: 0.124203503132
    z: -1.12511956692
  orientation: 
    x: -0.00537694280924
    y: 0.0172893004135
    z: -0.769390972447
    w: -0.63852155178
---
header: 
  seq: 15075
  stamp: 
    secs: 1723616335
    nsecs: 388149583
  frame_id: "map"
pose: 
  position: 
    x: 0.68911677599
    y: 0.123889558017
    z: -1.12636208534
  orientation: 
    x: -0.0054211041454
    y: 0.0172359062833
    z: -0.769418178238
    w: -0.638489794129
---
header: 
  seq: 15076
  stamp: 
    secs: 1723616335
    nsecs: 421463710
  frame_id: "map"
pose: 
  position: 
    x: 0.689908266068
    y: 0.123766183853
    z: -1.12742328644
  orientation: 
    x: -0.0054418186629
    y: 0.0172037067496
    z: -0.769448523969
    w: -0.638453969308
---
header: 
  seq: 15077
  stamp: 
    secs: 1723616335
    nsecs: 454114313
  frame_id: "map"
pose: 
  position: 
    x: 0.690495193005
    y: 0.123551942408
    z: -1.12835979462
  orientation: 
    x: -0.00542828886598
    y: 0.0171843646389
    z: -0.7694737752
    w: -0.638424166218
---
header: 
  seq: 15078
  stamp: 
    secs: 1723616335
    nsecs: 486571677
  frame_id: "map"
pose: 
  position: 
    x: 0.69130551815
    y: 0.123311765492
    z: -1.12933921814
  orientation: 
    x: -0.00534819668292
    y: 0.0172416553769
    z: -0.769500707036
    w: -0.638390912354
---
header: 
  seq: 15079
  stamp: 
    secs: 1723616335
    nsecs: 521247763
  frame_id: "map"
pose: 
  position: 
    x: 0.692252993584
    y: 0.123177267611
    z: -1.12996637821
  orientation: 
    x: -0.00538771725593
    y: 0.0172094077694
    z: -0.769507698144
    w: -0.638382909721
---
header: 
  seq: 15080
  stamp: 
    secs: 1723616335
    nsecs: 552573365
  frame_id: "map"
pose: 
  position: 
    x: 0.693047225475
    y: 0.122945792973
    z: -1.13085067272
  orientation: 
    x: -0.0054381729605
    y: 0.0171178562534
    z: -0.769507961562
    w: -0.638384585059
---
header: 
  seq: 15081
  stamp: 
    secs: 1723616335
    nsecs: 589111518
  frame_id: "map"
pose: 
  position: 
    x: 0.694245815277
    y: 0.122968547046
    z: -1.13131070137
  orientation: 
    x: -0.0055648749482
    y: 0.0169621809415
    z: -0.769555187106
    w: -0.638330700313
---
header: 
  seq: 15082
  stamp: 
    secs: 1723616335
    nsecs: 621956225
  frame_id: "map"
pose: 
  position: 
    x: 0.695194244385
    y: 0.123085938394
    z: -1.13168489933
  orientation: 
    x: -0.00563233361342
    y: 0.0168894723595
    z: -0.76958465829
    w: -0.638296677269
---
header: 
  seq: 15083
  stamp: 
    secs: 1723616335
    nsecs: 655413450
  frame_id: "map"
pose: 
  position: 
    x: 0.696020483971
    y: 0.123207040131
    z: -1.13196158409
  orientation: 
    x: -0.00575303823629
    y: 0.0168080538678
    z: -0.769639322752
    w: -0.638231644682
---
header: 
  seq: 15084
  stamp: 
    secs: 1723616335
    nsecs: 688394024
  frame_id: "map"
pose: 
  position: 
    x: 0.697019815445
    y: 0.123213008046
    z: -1.1318885088
  orientation: 
    x: -0.0056896236929
    y: 0.0168144094808
    z: -0.769715824551
    w: -0.638139970018
---
header: 
  seq: 15085
  stamp: 
    secs: 1723616335
    nsecs: 720992117
  frame_id: "map"
pose: 
  position: 
    x: 0.697699487209
    y: 0.123196385801
    z: -1.13211607933
  orientation: 
    x: -0.00566307381251
    y: 0.0168532609726
    z: -0.769746839363
    w: -0.638101705948
---
header: 
  seq: 15086
  stamp: 
    secs: 1723616335
    nsecs: 753948339
  frame_id: "map"
pose: 
  position: 
    x: 0.698308944702
    y: 0.123077571392
    z: -1.13287067413
  orientation: 
    x: -0.00564120025668
    y: 0.0168718339034
    z: -0.769799243701
    w: -0.638038174842
---
header: 
  seq: 15087
  stamp: 
    secs: 1723616335
    nsecs: 787770733
  frame_id: "map"
pose: 
  position: 
    x: 0.699293375015
    y: 0.12293959409
    z: -1.13368177414
  orientation: 
    x: -0.00569588645117
    y: 0.0168135151774
    z: -0.769866141286
    w: -0.637958633202
---
header: 
  seq: 15088
  stamp: 
    secs: 1723616335
    nsecs: 820437464
  frame_id: "map"
pose: 
  position: 
    x: 0.700169146061
    y: 0.122712418437
    z: -1.13448941708
  orientation: 
    x: -0.00575695328339
    y: 0.0167714065244
    z: -0.769912002325
    w: -0.637903752737
---
header: 
  seq: 15089
  stamp: 
    secs: 1723616335
    nsecs: 852476285
  frame_id: "map"
pose: 
  position: 
    x: 0.700939655304
    y: 0.122515127063
    z: -1.13535487652
  orientation: 
    x: -0.00593132796657
    y: 0.0166013835034
    z: -0.770009198226
    w: -0.637789276628
---
header: 
  seq: 15090
  stamp: 
    secs: 1723616335
    nsecs: 887645598
  frame_id: "map"
pose: 
  position: 
    x: 0.701722502708
    y: 0.122335650027
    z: -1.13635218143
  orientation: 
    x: -0.00602585017689
    y: 0.0165212201975
    z: -0.770057614419
    w: -0.637732009598
---
header: 
  seq: 15091
  stamp: 
    secs: 1723616335
    nsecs: 922085535
  frame_id: "map"
pose: 
  position: 
    x: 0.702785372734
    y: 0.122363708913
    z: -1.1373707056
  orientation: 
    x: -0.00609026702503
    y: 0.0164536054572
    z: -0.770153414205
    w: -0.637617412317
---
header: 
  seq: 15092
  stamp: 
    secs: 1723616335
    nsecs: 954985599
  frame_id: "map"
pose: 
  position: 
    x: 0.703558266163
    y: 0.122104257345
    z: -1.13817691803
  orientation: 
    x: -0.00606571286378
    y: 0.0164458461566
    z: -0.770239978564
    w: -0.637513230576
---
header: 
  seq: 15093
  stamp: 
    secs: 1723616335
    nsecs: 988104695
  frame_id: "map"
pose: 
  position: 
    x: 0.704541087151
    y: 0.121896624565
    z: -1.13864076138
  orientation: 
    x: -0.00597908363866
    y: 0.0165080433804
    z: -0.770299827089
    w: -0.637440232234
---
header: 
  seq: 15094
  stamp: 
    secs: 1723616336
    nsecs:  20958870
  frame_id: "map"
pose: 
  position: 
    x: 0.70534235239
    y: 0.121610499918
    z: -1.13884699345
  orientation: 
    x: -0.00596420250841
    y: 0.0165401309616
    z: -0.770321527447
    w: -0.637413221373
---
header: 
  seq: 15095
  stamp: 
    secs: 1723616336
    nsecs:  53917936
  frame_id: "map"
pose: 
  position: 
    x: 0.706058204174
    y: 0.121309153736
    z: -1.13893079758
  orientation: 
    x: -0.00588243861012
    y: 0.0165632527885
    z: -0.770396238005
    w: -0.637323085069
---
header: 
  seq: 15096
  stamp: 
    secs: 1723616336
    nsecs:  88418600
  frame_id: "map"
pose: 
  position: 
    x: 0.707031428814
    y: 0.120740011334
    z: -1.13932490349
  orientation: 
    x: -0.0058603049292
    y: 0.0165520825566
    z: -0.770488091793
    w: -0.63721251808
---
header: 
  seq: 15097
  stamp: 
    secs: 1723616336
    nsecs: 120437673
  frame_id: "map"
pose: 
  position: 
    x: 0.70771074295
    y: 0.120444789529
    z: -1.13949537277
  orientation: 
    x: -0.00591280771937
    y: 0.0165148026813
    z: -0.770521856687
    w: -0.637172178278
---
header: 
  seq: 15098
  stamp: 
    secs: 1723616336
    nsecs: 152569477
  frame_id: "map"
pose: 
  position: 
    x: 0.708339929581
    y: 0.120083898306
    z: -1.1399115324
  orientation: 
    x: -0.00594992164148
    y: 0.0164228688801
    z: -0.770593701258
    w: -0.63708743677
---
header: 
  seq: 15099
  stamp: 
    secs: 1723616336
    nsecs: 187417936
  frame_id: "map"
pose: 
  position: 
    x: 0.708976864815
    y: 0.119557417929
    z: -1.14062035084
  orientation: 
    x: -0.00598229667731
    y: 0.01646192485
    z: -0.77062612799
    w: -0.637046749256
---
header: 
  seq: 15100
  stamp: 
    secs: 1723616336
    nsecs: 220251726
  frame_id: "map"
pose: 
  position: 
    x: 0.710236668587
    y: 0.119379296899
    z: -1.14087057114
  orientation: 
    x: -0.00590698091757
    y: 0.016477186619
    z: -0.770698272858
    w: -0.636959937285
---
header: 
  seq: 15101
  stamp: 
    secs: 1723616336
    nsecs: 252540740
  frame_id: "map"
pose: 
  position: 
    x: 0.711095333099
    y: 0.119211241603
    z: -1.14112627506
  orientation: 
    x: -0.00589647383994
    y: 0.01645853598
    z: -0.77075748918
    w: -0.636888835552
---
header: 
  seq: 15102
  stamp: 
    secs: 1723616336
    nsecs: 289052264
  frame_id: "map"
pose: 
  position: 
    x: 0.712423086166
    y: 0.118877224624
    z: -1.14139473438
  orientation: 
    x: -0.00612352022996
    y: 0.0162583002539
    z: -0.770867950802
    w: -0.636758059149
---
header: 
  seq: 15103
  stamp: 
