header: 
  seq: 16549
  stamp: 
    secs: 1723788841
    nsecs:  90935936
  frame_id: "map"
pose: 
  position: 
    x: -0.0161554813385
    y: 7.2856502533
    z: -1.08019948006
  orientation: 
    x: 0.00687239992228
    y: 0.026278633145
    z: -0.639700899626
    w: 0.768143852468
---
header: 
  seq: 16550
  stamp: 
    secs: 1723788841
    nsecs: 120935936
  frame_id: "map"
pose: 
  position: 
    x: -0.0156299564987
    y: 7.28546667099
    z: -1.0796610117
  orientation: 
    x: 0.00690140485659
    y: 0.0262201728319
    z: -0.639741007621
    w: 0.768112258137
---
header: 
  seq: 16551
  stamp: 
    secs: 1723788841
    nsecs: 160939264
  frame_id: "map"
pose: 
  position: 
    x: -0.0147277917713
    y: 7.2850112915
    z: -1.07870972157
  orientation: 
    x: 0.00691825108365
    y: 0.0262561761187
    z: -0.639789044492
    w: 0.768070880469
---
header: 
  seq: 16552
  stamp: 
    secs: 1723788841
    nsecs: 190939264
  frame_id: "map"
pose: 
  position: 
    x: -0.0141354650259
    y: 7.28458929062
    z: -1.07780408859
  orientation: 
    x: 0.00685079966242
    y: 0.0264822946195
    z: -0.639849209118
    w: 0.768013497534
---
header: 
  seq: 16553
  stamp: 
    secs: 1723788841
    nsecs: 220939264
  frame_id: "map"
pose: 
  position: 
    x: -0.0133939124644
    y: 7.28417110443
    z: -1.07649922371
  orientation: 
    x: 0.00675669892058
    y: 0.0267329735378
    z: -0.639901344769
    w: 0.76796220482
---
header: 
  seq: 16554
  stamp: 
    secs: 1723788841
    nsecs: 260942336
  frame_id: "map"
pose: 
  position: 
    x: -0.0124868806452
    y: 7.28383588791
    z: -1.07477200031
  orientation: 
    x: 0.00672858763117
    y: 0.0268103228829
    z: -0.639942643413
    w: 0.767925458036
---
header: 
  seq: 16555
  stamp: 
    secs: 1723788841
    nsecs: 290942336
  frame_id: "map"
pose: 
  position: 
    x: -0.0121073145419
    y: 7.28366947174
    z: -1.07334268093
  orientation: 
    x: 0.00666820239251
    y: 0.0268695938643
    z: -0.639994705307
    w: 0.767880476812
---
header: 
  seq: 16556
  stamp: 
    secs: 1723788841
    nsecs: 320942336
  frame_id: "map"
pose: 
  position: 
    x: -0.0116227082908
    y: 7.28349208832
    z: -1.07275140285
  orientation: 
    x: 0.00669285961598
    y: 0.0267912995077
    z: -0.640046572273
    w: 0.767839820908
---
header: 
  seq: 16557
  stamp: 
    secs: 1723788841
    nsecs: 360945408
  frame_id: "map"
pose: 
  position: 
    x: -0.0109720081091
    y: 7.28322172165
    z: -1.07223474979
  orientation: 
    x: 0.00675616879225
    y: 0.0267411585874
    z: -0.640065522549
    w: 0.767825085316
---
header: 
  seq: 16558
  stamp: 
    secs: 1723788841
    nsecs: 390945408
  frame_id: "map"
pose: 
  position: 
    x: -0.0105836801231
    y: 7.2829875946
    z: -1.07147693634
  orientation: 
    x: 0.00686015955551
    y: 0.0266463742764
    z: -0.640111836668
    w: 0.767788970736
---
header: 
  seq: 16559
  stamp: 
    secs: 1723788841
    nsecs: 420945408
  frame_id: "map"
pose: 
  position: 
    x: -0.00984535645694
    y: 7.28262472153
    z: -1.07134771347
  orientation: 
    x: 0.00681442429798
    y: 0.0266790229375
    z: -0.640150996358
    w: 0.767755543016
---
header: 
  seq: 16560
  stamp: 
    secs: 1723788841
    nsecs: 460948992
  frame_id: "map"
pose: 
  position: 
    x: -0.00903802365065
    y: 7.28213453293
    z: -1.07083368301
  orientation: 
    x: 0.00675671143293
    y: 0.0267000996545
    z: -0.640177980878
    w: 0.767732773181
---
header: 
  seq: 16561
  stamp: 
    secs: 1723788841
    nsecs: 490948992
  frame_id: "map"
pose: 
  position: 
    x: -0.00866115279496
    y: 7.2817530632
    z: -1.07003629208
  orientation: 
    x: 0.0066522076635
    y: 0.0267786594044
    z: -0.640210049361
    w: 0.767704245033
---
header: 
  seq: 16562
  stamp: 
    secs: 1723788841
    nsecs: 520948992
  frame_id: "map"
pose: 
  position: 
    x: -0.00821836851537
    y: 7.28146266937
    z: -1.06972289085
  orientation: 
    x: 0.00666117374698
    y: 0.0267532218057
    z: -0.640243598253
    w: 0.767677102463
---
header: 
  seq: 16563
  stamp: 
    secs: 1723788841
    nsecs: 560952064
  frame_id: "map"
pose: 
  position: 
    x: -0.00775872543454
    y: 7.28111743927
    z: -1.06955003738
  orientation: 
    x: 0.00669891427419
    y: 0.0267197275735
    z: -0.640273006216
    w: 0.767653426471
---
header: 
  seq: 16564
  stamp: 
    secs: 1723788841
    nsecs: 590952064
  frame_id: "map"
pose: 
  position: 
    x: -0.00755830155686
    y: 7.28085613251
    z: -1.06922829151
  orientation: 
    x: 0.00682359518879
    y: 0.0265436222354
    z: -0.640306813257
    w: 0.767630240436
---
header: 
  seq: 16565
  stamp: 
    secs: 1723788841
    nsecs: 620952064
  frame_id: "map"
pose: 
  position: 
    x: -0.00700089614838
    y: 7.28069496155
    z: -1.06963074207
  orientation: 
    x: 0.00679964063232
    y: 0.0265500331662
    z: -0.640349581772
    w: 0.767594468298
---
header: 
  seq: 16566
  stamp: 
    secs: 1723788841
    nsecs: 660954880
  frame_id: "map"
pose: 
  position: 
    x: -0.00636397581547
    y: 7.28038644791
    z: -1.06948757172
  orientation: 
    x: 0.00677746348746
    y: 0.0265770888087
    z: -0.640380312093
    w: 0.767568121249
---
header: 
  seq: 16567
  stamp: 
    secs: 1723788841
    nsecs: 690954880
  frame_id: "map"
pose: 
  position: 
    x: -0.00599583052099
    y: 7.28010654449
    z: -1.06890511513
  orientation: 
    x: 0.00679570780451
    y: 0.0266008201186
    z: -0.640393066783
    w: 0.767556462377
---
header: 
  seq: 16568
  stamp: 
    secs: 1723788841
    nsecs: 720954880
  frame_id: "map"
pose: 
  position: 
    x: -0.00557433953509
    y: 7.27975034714
    z: -1.06825268269
  orientation: 
    x: 0.00682080822844
    y: 0.0266056307862
    z: -0.640427843201
    w: 0.767527080756
---
header: 
  seq: 16569
  stamp: 
    secs: 1723788841
    nsecs: 760957440
  frame_id: "map"
pose: 
  position: 
    x: -0.00500481389463
    y: 7.2793469429
    z: -1.06733429432
  orientation: 
    x: 0.00682100315761
    y: 0.0265487272724
    z: -0.640461281457
    w: 0.767501144639
---
header: 
  seq: 16570
  stamp: 
    secs: 1723788841
    nsecs: 790957440
  frame_id: "map"
pose: 
  position: 
    x: -0.00465267384425
    y: 7.2790017128
    z: -1.066452384
  orientation: 
    x: 0.00679687408684
    y: 0.0265394655024
    z: -0.640513970286
    w: 0.76745781241
---
header: 
  seq: 16571
  stamp: 
    secs: 1723788841
    nsecs: 820957440
  frame_id: "map"
pose: 
  position: 
    x: -0.00411455146968
    y: 7.27866840363
    z: -1.06597805023
  orientation: 
    x: 0.00678144899883
    y: 0.0266297275883
    z: -0.64055439965
    w: 0.767421091968
---
header: 
  seq: 16572
  stamp: 
    secs: 1723788841
    nsecs: 860960000
  frame_id: "map"
pose: 
  position: 
    x: -0.00342668616213
    y: 7.27823352814
    z: -1.06565523148
  orientation: 
    x: 0.00675911182766
    y: 0.026667519482
    z: -0.640579329511
    w: 0.767399112387
---
header: 
  seq: 16573
  stamp: 
    secs: 1723788841
    nsecs: 890960000
  frame_id: "map"
pose: 
  position: 
    x: -0.00306026940234
    y: 7.27789592743
    z: -1.06526911259
  orientation: 
    x: 0.00670065349023
    y: 0.0267303637259
    z: -0.640636902106
    w: 0.767349294812
---
header: 
  seq: 16574
  stamp: 
    secs: 1723788841
    nsecs: 920960000
  frame_id: "map"
pose: 
  position: 
    x: -0.00259680440649
    y: 7.27757883072
    z: -1.06513774395
  orientation: 
    x: 0.0067206337306
    y: 0.0267367516076
    z: -0.640693921524
    w: 0.767301379113
---
header: 
  seq: 16575
  stamp: 
    secs: 1723788841
    nsecs: 960962304
  frame_id: "map"
pose: 
  position: 
    x: -0.00200101057999
    y: 7.27703285217
    z: -1.06477808952
  orientation: 
    x: 0.00674806737772
    y: 0.0267584348441
    z: -0.640714647237
    w: 0.767283013624
---
header: 
  seq: 16576
  stamp: 
    secs: 1723788841
    nsecs: 990962304
  frame_id: "map"
pose: 
  position: 
    x: -0.0016440913314
    y: 7.27663612366
    z: -1.0643992424
  orientation: 
    x: 0.00672882404865
    y: 0.0268247403979
    z: -0.640789995265
    w: 0.767217949427
---
header: 
  seq: 16577
  stamp: 
    secs: 1723788842
    nsecs:  20962304
  frame_id: "map"
pose: 
  position: 
    x: -0.00131425342988
    y: 7.27644443512
    z: -1.06453692913
  orientation: 
    x: 0.00670011809355
    y: 0.0269523860798
    z: -0.64081468805
    w: 0.767193172348
---
header: 
  seq: 16578
  stamp: 
    secs: 1723788842
    nsecs:  60965120
  frame_id: "map"
pose: 
  position: 
    x: -0.00097612576792
    y: 7.27625799179
    z: -1.06477701664
  orientation: 
    x: 0.0066779040702
    y: 0.0269897545294
    z: -0.640855417711
    w: 0.767158006072
---
header: 
  seq: 16579
  stamp: 
    secs: 1723788842
    nsecs:  90965120
  frame_id: "map"
pose: 
  position: 
    x: -0.000816833169665
    y: 7.27604579926
    z: -1.0645904541
  orientation: 
    x: 0.00664748260666
    y: 0.0270281417473
    z: -0.640912895475
    w: 0.767108873383
---
header: 
  seq: 16580
  stamp: 
    secs: 1723788842
    nsecs: 120965120
  frame_id: "map"
pose: 
  position: 
    x: -0.000736226094887
    y: 7.27580213547
    z: -1.06421804428
  orientation: 
    x: 0.00668913686388
    y: 0.0270093073744
    z: -0.64095111213
    w: 0.767077231636
---
header: 
  seq: 16581
  stamp: 
    secs: 1723788842
    nsecs: 160967680
  frame_id: "map"
pose: 
  position: 
    x: -0.000220258865738
    y: 7.27548837662
    z: -1.06387734413
  orientation: 
    x: 0.00668542530703
    y: 0.0270106323659
    z: -0.640955737747
    w: 0.767073448957
---
header: 
  seq: 16582
  stamp: 
    secs: 1723788842
    nsecs: 190967680
  frame_id: "map"
pose: 
  position: 
    x: -1.05302024167e-06
    y: 7.27527427673
    z: -1.06314432621
  orientation: 
    x: 0.00667389880251
    y: 0.0269706527874
    z: -0.640994960658
    w: 0.767042149653
---
header: 
  seq: 16583
  stamp: 
    secs: 1723788842
    nsecs: 220967680
  frame_id: "map"
pose: 
  position: 
    x: 0.000116986077046
    y: 7.27504396439
    z: -1.06225180626
  orientation: 
    x: 0.00668575128656
    y: 0.0268468134927
    z: -0.641019184559
    w: 0.767026102241
---
header: 
  seq: 16584
  stamp: 
    secs: 1723788842
    nsecs: 260970240
  frame_id: "map"
pose: 
  position: 
    x: 0.000179746784852
    y: 7.27457237244
    z: -1.0605751276
  orientation: 
    x: 0.00672299527121
    y: 0.0267371454172
    z: -0.641042259959
    w: 0.767010276099
---
header: 
  seq: 16585
  stamp: 
    secs: 1723788842
    nsecs: 290970240
  frame_id: "map"
pose: 
  position: 
    x: 0.000262569694314
    y: 7.27415847778
    z: -1.05922496319
  orientation: 
    x: 0.00682345491881
    y: 0.0266016775436
    z: -0.641097561892
    w: 0.766967955395
---
header: 
  seq: 16586
  stamp: 
    secs: 1723788842
    nsecs: 320970240
  frame_id: "map"
pose: 
  position: 
    x: 0.000771698541939
    y: 7.27391338348
    z: -1.05877506733
  orientation: 
    x: 0.00681086684054
    y: 0.0266542419076
    z: -0.641153274758
    w: 0.766919660375
---
header: 
  seq: 16587
  stamp: 
    secs: 1723788842
    nsecs: 360973056
  frame_id: "map"
pose: 
  position: 
    x: 0.00143047713209
    y: 7.27346324921
    z: -1.05812942982
  orientation: 
    x: 0.0067497183488
    y: 0.0267489208516
    z: -0.641193161481
    w: 0.766883566867
---
header: 
  seq: 16588
  stamp: 
    secs: 1723788842
    nsecs: 390973056
  frame_id: "map"
pose: 
  position: 
    x: 0.00185660971329
    y: 7.27306270599
    z: -1.05745363235
  orientation: 
    x: 0.00661140358724
    y: 0.0269792500859
    z: -0.641244232925
    w: 0.766833928417
---
header: 
  seq: 16589
  stamp: 
    secs: 1723788842
    nsecs: 420973056
  frame_id: "map"
pose: 
  position: 
    x: 0.00228807842359
    y: 7.27276039124
    z: -1.05682325363
  orientation: 
    x: 0.00656404699313
    y: 0.0270861996897
    z: -0.641308981021
    w: 0.766776429579
---
header: 
  seq: 16590
  stamp: 
    secs: 1723788842
    nsecs: 460975872
  frame_id: "map"
pose: 
  position: 
    x: 0.00267974170856
    y: 7.2724313736
    z: -1.05585122108
  orientation: 
    x: 0.00656373352594
    y: 0.0270750755558
    z: -0.641321087703
    w: 0.76676668312
---
header: 
  seq: 16591
  stamp: 
    secs: 1723788842
    nsecs: 491975872
  frame_id: "map"
pose: 
  position: 
    x: 0.00280044181272
    y: 7.27218818665
    z: -1.05497455597
  orientation: 
    x: 0.00662564592932
    y: 0.0269812816958
    z: -0.641360689936
    w: 0.766736437488
---
header: 
  seq: 16592
  stamp: 
    secs: 1723788842
    nsecs: 521975872
  frame_id: "map"
pose: 
  position: 
    x: 0.00301813008264
    y: 7.27209568024
    z: -1.05410552025
  orientation: 
    x: 0.00672949905677
    y: 0.0268243630518
    z: -0.641376647786
    w: 0.766727644601
---
header: 
  seq: 16593
  stamp: 
    secs: 1723788842
    nsecs: 561978688
  frame_id: "map"
pose: 
  position: 
    x: 0.00322753936052
    y: 7.27200222015
    z: -1.05301749706
  orientation: 
    x: 0.00676952341633
    y: 0.0267207496346
    z: -0.641372754471
    w: 0.766734066727
---
header: 
  seq: 16594
  stamp: 
    secs: 1723788842
    nsecs: 591978688
  frame_id: "map"
pose: 
  position: 
    x: 0.00335434288718
    y: 7.27184200287
    z: -1.05209779739
  orientation: 
    x: 0.00678840257029
    y: 0.02663083987
    z: -0.641417451204
    w: 0.766699738119
---
header: 
  seq: 16595
  stamp: 
    secs: 1723788842
    nsecs: 621978688
  frame_id: "map"
pose: 
  position: 
    x: 0.00366388005204
    y: 7.27176713943
    z: -1.05163955688
  orientation: 
    x: 0.00677036832894
    y: 0.0265802458711
    z: -0.641467911518
    w: 0.766659393049
---
header: 
  seq: 16596
  stamp: 
    secs: 1723788842
    nsecs: 651981760
  frame_id: "map"
pose: 
  position: 
    x: 0.00396352540702
    y: 7.2715921402
    z: -1.05098950863
  orientation: 
    x: 0.00674708746349
    y: 0.026605339051
    z: -0.6414894749
    w: 0.766640779947
---
header: 
  seq: 16597
  stamp: 
    secs: 1723788842
    nsecs: 691981760
  frame_id: "map"
pose: 
  position: 
    x: 0.00431285100058
    y: 7.27120876312
    z: -1.04982483387
  orientation: 
    x: 0.00672480561006
    y: 0.0267149597113
    z: -0.641528313221
    w: 0.766604639024
---
header: 
  seq: 16598
  stamp: 
    secs: 1723788842
    nsecs: 721981760
  frame_id: "map"
pose: 
  position: 
    x: 0.0046583772637
    y: 7.27099704742
    z: -1.04984593391
  orientation: 
    x: 0.00671622411658
    y: 0.0268242958803
    z: -0.641576581899
    w: 0.766560500737
---
header: 
  seq: 16599
  stamp: 
    secs: 1723788842
    nsecs: 761984832
  frame_id: "map"
pose: 
  position: 
    x: 0.00496308319271
    y: 7.27061700821
    z: -1.04932880402
  orientation: 
    x: 0.00672282141546
    y: 0.0268450597886
    z: -0.64159952559
    w: 0.766540507326
---
header: 
  seq: 16600
  stamp: 
    secs: 1723788842
    nsecs: 791984832
  frame_id: "map"
pose: 
  position: 
    x: 0.00510661676526
    y: 7.2703499794
    z: -1.048817873
  orientation: 
    x: 0.00672443089824
    y: 0.0268347733234
    z: -0.641650818304
    w: 0.766497896862
---
header: 
  seq: 16601
  stamp: 
    secs: 1723788842
    nsecs: 821984832
  frame_id: "map"
pose: 
  position: 
    x: 0.00526047963649
    y: 7.2701420784
    z: -1.04832971096
  orientation: 
    x: 0.00673338446937
    y: 0.026843215864
    z: -0.641708522608
    w: 0.76644912769
---
header: 
  seq: 16602
  stamp: 
    secs: 1723788842
    nsecs: 861988160
  frame_id: "map"
pose: 
  position: 
    x: 0.00562239997089
    y: 7.27003240585
    z: -1.04790091515
  orientation: 
    x: 0.00674299526792
    y: 0.0268405592955
    z: -0.641731144929
    w: 0.766430214291
---
header: 
  seq: 16603
  stamp: 
    secs: 1723788842
    nsecs: 891988160
  frame_id: "map"
pose: 
  position: 
    x: 0.00590954348445
    y: 7.26982498169
    z: -1.04746758938
  orientation: 
    x: 0.00672341278843
    y: 0.02695053096
    z: -0.641789175871
    w: 0.766377999615
---
header: 
  seq: 16604
  stamp: 
    secs: 1723788842
    nsecs: 921988160
  frame_id: "map"
pose: 
  position: 
    x: 0.00644828751683
    y: 7.26964902878
    z: -1.04756867886
  orientation: 
    x: 0.00663703479804
    y: 0.0271294318195
    z: -0.641809580214
    w: 0.766355319342
---
header: 
  seq: 16605
  stamp: 
    secs: 1723788842
    nsecs: 951990720
  frame_id: "map"
pose: 
  position: 
    x: 0.00686671305448
    y: 7.26946115494
    z: -1.047498703
  orientation: 
    x: 0.00656742664354
    y: 0.0271874206147
    z: -0.641831796872
    w: 0.76633529432
---
header: 
  seq: 16606
  stamp: 
    secs: 1723788842
    nsecs: 991990720
  frame_id: "map"
pose: 
  position: 
    x: 0.00718732737005
    y: 7.26915216446
    z: -1.04695010185
  orientation: 
    x: 0.00653753596687
    y: 0.0272347258424
    z: -0.641886182111
    w: 0.766288242632
---
header: 
  seq: 16607
  stamp: 
    secs: 1723788843
    nsecs:  21990720
  frame_id: "map"
pose: 
  position: 
    x: 0.00751102343202
    y: 7.26904010773
    z: -1.04746377468
  orientation: 
    x: 0.00661058369933
    y: 0.0271389425193
    z: -0.641915110655
    w: 0.766266816228
---
header: 
  seq: 16608
  stamp: 
    secs: 1723788843
    nsecs:  61993536
  frame_id: "map"
pose: 
  position: 
    x: 0.00782958231866
    y: 7.26882648468
    z: -1.04778170586
  orientation: 
    x: 0.00666163011832
    y: 0.0270830834571
    z: -0.641921896297
    w: 0.76626264369
---
header: 
  seq: 16609
  stamp: 
    secs: 1723788843
    nsecs:  91993536
  frame_id: "map"
pose: 
  position: 
    x: 0.00801708456129
    y: 7.26862001419
    z: -1.04780066013
  orientation: 
    x: 0.00673978025363
    y: 0.0269754147227
    z: -0.641938581181
    w: 0.766251775072
---
header: 
  seq: 16610
  stamp: 
    secs: 1723788843
    nsecs: 121993536
  frame_id: "map"
pose: 
  position: 
    x: 0.00823322404176
    y: 7.26851463318
    z: -1.04792940617
  orientation: 
    x: 0.00668998638629
    y: 0.0269099501303
    z: -0.641948865012
    w: 0.766245874513
---
header: 
  seq: 16611
  stamp: 
    secs: 1723788843
    nsecs: 161996608
  frame_id: "map"
pose: 
  position: 
    x: 0.00865655951202
    y: 7.26861953735
    z: -1.04848301411
  orientation: 
    x: 0.00665270288897
    y: 0.0268805046297
    z: -0.641958832742
    w: 0.766238941356
---
header: 
  seq: 16612
  stamp: 
    secs: 1723788843
    nsecs: 191996608
  frame_id: "map"
pose: 
  position: 
    x: 0.00895199086517
    y: 7.26855993271
    z: -1.04866170883
  orientation: 
    x: 0.00667854944382
    y: 0.0268090209404
    z: -0.641998050384
    w: 0.766208405964
---
header: 
  seq: 16613
  stamp: 
    secs: 1723788843
    nsecs: 221996608
  frame_id: "map"
pose: 
  position: 
    x: 0.00927307084203
    y: 7.26855754852
    z: -1.04872572422
  orientation: 
    x: 0.00672672329167
    y: 0.0268344328559
    z: -0.642042294038
    w: 0.766170062869
---
header: 
  seq: 16614
  stamp: 
    secs: 1723788843
    nsecs: 251999424
  frame_id: "map"
pose: 
  position: 
    x: 0.00958213023841
    y: 7.26836442947
    z: -1.04842066765
  orientation: 
    x: 0.00673507034331
    y: 0.0268862794065
    z: -0.642068335522
    w: 0.766146213021
---
header: 
  seq: 16615
  stamp: 
    secs: 1723788843
    nsecs: 291999424
  frame_id: "map"
pose: 
  position: 
    x: 0.00993783492595
    y: 7.26813650131
    z: -1.04784488678
  orientation: 
    x: 0.00664551750985
    y: 0.0270173231781
    z: -0.642132045752
    w: 0.7660890777
---
header: 
  seq: 16616
  stamp: 
    secs: 1723788843
    nsecs: 321999424
  frame_id: "map"
pose: 
  position: 
    x: 0.0101745156571
    y: 7.26812267303
    z: -1.04777300358
  orientation: 
    x: 0.00657795874586
    y: 0.0271385717588
    z: -0.642162033235
    w: 0.766060186035
---
header: 
  seq: 16617
  stamp: 
    secs: 1723788843
    nsecs: 362002240
  frame_id: "map"
pose: 
  position: 
    x: 0.0103637576103
    y: 7.26813840866
    z: -1.04740285873
  orientation: 
    x: 0.00653258041945
    y: 0.0271440949716
    z: -0.64219364864
    w: 0.766033881133
---
header: 
  seq: 16618
  stamp: 
    secs: 1723788843
    nsecs: 392002240
  frame_id: "map"
pose: 
  position: 
    x: 0.010382254608
    y: 7.26810359955
    z: -1.04681813717
  orientation: 
    x: 0.00656678983101
    y: 0.0271324841733
    z: -0.642235352946
    w: 0.76599908891
---
header: 
  seq: 16619
  stamp: 
    secs: 1723788843
    nsecs: 422002240
  frame_id: "map"
pose: 
  position: 
    x: 0.0103029534221
    y: 7.26837444305
    z: -1.04670512676
  orientation: 
    x: 0.00667757874922
    y: 0.0269635852877
    z: -0.642255541287
    w: 0.765987161352
---
header: 
  seq: 16620
  stamp: 
    secs: 1723788843
    nsecs: 462006080
  frame_id: "map"
pose: 
  position: 
    x: 0.0101076290011
    y: 7.26866197586
    z: -1.04624319077
  orientation: 
    x: 0.00670692678521
    y: 0.0268340436561
    z: -0.642250878792
    w: 0.765995279888
---
header: 
  seq: 16621
  stamp: 
    secs: 1723788843
    nsecs: 492006080
  frame_id: "map"
pose: 
  position: 
    x: 0.00997159443796
    y: 7.26875448227
    z: -1.04606974125
  orientation: 
    x: 0.00675390800896
    y: 0.0266555458258
    z: -0.64227213134
    w: 0.765983299647
---
header: 
  seq: 16622
  stamp: 
    secs: 1723788843
    nsecs: 522006080
  frame_id: "map"
pose: 
  position: 
    x: 0.010092260316
    y: 7.26869869232
    z: -1.04623258114
  orientation: 
    x: 0.00677325209534
    y: 0.0265958197902
    z: -0.642325536665
    w: 0.765940431033
---
header: 
  seq: 16623
  stamp: 
    secs: 1723788843
    nsecs: 562009408
  frame_id: "map"
pose: 
  position: 
    x: 0.0104168085381
    y: 7.2682723999
    z: -1.04606115818
  orientation: 
    x: 0.00675949905183
    y: 0.0266202122787
    z: -0.642359117167
    w: 0.765911570979
---
header: 
  seq: 16624
  stamp: 
    secs: 1723788843
    nsecs: 592009408
  frame_id: "map"
pose: 
  position: 
    x: 0.0106563298032
    y: 7.26792860031
    z: -1.04610621929
  orientation: 
    x: 0.00668133903836
    y: 0.0268063077371
    z: -0.642396680546
    w: 0.765874260481
---
header: 
  seq: 16625
  stamp: 
    secs: 1723788843
    nsecs: 622009408
  frame_id: "map"
pose: 
  position: 
    x: 0.0107821011916
    y: 7.26787853241
    z: -1.04691827297
  orientation: 
    x: 0.00653124028138
    y: 0.0269902188033
    z: -0.642457192883
    w: 0.765818384297
---
header: 
  seq: 16626
  stamp: 
    secs: 1723788843
    nsecs: 662013504
  frame_id: "map"
pose: 
  position: 
    x: 0.010741234757
    y: 7.26783895493
    z: -1.04767537117
  orientation: 
    x: 0.00652638022291
    y: 0.0270115530112
    z: -0.642500572527
    w: 0.765781158093
---
header: 
  seq: 16627
  stamp: 
    secs: 1723788843
    nsecs: 692013504
  frame_id: "map"
pose: 
  position: 
    x: 0.0105547970161
    y: 7.26779079437
    z: -1.04810249805
  orientation: 
    x: 0.00660967556645
    y: 0.02686875422
    z: -0.642519506999
    w: 0.765769641466
---
header: 
  seq: 16628
  stamp: 
    secs: 1723788843
    nsecs: 722013504
  frame_id: "map"
pose: 
  position: 
    x: 0.0104826111346
    y: 7.26815223694
    z: -1.04866933823
  orientation: 
    x: 0.00671098539502
    y: 0.0266662366373
    z: -0.642550163563
    w: 0.76575011167
---
header: 
  seq: 16629
  stamp: 
    secs: 1723788843
    nsecs: 752016320
  frame_id: "map"
pose: 
  position: 
    x: 0.0104275112972
    y: 7.26840829849
    z: -1.04900789261
  orientation: 
    x: 0.00676429062167
    y: 0.0265721859449
    z: -0.64257270159
    w: 0.765733979964
---
header: 
  seq: 16630
  stamp: 
    secs: 1723788843
    nsecs: 792016320
  frame_id: "map"
pose: 
  position: 
    x: 0.0104562789202
    y: 7.26845502853
    z: -1.04917645454
  orientation: 
    x: 0.00681324879603
    y: 0.0264204579488
    z: -0.642574998593
    w: 0.76573690917
---
header: 
  seq: 16631
  stamp: 
    secs: 1723788843
    nsecs: 823016320
  frame_id: "map"
pose: 
  position: 
    x: 0.0106310741976
    y: 7.26842355728
    z: -1.04998087883
  orientation: 
    x: 0.00675417208531
    y: 0.0264960114431
    z: -0.642616555386
    w: 0.765699988531
---
header: 
  seq: 16632
  stamp: 
    secs: 1723788843
    nsecs: 862019392
  frame_id: "map"
pose: 
  position: 
    x: 0.010937102139
    y: 7.26825809479
    z: -1.05103468895
  orientation: 
    x: 0.00669991460329
    y: 0.0265443130486
    z: -0.642647812542
    w: 0.765672524591
---
header: 
  seq: 16633
  stamp: 
    secs: 1723788843
    nsecs: 892019392
  frame_id: "map"
pose: 
  position: 
    x: 0.0111134471372
    y: 7.26807880402
    z: -1.05154013634
  orientation: 
    x: 0.006601198123
    y: 0.0266261233742
    z: -0.642661094068
    w: 0.765659411652
---
header: 
  seq: 16634
  stamp: 
    secs: 1723788843
    nsecs: 922019392
  frame_id: "map"
pose: 
  position: 
    x: 0.0111676137894
    y: 7.26820993423
    z: -1.05260050297
  orientation: 
    x: 0.00661613522953
    y: 0.0265958211073
    z: -0.64269319943
    w: 0.765633375437
---
header: 
  seq: 16635
  stamp: 
    secs: 1723788843
    nsecs: 953022464
  frame_id: "map"
pose: 
  position: 
    x: 0.0111209880561
    y: 7.26830291748
    z: -1.05344951153
  orientation: 
    x: 0.00665057315603
    y: 0.0265062814447
    z: -0.642710400613
    w: 0.765621653345
---
header: 
  seq: 16636
  stamp: 
    secs: 1723788843
    nsecs: 993022464
  frame_id: "map"
pose: 
  position: 
    x: 0.0110291568562
    y: 7.2683224678
    z: -1.05433654785
  orientation: 
    x: 0.00669877071148
    y: 0.0263349808473
    z: -0.642751883648
    w: 0.765592308601
---
header: 
  seq: 16637
  stamp: 
    secs: 1723788844
    nsecs:  23022464
  frame_id: "map"
pose: 
  position: 
    x: 0.0110105527565
    y: 7.26857948303
    z: -1.0556397438
  orientation: 
    x: 0.00673116122311
    y: 0.0262446199797
    z: -0.642778704849
    w: 0.765572652365
---
header: 
  seq: 16638
  stamp: 
    secs: 1723788844
    nsecs:  53025280
  frame_id: "map"
pose: 
  position: 
    x: 0.0110422391444
    y: 7.26862955093
    z: -1.05656611919
  orientation: 
    x: 0.0067235425217
    y: 0.0262376822133
    z: -0.642783804618
    w: 0.765568732708
---
header: 
  seq: 16639
  stamp: 
    secs: 1723788844
    nsecs:  93025280
  frame_id: "map"
pose: 
  position: 
    x: 0.0110953301191
    y: 7.26861333847
    z: -1.05761837959
  orientation: 
    x: 0.00667063505592
    y: 0.0262922492112
    z: -0.642820883308
    w: 0.765536121584
---
header: 
  seq: 16640
  stamp: 
    secs: 1723788844
    nsecs: 123025280
  frame_id: "map"
pose: 
  position: 
    x: 0.0111386524513
    y: 7.26879262924
    z: -1.05867052078
  orientation: 
    x: 0.0066649248165
    y: 0.0263729597676
    z: -0.642871780895
    w: 0.765490703086
---
header: 
  seq: 16641
  stamp: 
    secs: 1723788844
    nsecs: 153028096
  frame_id: "map"
pose: 
  position: 
    x: 0.0111545808613
    y: 7.26887607574
    z: -1.05942285061
  orientation: 
    x: 0.00666395675607
    y: 0.0263834372107
    z: -0.642895667622
    w: 0.765470272401
---
header: 
  seq: 16642
  stamp: 
    secs: 1723788844
    nsecs: 193028096
  frame_id: "map"
pose: 
  position: 
    x: 0.011142087169
    y: 7.26889657974
    z: -1.06025016308
  orientation: 
    x: 0.00670328305845
    y: 0.026363859341
    z: -0.642959261948
    w: 0.765417130494
---
header: 
  seq: 16643
  stamp: 
    secs: 1723788844
    nsecs: 223028096
  frame_id: "map"
pose: 
  position: 
    x: 0.0111849214882
    y: 7.26908016205
    z: -1.06102001667
  orientation: 
    x: 0.00664672462193
    y: 0.0263393193385
    z: -0.643013726213
    w: 0.765372697179
---
header: 
  seq: 16644
  stamp: 
    secs: 1723788844
    nsecs: 253030912
  frame_id: "map"
pose: 
  position: 
    x: 0.0112521667033
    y: 7.26927947998
    z: -1.06188213825
  orientation: 
    x: 0.00660929031792
    y: 0.0263615228251
    z: -0.643055593839
    w: 0.76533715158
---
header: 
  seq: 16645
  stamp: 
    secs: 1723788844
    nsecs: 293030912
  frame_id: "map"
pose: 
  position: 
    x: 0.0113589353859
    y: 7.26926851273
    z: -1.06287026405
  orientation: 
    x: 0.00660338844204
    y: 0.0263732119901
    z: -0.643128428861
    w: 0.765275611913
---
header: 
  seq: 16646
  stamp: 
    secs: 1723788844
    nsecs: 323030912
  frame_id: "map"
pose: 
  position: 
    x: 0.0115255182609
    y: 7.26929473877
    z: -1.06381905079
  orientation: 
    x: 0.00662617144783
    y: 0.0264360529413
    z: -0.643179468695
    w: 0.765230304051
---
header: 
  seq: 16647
  stamp: 
    secs: 1723788844
    nsecs: 363033984
  frame_id: "map"
pose: 
  position: 
    x: 0.0117552932352
    y: 7.26929092407
    z: -1.06484353542
  orientation: 
    x: 0.0066351684829
    y: 0.0264452607106
    z: -0.643199372544
    w: 0.765213266188
---
header: 
  seq: 16648
  stamp: 
    secs: 1723788844
    nsecs: 393033984
  frame_id: "map"
pose: 
  position: 
    x: 0.0118882786483
    y: 7.26924180984
    z: -1.06523895264
  orientation: 
    x: 0.00656196665103
    y: 0.0265254562851
    z: -0.643259099897
    w: 0.765160872387
---
header: 
  seq: 16649
  stamp: 
    secs: 1723788844
    nsecs: 423033984
  frame_id: "map"
pose: 
  position: 
    x: 0.0118574313819
    y: 7.26942443848
    z: -1.06602084637
  orientation: 
    x: 0.00651417278336
    y: 0.0265824381658
    z: -0.643320160143
    w: 0.765107988628
---
header: 
  seq: 16650
  stamp: 
    secs: 1723788844
    nsecs: 453037568
  frame_id: "map"
pose: 
  position: 
    x: 0.0118056284264
    y: 7.2695069313
    z: -1.06637334824
  orientation: 
    x: 0.00651282803548
    y: 0.0265961293061
    z: -0.643339668866
    w: 0.765091008717
---
header: 
  seq: 16651
  stamp: 
    secs: 1723788844
    nsecs: 493037568
  frame_id: "map"
pose: 
  position: 
    x: 0.0117420880124
    y: 7.26946687698
    z: -1.06653785706
  orientation: 
    x: 0.00653098937592
    y: 0.0266573673599
    z: -0.643423082747
    w: 0.765018721603
---
header: 
  seq: 16652
  stamp: 
    secs: 1723788844
    nsecs: 523037568
  frame_id: "map"
pose: 
  position: 
    x: 0.0117838801816
    y: 7.26964330673
    z: -1.0666872263
  orientation: 
    x: 0.00650694196466
    y: 0.0266793522097
    z: -0.643457764335
    w: 0.764988844756
---
header: 
  seq: 16653
  stamp: 
    secs: 1723788844
    nsecs: 553040384
  frame_id: "map"
pose: 
  position: 
    x: 0.0117749581113
    y: 7.26977920532
    z: -1.0667167902
  orientation: 
    x: 0.00647114150958
    y: 0.0266745468105
    z: -0.643475107764
    w: 0.764974788782
---
header: 
  seq: 16654
  stamp: 
    secs: 1723788844
    nsecs: 593040384
  frame_id: "map"
pose: 
  position: 
    x: 0.0116971768439
    y: 7.26982450485
    z: -1.06646347046
  orientation: 
    x: 0.00642802725918
    y: 0.0266604888608
    z: -0.64351245514
    w: 0.764944184902
---
header: 
  seq: 16655
  stamp: 
    secs: 1723788844
    nsecs: 623040384
  frame_id: "map"
pose: 
  position: 
    x: 0.0116956187412
    y: 7.26995897293
    z: -1.06654024124
  orientation: 
    x: 0.00645249613892
    y: 0.0265414687948
    z: -0.64354235306
    w: 0.764923053525
---
header: 
  seq: 16656
  stamp: 
    secs: 1723788844
    nsecs: 663043200
  frame_id: "map"
pose: 
  position: 
    x: 0.0116993505508
    y: 7.26996231079
    z: -1.06646859646
  orientation: 
    x: 0.00645649021136
    y: 0.0264735432216
    z: -0.643546378084
    w: 0.764921894487
---
header: 
  seq: 16657
  stamp: 
    secs: 1723788844
    nsecs: 693043200
  frame_id: "map"
pose: 
  position: 
    x: 0.0117547698319
    y: 7.26981830597
    z: -1.0662997961
  orientation: 
    x: 0.006522016707
    y: 0.0264250730287
    z: -0.643591375114
    w: 0.76488515824
---
header: 
  seq: 16658
  stamp: 
    secs: 1723788844
    nsecs: 723043200
  frame_id: "map"
pose: 
  position: 
    x: 0.0120454207063
    y: 7.26981258392
    z: -1.06703972816
  orientation: 
    x: 0.00652410429309
    y: 0.0264889031137
    z: -0.643638490022
    w: 0.764843353835
---
header: 
  seq: 16659
  stamp: 
    secs: 1723788844
    nsecs: 753046016
  frame_id: "map"
pose: 
  position: 
    x: 0.0123881865293
    y: 7.26969432831
    z: -1.06766736507
  orientation: 
    x: 0.00649108750563
    y: 0.0265599521635
    z: -0.643682754749
    w: 0.764803893848
---
header: 
  seq: 16660
  stamp: 
    secs: 1723788844
    nsecs: 793046016
  frame_id: "map"
pose: 
  position: 
    x: 0.0128982644528
    y: 7.26933050156
    z: -1.06819343567
  orientation: 
    x: 0.00640441448731
    y: 0.0268325770775
    z: -0.643785587791
    w: 0.764708647239
---
header: 
  seq: 16661
  stamp: 
    secs: 1723788844
    nsecs: 823046016
  frame_id: "map"
pose: 
  position: 
    x: 0.0131559055299
    y: 7.26908683777
    z: -1.06883466244
  orientation: 
    x: 0.0063424098877
    y: 0.0271155734089
    z: -0.643864850208
    w: 0.764632335101
---
header: 
  seq: 16662
  stamp: 
    secs: 1723788844
    nsecs: 853048320
  frame_id: "map"
pose: 
  position: 
    x: 0.0132160196081
    y: 7.26903343201
    z: -1.06963479519
  orientation: 
    x: 0.00630912704827
    y: 0.0271809958545
    z: -0.643892156098
    w: 0.764607305141
---
header: 
  seq: 16663
  stamp: 
    secs: 1723788844
    nsecs: 893048320
  frame_id: "map"
pose: 
  position: 
    x: 0.0130468579009
    y: 7.26906585693
    z: -1.0709028244
  orientation: 
    x: 0.00630937070974
    y: 0.0272194956835
    z: -0.64391570565
    w: 0.764586200107
---
header: 
  seq: 16664
  stamp: 
    secs: 1723788844
    nsecs: 923048320
  frame_id: "map"
pose: 
  position: 
    x: 0.0128827150911
    y: 7.26955747604
    z: -1.07263553143
  orientation: 
    x: 0.00640260283136
    y: 0.0269813705993
    z: -0.643929824844
    w: 0.764581858982
---
header: 
  seq: 16665
  stamp: 
    secs: 1723788844
    nsecs: 963050624
  frame_id: "map"
pose: 
  position: 
    x: 0.0125537579879
    y: 7.27014398575
    z: -1.0746281147
  orientation: 
    x: 0.00648867591565
    y: 0.0267797914425
    z: -0.64392211197
    w: 0.764594798064
---
header: 
  seq: 16666
  stamp: 
    secs: 1723788844
    nsecs: 993050624
  frame_id: "map"
pose: 
  position: 
    x: 0.0123661933467
    y: 7.27043867111
    z: -1.07601344585
  orientation: 
    x: 0.00669875095515
    y: 0.0263849498874
    z: -0.64391477315
    w: 0.764612926477
---
header: 
  seq: 16667
  stamp: 
    secs: 1723788845
    nsecs:  23050624
  frame_id: "map"
pose: 
  position: 
    x: 0.0124674392864
    y: 7.27068328857
    z: -1.07785403728
  orientation: 
    x: 0.00676937458527
    y: 0.0261601794272
    z: -0.643904963471
    w: 0.764628130953
---
header: 
  seq: 16668
  stamp: 
    secs: 1723788845
    nsecs:  53053952
  frame_id: "map"
pose: 
  position: 
    x: 0.0126521345228
    y: 7.27077817917
    z: -1.07937657833
  orientation: 
    x: 0.00673222674812
    y: 0.0261500411345
    z: -0.643923039201
    w: 0.764613595559
---
header: 
  seq: 16669
  stamp: 
    secs: 1723788845
    nsecs:  93053952
  frame_id: "map"
pose: 
  position: 
    x: 0.0130124166608
    y: 7.27065515518
    z: -1.08094954491
  orientation: 
    x: 0.00660942136827
    y: 0.0263064322843
    z: -0.643955919011
    w: 0.764581727273
---
header: 
  seq: 16670
  stamp: 
    secs: 1723788845
    nsecs: 123053952
  frame_id: "map"
pose: 
  position: 
    x: 0.0130814975128
    y: 7.27073287964
    z: -1.08220779896
  orientation: 
    x: 0.00655197455521
    y: 0.0264531592934
    z: -0.644023996708
    w: 0.764519718722
---
header: 
  seq: 16671
  stamp: 
    secs: 1723788845
    nsecs: 163057024
  frame_id: "map"
pose: 
  position: 
    x: 0.0130154620856
    y: 7.270840168
    z: -1.08399021626
  orientation: 
    x: 0.0065716828167
    y: 0.0265002432501
    z: -0.644056945007
    w: 0.764490226465
---
header: 
  seq: 16672
  stamp: 
    secs: 1723788845
    nsecs: 193057024
  frame_id: "map"
pose: 
  position: 
    x: 0.0129288304597
    y: 7.27084684372
    z: -1.08514177799
  orientation: 
    x: 0.00660707299856
    y: 0.0265095814112
    z: -0.644114064524
    w: 0.764441367731
---
header: 
  seq: 16673
  stamp: 
    secs: 1723788845
    nsecs: 223057024
  frame_id: "map"
pose: 
  position: 
    x: 0.0129314940423
    y: 7.27100133896
    z: -1.08623087406
  orientation: 
    x: 0.00660389157004
    y: 0.0265416097234
    z: -0.644166142223
    w: 0.764396539289
---
header: 
  seq: 16674
  stamp: 
    secs: 1723788845
    nsecs: 253060352
  frame_id: "map"
pose: 
  position: 
    x: 0.0129821980372
    y: 7.27120113373
    z: -1.08721935749
  orientation: 
    x: 0.00658461004539
    y: 0.0265336143345
    z: -0.644193790556
    w: 0.764373695697
---
header: 
  seq: 16675
  stamp: 
    secs: 1723788845
    nsecs: 294060352
  frame_id: "map"
pose: 
  position: 
    x: 0.0130145419389
    y: 7.27134943008
    z: -1.08827292919
  orientation: 
    x: 0.0065350328392
    y: 0.0265309268143
    z: -0.644240578826
    w: 0.764334662447
---
header: 
  seq: 16676
  stamp: 
    secs: 1723788845
    nsecs: 324060352
  frame_id: "map"
pose: 
  position: 
    x: 0.0130510916933
    y: 7.27151727676
    z: -1.0883783102
  orientation: 
    x: 0.00654754979466
    y: 0.0265217605333
    z: -0.644285106972
    w: 0.764297383559
---
header: 
  seq: 16677
  stamp: 
    secs: 1723788845
    nsecs: 354063168
  frame_id: "map"
pose: 
  position: 
    x: 0.0131058115512
    y: 7.27162742615
    z: -1.08834922314
  orientation: 
    x: 0.00657512700448
    y: 0.0265209202305
    z: -0.644303804367
    w: 0.764281467856
---
header: 
  seq: 16678
  stamp: 
    secs: 1723788845
    nsecs: 394063168
  frame_id: "map"
pose: 
  position: 
    x: 0.0132642248645
    y: 7.27162694931
    z: -1.08795678616
  orientation: 
    x: 0.0066139093491
    y: 0.0265728220989
    z: -0.644361166228
    w: 0.764230933784
---
header: 
  seq: 16679
  stamp: 
    secs: 1723788845
    nsecs: 424063168
  frame_id: "map"
pose: 
  position: 
    x: 0.0134461503476
    y: 7.27170991898
    z: -1.08802866936
  orientation: 
    x: 0.00654899925112
    y: 0.0267303261888
    z: -0.644417279489
    w: 0.764178698034
---
header: 
  seq: 16680
  stamp: 
    secs: 1723788845
    nsecs: 454065728
  frame_id: "map"
pose: 
  position: 
    x: 0.0135954339057
    y: 7.27174854279
    z: -1.08796823025
  orientation: 
    x: 0.00650453169176
    y: 0.0268416597233
    z: -0.644422031546
    w: 0.764171079991
---
header: 
  seq: 16681
  stamp: 
    secs: 1723788845
    nsecs: 494065728
  frame_id: "map"
pose: 
  position: 
    x: 0.0136798657477
    y: 7.27182006836
    z: -1.08752095699
  orientation: 
    x: 0.00644004898918
    y: 0.0269455787053
    z: -0.644478919255
    w: 0.764120092841
---
header: 
  seq: 16682
  stamp: 
    secs: 1723788845
    nsecs: 524065728
  frame_id: "map"
pose: 
  position: 
    x: 0.0137272840366
    y: 7.27200889587
    z: -1.08770918846
  orientation: 
    x: 0.00644639208988
    y: 0.026905491784
    z: -0.644519453986
    w: 0.764087144542
---
header: 
  seq: 16683
  stamp: 
    secs: 1723788845
    nsecs: 554068800
  frame_id: "map"
pose: 
  position: 
    x: 0.0137152299285
    y: 7.27213144302
    z: -1.08785629272
  orientation: 
    x: 0.00649956560763
    y: 0.0268444473423
    z: -0.644554072354
    w: 0.764059691139
---
header: 
  seq: 16684
  stamp: 
    secs: 1723788845
    nsecs: 594068800
  frame_id: "map"
pose: 
  position: 
    x: 0.0136925876141
    y: 7.27214050293
    z: -1.08781290054
  orientation: 
    x: 0.00656757942587
    y: 0.0267355273734
    z: -0.644581156972
    w: 0.764040192953
---
header: 
  seq: 16685
  stamp: 
    secs: 1723788845
    nsecs: 624068800
  frame_id: "map"
pose: 
  position: 
    x: 0.013727129437
    y: 7.27223348618
    z: -1.08817541599
  orientation: 
    x: 0.00659409637903
    y: 0.0266968378835
    z: -0.644613662729
    w: 0.764013756342
---
header: 
  seq: 16686
  stamp: 
    secs: 1723788845
    nsecs: 654071616
  frame_id: "map"
pose: 
  position: 
    x: 0.0137750003487
    y: 7.27225255966
    z: -1.08848011494
  orientation: 
    x: 0.0065992198553
    y: 0.0266933291584
    z: -0.644624099343
    w: 0.764005005603
---
header: 
  seq: 16687
  stamp: 
    secs: 1723788845
    nsecs: 694071616
  frame_id: "map"
pose: 
  position: 
    x: 0.0138390194625
    y: 7.27215099335
    z: -1.08877944946
  orientation: 
    x: 0.00657034662989
    y: 0.0266560555392
    z: -0.644654640003
    w: 0.763980871264
---
header: 
  seq: 16688
  stamp: 
    secs: 1723788845
    nsecs: 724071616
  frame_id: "map"
pose: 
  position: 
    x: 0.0138904955238
    y: 7.27221012115
    z: -1.08949458599
  orientation: 
    x: 0.00656272661139
    y: 0.026614245207
    z: -0.644710400283
    w: 0.76393531052
---
header: 
  seq: 16689
  stamp: 
    secs: 1723788845
    nsecs: 754074432
  frame_id: "map"
pose: 
  position: 
    x: 0.0139942336828
    y: 7.27214431763
    z: -1.09005522728
  orientation: 
    x: 0.00656461399995
    y: 0.0266172415845
    z: -0.644740082201
    w: 0.763910180462
---
header: 
  seq: 16690
  stamp: 
    secs: 1723788845
    nsecs: 794074432
  frame_id: "map"
pose: 
  position: 
    x: 0.0141904298216
    y: 7.27191209793
    z: -1.09064459801
  orientation: 
    x: 0.0065564605604
    y: 0.0267538349107
    z: -0.644806563586
    w: 0.763849346755
---
header: 
  seq: 16691
  stamp: 
    secs: 1723788845
    nsecs: 824074432
  frame_id: "map"
pose: 
  position: 
    x: 0.0144015066326
    y: 7.27174329758
    z: -1.0909576416
  orientation: 
    x: 0.00646128639101
    y: 0.0268898572788
    z: -0.644853504639
    w: 0.76380577745
---
header: 
  seq: 16692
  stamp: 
    secs: 1723788845
    nsecs: 854078016
  frame_id: "map"
pose: 
  position: 
    x: 0.0145995207131
    y: 7.27155351639
    z: -1.09111309052
  orientation: 
    x: 0.00637650339542
    y: 0.026960444689
    z: -0.644889808881
    w: 0.763773350718
---
header: 
  seq: 16693
  stamp: 
    secs: 1723788845
    nsecs: 894078016
  frame_id: "map"
pose: 
  position: 
    x: 0.0147494552657
    y: 7.27134609222
    z: -1.09131360054
  orientation: 
    x: 0.00634577044032
    y: 0.0269805961509
    z: -0.644936428563
    w: 0.763733474531
---
header: 
  seq: 16694
  stamp: 
    secs: 1723788845
    nsecs: 924078016
  frame_id: "map"
pose: 
  position: 
    x: 0.0147643545642
    y: 7.27133798599
    z: -1.09161448479
  orientation: 
    x: 0.00645837233157
    y: 0.026865602426
    z: -0.644962138141
    w: 0.763714845624
---
header: 
  seq: 16695
  stamp: 
    secs: 1723788845
    nsecs: 954080576
  frame_id: "map"
pose: 
  position: 
    x: 0.014750637114
    y: 7.27133560181
    z: -1.09165143967
  orientation: 
    x: 0.00648944970544
    y: 0.0268084677631
    z: -0.644971452595
    w: 0.763708818625
---
header: 
  seq: 16696
  stamp: 
    secs: 1723788845
    nsecs: 994080576
  frame_id: "map"
pose: 
  position: 
    x: 0.014772455208
    y: 7.27121591568
    z: -1.09145367146
  orientation: 
    x: 0.00651282737693
    y: 0.026696334097
    z: -0.645003120683
    w: 0.763685748494
---
header: 
  seq: 16697
  stamp: 
    secs: 1723788846
    nsecs:  24080576
  frame_id: "map"
pose: 
  position: 
    x: 0.0148540185764
    y: 7.27134037018
    z: -1.09156155586
  orientation: 
    x: 0.00649631964175
    y: 0.0266834944547
    z: -0.64503402486
    w: 0.763660239114
---
header: 
  seq: 16698
  stamp: 
    secs: 1723788846
    nsecs:  54083648
  frame_id: "map"
pose: 
  position: 
    x: 0.0149822738022
    y: 7.27136230469
    z: -1.09158229828
  orientation: 
    x: 0.00647686294426
    y: 0.0267085329754
    z: -0.645054539838
    w: 0.763642168652
---
header: 
  seq: 16699
  stamp: 
    secs: 1723788846
    nsecs:  94083648
  frame_id: "map"
pose: 
  position: 
    x: 0.0151551198214
    y: 7.27123594284
    z: -1.09151387215
  orientation: 
    x: 0.00642347539954
    y: 0.0267811737274
    z: -0.645100179607
    w: 0.763601502212
---
header: 
  seq: 16700
  stamp: 
    secs: 1723788846
    nsecs: 124083648
  frame_id: "map"
pose: 
  position: 
    x: 0.0152761042118
    y: 7.27113103867
    z: -1.09119319916
  orientation: 
    x: 0.00642035653275
    y: 0.0267703024746
    z: -0.645119693597
    w: 0.763585444263
---
header: 
  seq: 16701
  stamp: 
    secs: 1723788846
    nsecs: 154087232
  frame_id: "map"
pose: 
  position: 
    x: 0.0154334809631
    y: 7.27105426788
    z: -1.09040343761
  orientation: 
    x: 0.00644632557688
    y: 0.0267468306313
    z: -0.645151024511
    w: 0.763559592439
---
header: 
  seq: 16702
  stamp: 
    secs: 1723788846
    nsecs: 194087232
  frame_id: "map"
pose: 
  position: 
    x: 0.015614672564
    y: 7.27095556259
    z: -1.08959245682
  orientation: 
    x: 0.00646241579485
    y: 0.0267251164432
    z: -0.645189499315
    w: 0.763527692543
---
header: 
  seq: 16703
  stamp: 
    secs: 1723788846
    nsecs: 224087232
  frame_id: "map"
pose: 
  position: 
    x: 0.0158092994243
    y: 7.27116060257
    z: -1.08975684643
  orientation: 
    x: 0.0064399027923
    y: 0.0266939791418
    z: -0.645241260914
    w: 0.763485287545
---
header: 
  seq: 16704
  stamp: 
    secs: 1723788846
    nsecs: 254090304
  frame_id: "map"
pose: 
  position: 
    x: 0.0160226747394
    y: 7.27124261856
    z: -1.08983492851
  orientation: 
    x: 0.00644484187611
    y: 0.0267106482204
    z: -0.645262086725
    w: 0.763466990545
---
header: 
  seq: 16705
  stamp: 
    secs: 1723788846
    nsecs: 294090304
  frame_id: "map"
pose: 
  position: 
    x: 0.0163169763982
    y: 7.2712264061
    z: -1.08972132206
  orientation: 
    x: 0.00650762026551
    y: 0.0267221510173
    z: -0.64531110351
    w: 0.763424717256
---
header: 
  seq: 16706
  stamp: 
    secs: 1723788846
    nsecs: 324090304
  frame_id: "map"
pose: 
  position: 
    x: 0.016451722011
    y: 7.27143001556
    z: -1.08988702297
  orientation: 
    x: 0.0064959785157
    y: 0.0267304368243
    z: -0.64534170739
    w: 0.763398580941
---
header: 
  seq: 16707
  stamp: 
    secs: 1723788846
    nsecs: 354093120
  frame_id: "map"
pose: 
  position: 
    x: 0.0165287852287
    y: 7.2716960907
    z: -1.09009122849
  orientation: 
    x: 0.00648942402221
    y: 0.0267361141365
    z: -0.645363239162
    w: 0.763380252331
---
header: 
  seq: 16708
  stamp: 
    secs: 1723788846
    nsecs: 394093120
  frame_id: "map"
pose: 
  position: 
    x: 0.016631513834
    y: 7.27186965942
    z: -1.09001624584
  orientation: 
    x: 0.00641151293856
    y: 0.0267034002795
    z: -0.645413810111
    w: 0.763339290862
---
header: 
  seq: 16709
  stamp: 
    secs: 1723788846
    nsecs: 424093120
  frame_id: "map"
pose: 
  position: 
    x: 0.0166712645441
    y: 7.27209663391
    z: -1.08971524239
  orientation: 
    x: 0.00644696107233
    y: 0.0267196057428
    z: -0.645444219063
    w: 0.763312675127
---
header: 
  seq: 16710
  stamp: 
    secs: 1723788846
    nsecs: 454096704
  frame_id: "map"
pose: 
  position: 
    x: 0.0167038757354
    y: 7.27232027054
    z: -1.08921766281
  orientation: 
    x: 0.00647325543745
    y: 0.0266971493751
    z: -0.645471988567
    w: 0.763289794657
---
header: 
  seq: 16711
  stamp: 
    secs: 1723788846
    nsecs: 494096704
  frame_id: "map"
pose: 
  position: 
    x: 0.0167543441057
    y: 7.27251243591
    z: -1.08848369122
  orientation: 
    x: 0.00649736606897
    y: 0.0266947180287
    z: -0.645513534823
    w: 0.763254570428
---
header: 
  seq: 16712
  stamp: 
    secs: 1723788846
    nsecs: 524096704
  frame_id: "map"
pose: 
  position: 
    x: 0.0168549157679
    y: 7.27273368835
    z: -1.08828806877
  orientation: 
    x: 0.00643171510843
    y: 0.0267225500953
    z: -0.645562862441
    w: 0.763212492068
---
header: 
  seq: 16713
  stamp: 
    secs: 1723788846
    nsecs: 554099520
  frame_id: "map"
pose: 
  position: 
    x: 0.0169643778354
    y: 7.2728805542
    z: -1.08809375763
  orientation: 
    x: 0.00638904471703
    y: 0.0267380199643
    z: -0.645575553911
    w: 0.763201570766
---
header: 
  seq: 16714
  stamp: 
    secs: 1723788846
    nsecs: 594099520
  frame_id: "map"
pose: 
  position: 
    x: 0.0170988272876
    y: 7.27293777466
    z: -1.08780264854
  orientation: 
    x: 0.00637467000751
    y: 0.0268064611779
    z: -0.645610114327
    w: 0.763170044924
---
header: 
  seq: 16715
  stamp: 
    secs: 1723788846
    nsecs: 624099520
  frame_id: "map"
pose: 
  position: 
    x: 0.017077460885
    y: 7.27315187454
    z: -1.0879958868
  orientation: 
    x: 0.00643341876307
    y: 0.0268083828108
    z: -0.645646218371
    w: 0.763138829914
---
header: 
  seq: 16716
  stamp: 
    secs: 1723788846
    nsecs: 654103104
  frame_id: "map"
pose: 
  position: 
    x: 0.0170489046723
    y: 7.27327442169
    z: -1.08813858032
  orientation: 
    x: 0.00646991595825
    y: 0.0267863867657
    z: -0.645664462688
    w: 0.763123957345
---
header: 
  seq: 16717
  stamp: 
    secs: 1723788846
    nsecs: 694103104
  frame_id: "map"
pose: 
  position: 
    x: 0.0170050244778
    y: 7.27345085144
    z: -1.08840787411
  orientation: 
    x: 0.00647239998813
    y: 0.0267274812766
    z: -0.645688244047
    w: 0.763105823663
---
header: 
  seq: 16718
  stamp: 
    secs: 1723788846
    nsecs: 725103104
  frame_id: "map"
pose: 
  position: 
    x: 0.0168732497841
    y: 7.27363777161
    z: -1.08864951134
  orientation: 
    x: 0.00647139307358
    y: 0.0266974259638
    z: -0.645724932879
    w: 0.763075794034
---
header: 
  seq: 16719
  stamp: 
    secs: 1723788846
    nsecs: 755107200
  frame_id: "map"
pose: 
  position: 
    x: 0.0167475305498
    y: 7.27373313904
    z: -1.0888812542
  orientation: 
    x: 0.00646891892186
    y: 0.0266534279466
    z: -0.645738778119
    w: 0.763065657717
---
header: 
  seq: 16720
  stamp: 
    secs: 1723788846
    nsecs: 795107200
  frame_id: "map"
pose: 
  position: 
    x: 0.0166357774287
    y: 7.27369260788
    z: -1.08904695511
  orientation: 
    x: 0.00648219781332
    y: 0.0265835748136
    z: -0.645773006628
    w: 0.76303901564
---
header: 
  seq: 16721
  stamp: 
    secs: 1723788846
    nsecs: 825107200
  frame_id: "map"
pose: 
  position: 
    x: 0.0165476705879
    y: 7.27378368378
    z: -1.08916139603
  orientation: 
    x: 0.00654748855002
    y: 0.0265699324056
    z: -0.645803726412
    w: 0.763012932009
---
header: 
  seq: 16722
  stamp: 
    secs: 1723788846
    nsecs: 855110016
  frame_id: "map"
pose: 
  position: 
    x: 0.0164833087474
    y: 7.27380228043
    z: -1.08909654617
  orientation: 
    x: 0.00652776580055
    y: 0.0265545389277
    z: -0.645803378701
    w: 0.763014038364
---
header: 
  seq: 16723
  stamp: 
    secs: 1723788846
    nsecs: 885110016
  frame_id: "map"
pose: 
  position: 
    x: 0.0164420120418
    y: 7.2737364769
    z: -1.08873844147
  orientation: 
    x: 0.0064642854027
    y: 0.0265987134347
    z: -0.645876919683
    w: 0.762950696919
---
header: 
  seq: 16724
  stamp: 
    secs: 1723788846
    nsecs: 925110016
  frame_id: "map"
pose: 
  position: 
    x: 0.0164153259248
    y: 7.27373504639
    z: -1.08817780018
  orientation: 
    x: 0.0063984131712
    y: 0.0266042682577
    z: -0.645898509406
    w: 0.762932731825
---
header: 
  seq: 16725
  stamp: 
    secs: 1723788846
    nsecs: 955112576
  frame_id: "map"
pose: 
  position: 
    x: 0.0164056513458
    y: 7.27365446091
    z: -1.08770883083
  orientation: 
    x: 0.00639698873943
    y: 0.0266189267999
    z: -0.645921426755
    w: 0.762912933343
---
header: 
  seq: 16726
  stamp: 
    secs: 1723788846
    nsecs: 995112576
  frame_id: "map"
pose: 
  position: 
    x: 0.0163310132921
    y: 7.27353572845
    z: -1.08701348305
  orientation: 
    x: 0.00643657977671
    y: 0.0266054114909
    z: -0.645953326651
    w: 0.762886006775
---
header: 
  seq: 16727
  stamp: 
    secs: 1723788847
    nsecs:  25112576
  frame_id: "map"
pose: 
  position: 
    x: 0.0161796100438
    y: 7.27362060547
    z: -1.08683264256
  orientation: 
    x: 0.00647171115058
    y: 0.0265713232516
    z: -0.645977455722
    w: 0.762866429564
---
header: 
  seq: 16728
  stamp: 
    secs: 1723788847
    nsecs:  55116160
  frame_id: "map"
pose: 
  position: 
    x: 0.0160789377987
    y: 7.27362442017
    z: -1.08659040928
  orientation: 
    x: 0.00646832491472
    y: 0.0265154668235
    z: -0.646001237081
    w: 0.762848295882
---
header: 
  seq: 16729
  stamp: 
    secs: 1723788847
    nsecs:  95116160
  frame_id: "map"
pose: 
  position: 
    x: 0.0160483904183
    y: 7.27345561981
    z: -1.08629631996
  orientation: 
    x: 0.00651199300104
    y: 0.0264917341965
    z: -0.646057429367
    w: 0.762801123022
---
header: 
  seq: 16730
  stamp: 
    secs: 1723788847
    nsecs: 125116160
  frame_id: "map"
pose: 
  position: 
    x: 0.0160077512264
    y: 7.27344512939
    z: -1.08658742905
  orientation: 
    x: 0.00648325346017
    y: 0.0265604421207
    z: -0.646094160345
    w: 0.762768016672
---
header: 
  seq: 16731
  stamp: 
    secs: 1723788847
    nsecs: 155118976
  frame_id: "map"
pose: 
  position: 
    x: 0.015967451036
    y: 7.27337646484
    z: -1.08678269386
  orientation: 
    x: 0.00644437760223
    y: 0.0265883624322
    z: -0.646112968376
    w: 0.762751315984
---
header: 
  seq: 16732
  stamp: 
    secs: 1723788847
    nsecs: 195118976
  frame_id: "map"
pose: 
  position: 
    x: 0.0158914960921
    y: 7.27317762375
    z: -1.08681428432
  orientation: 
    x: 0.00642006084627
    y: 0.0266362313739
    z: -0.646155262739
    w: 0.762714079243
---
header: 
  seq: 16733
  stamp: 
    secs: 1723788847
    nsecs: 225118976
  frame_id: "map"
pose: 
  position: 
    x: 0.015827877447
    y: 7.27336168289
    z: -1.0861082077
  orientation: 
    x: 0.00645428869707
    y: 0.0265889617077
    z: -0.646187489273
    w: 0.762688174736
---
header: 
  seq: 16734
  stamp: 
    secs: 1723788847
    nsecs: 255122560
  frame_id: "map"
pose: 
  position: 
    x: 0.0157533790916
    y: 7.27348184586
    z: -1.08548343182
  orientation: 
    x: 0.00650681091431
    y: 0.0265766554864
    z: -0.646205301585
    w: 0.762672975529
---
header: 
  seq: 16735
  stamp: 
    secs: 1723788847
    nsecs: 295122560
  frame_id: "map"
pose: 
  position: 
    x: 0.0156715065241
    y: 7.27352571487
    z: -1.084679842
  orientation: 
    x: 0.00654759391714
    y: 0.0264920766396
    z: -0.646223213995
    w: 0.762660373621
---
header: 
  seq: 16736
  stamp: 
    secs: 1723788847
    nsecs: 325122560
  frame_id: "map"
pose: 
  position: 
    x: 0.0156156048179
    y: 7.27356147766
    z: -1.08453428745
  orientation: 
    x: 0.00654842104904
    y: 0.0264583117456
    z: -0.646259165257
    w: 0.762631165855
---
header: 
  seq: 16737
  stamp: 
    secs: 1723788847
    nsecs: 355125888
  frame_id: "map"
pose: 
  position: 
    x: 0.0155845778063
    y: 7.27355909348
    z: -1.08435809612
  orientation: 
    x: 0.00652467788535
    y: 0.0264699508613
    z: -0.646267041449
    w: 0.762624216894
---
header: 
  seq: 16738
  stamp: 
    secs: 1723788847
    nsecs: 385125888
  frame_id: "map"
pose: 
  position: 
    x: 0.0155841168016
    y: 7.273458004
    z: -1.08397722244
  orientation: 
    x: 0.00649713952966
    y: 0.0265451177899
    z: -0.646312301896
    w: 0.7625835926
---
header: 
  seq: 16739
  stamp: 
    secs: 1723788847
    nsecs: 425125888
  frame_id: "map"
pose: 
  position: 
    x: 0.015539502725
    y: 7.27343797684
    z: -1.08398926258
  orientation: 
    x: 0.00646777437151
    y: 0.0265680924322
    z: -0.646330040451
    w: 0.762567877094
---
header: 
  seq: 16740
  stamp: 
    secs: 1723788847
    nsecs: 455128704
  frame_id: "map"
pose: 
  position: 
    x: 0.0155315967277
    y: 7.27334499359
    z: -1.08415150642
  orientation: 
    x: 0.00649815237112
    y: 0.026590453311
    z: -0.646358984799
    w: 0.762542304494
---
header: 
  seq: 16741
  stamp: 
    secs: 1723788847
    nsecs: 495128704
  frame_id: "map"
pose: 
  position: 
    x: 0.015552056022
    y: 7.27319097519
    z: -1.08455526829
  orientation: 
    x: 0.00648568151377
    y: 0.02657974867
    z: -0.646418933423
    w: 0.762491965351
---
header: 
  seq: 16742
  stamp: 
    secs: 1723788847
    nsecs: 525128704
  frame_id: "map"
pose: 
  position: 
    x: 0.0154914092273
    y: 7.27321434021
    z: -1.0848287344
  orientation: 
    x: 0.006434793804
    y: 0.0266637848761
    z: -0.646482348625
    w: 0.762435715114
---
header: 
  seq: 16743
  stamp: 
    secs: 1723788847
    nsecs: 555132288
  frame_id: "map"
pose: 
  position: 
    x: 0.0154350213706
    y: 7.27318143845
    z: -1.08506095409
  orientation: 
    x: 0.00641244412049
    y: 0.0267149261255
    z: -0.646507620929
    w: 0.762412803033
---
header: 
  seq: 16744
  stamp: 
    secs: 1723788847
    nsecs: 595132288
  frame_id: "map"
pose: 
  position: 
    x: 0.0153297511861
    y: 7.27306652069
    z: -1.08534610271
  orientation: 
    x: 0.00632676418728
    y: 0.0267701207164
    z: -0.646558982132
    w: 0.762367932445
---
header: 
  seq: 16745
  stamp: 
    secs: 1723788847
    nsecs: 625132288
  frame_id: "map"
pose: 
  position: 
    x: 0.0150165939704
    y: 7.27315711975
    z: -1.08612644672
  orientation: 
    x: 0.00632735029189
    y: 0.0267509952668
    z: -0.64660132391
    w: 0.762332755631
---
header: 
  seq: 16746
  stamp: 
    secs: 1723788847
    nsecs: 655135104
  frame_id: "map"
pose: 
  position: 
    x: 0.0146749727428
    y: 7.27321243286
    z: -1.0868486166
  orientation: 
    x: 0.00636183299942
    y: 0.026720519144
    z: -0.646629214587
    w: 0.762309753989
---
header: 
  seq: 16747
  stamp: 
    secs: 1723788847
    nsecs: 695135104
  frame_id: "map"
pose: 
  position: 
    x: 0.0142344934866
    y: 7.27324914932
    z: -1.0874196291
  orientation: 
    x: 0.00639046717317
    y: 0.0266450466507
    z: -0.646658638356
    w: 0.762287242303
---
header: 
  seq: 16748
  stamp: 
    secs: 1723788847
    nsecs: 725135104
  frame_id: "map"
pose: 
  position: 
    x: 0.013995221816
    y: 7.27339410782
    z: -1.08787512779
  orientation: 
    x: 0.00641260480535
    y: 0.0265553265469
    z: -0.646683921196
    w: 0.762268702958
---
header: 
  seq: 16749
  stamp: 
    secs: 1723788847
    nsecs: 755138688
  frame_id: "map"
pose: 
  position: 
    x: 0.0138387493789
    y: 7.27342844009
    z: -1.08811354637
  orientation: 
    x: 0.00639647178199
    y: 0.0265292758433
    z: -0.646706269563
    w: 0.762250822158
---
header: 
  seq: 16750
  stamp: 
    secs: 1723788847
    nsecs: 795138688
  frame_id: "map"
pose: 
  position: 
    x: 0.0137314461172
    y: 7.27328968048
    z: -1.08832132816
  orientation: 
    x: 0.00638457715109
    y: 0.0265888306573
    z: -0.646769995598
    w: 0.762194766849
---
header: 
  seq: 16751
  stamp: 
    secs: 1723788847
    nsecs: 825138688
  frame_id: "map"
pose: 
  position: 
    x: 0.01363517344
    y: 7.27321720123
    z: -1.08866512775
  orientation: 
    x: 0.00630239343067
    y: 0.0267075161827
    z: -0.646837404214
    w: 0.762134186023
---
header: 
  seq: 16752
  stamp: 
    secs: 1723788847
    nsecs: 855141504
  frame_id: "map"
pose: 
  position: 
    x: 0.0135128004476
    y: 7.2731628418
    z: -1.08898186684
  orientation: 
    x: 0.00628646258048
    y: 0.0267418520348
    z: -0.646849163184
    w: 0.762123101402
---
header: 
  seq: 16753
  stamp: 
    secs: 1723788847
    nsecs: 885141504
  frame_id: "map"
pose: 
  position: 
    x: 0.0133739598095
    y: 7.27307939529
    z: -1.08917963505
  orientation: 
    x: 0.00624833351201
    y: 0.026822412443
    z: -0.646914654119
    w: 0.762065028313
---
header: 
  seq: 16754
  stamp: 
    secs: 1723788847
    nsecs: 925141504
  frame_id: "map"
pose: 
  position: 
    x: 0.0131904473528
    y: 7.27310800552
    z: -1.08919811249
  orientation: 
    x: 0.00623716064589
    y: 0.026809672241
    z: -0.646943008411
    w: 0.762041478761
---
header: 
  seq: 16755
  stamp: 
    secs: 1723788847
    nsecs: 955144064
  frame_id: "map"
pose: 
  position: 
    x: 0.0130255119875
    y: 7.27317237854
    z: -1.08915376663
  orientation: 
    x: 0.00625409577646
    y: 0.0267564012586
    z: -0.646956553354
    w: 0.762031727034
---
header: 
